{
 "_note": "REAL 1,000-row sample from the Japan Ramen Active Master (62,173 active). IDs are public masks (internal keys withheld). name_en/pref_en/city_en let you query fully in English. keito is the coarse public enum (tonkotsu/miso/shoyu/shio/tsukemen/spicy/other). payment_qr_accepted / stationless are enriched in the live API only. No canary records.",
 "_attribution": "Store facts observed from public web ramen listings; licensing-verified records from Japanese municipality open data (© municipality open data, CC BY). Derived values (keito, romanization, station distance) © gachi-tokusuru.com.",
 "schema_version": "1.2.0",
 "sample_count": 1000,
 "master_count": 62173,
 "shops": [
  {
   "rk_id": "rk_pub_00001",
   "name": "らーめん たべ亭",
   "name_en": "Ramen Tabetei",
   "pref": "三重県",
   "pref_en": "Mie",
   "city": "いなべ市",
   "city_en": "Inabe Shi",
   "lat": 35.150902,
   "lng": 136.510727,
   "keito": [],
   "genre": "ramen",
   "cash_only_flag": null,
   "payment_qr_accepted": null,
   "stationless_flag": null,
   "status": "active"
  },
  {
   "rk_id": "rk_pub_00002",
   "name": "ル・シノワ 花栞",
   "name_en": "Le Chinois Hana Shiori",
   "pref": "三重県",
   "pref_en": "Mie",
   "city": "伊勢市",
   "city_en": "Ise Shi",
   "lat": 34.507648,
   "lng": 136.780991,
   "keito": [],
   "genre": "ramen",
   "cash_only_flag": null,
   "payment_qr_accepted": null,
   "stationless_flag": null,
   "status": "active"
  },
  {
   "rk_id": "rk_pub_00003",
   "name": "台湾ラーメン盛華",
   "name_en": "Taiwan Ramen Seika",
   "pref": "三重県",
   "pref_en": "Mie",
   "city": "員弁郡東員町",
   "city_en": "Inabe Gun Toin Machi",
   "lat": 35.081764,
   "lng": 136.603973,
   "keito": [],
   "genre": "ramen",
   "cash_only_flag": null,
   "payment_qr_accepted": null,
   "stationless_flag": null,
   "status": "active"
  },
  {
   "rk_id": "rk_pub_00004",
   "name": "麺屋 こころ 四日市店",
   "name_en": "Menya Kokoro Yokkaichi Ten",
   "pref": "三重県",
   "pref_en": "Mie",
   "city": "四日市",
   "city_en": "Yokkaichi",
   "lat": 34.966282,
   "lng": 136.621475,
   "keito": [],
   "genre": "ramen",
   "cash_only_flag": null,
   "payment_qr_accepted": null,
   "stationless_flag": null,
   "status": "active"
  },
  {
   "rk_id": "rk_pub_00005",
   "name": "辛麺屋　鯱輪四日市富田駅前店",
   "name_en": "Shin Men Ya Shachirin Yokkaichi Tomita Ekimae Ten",
   "pref": "三重県",
   "pref_en": "Mie",
   "city": "四日市",
   "city_en": "Yokkaichi",
   "lat": 35.006981,
   "lng": 136.650024,
   "keito": [],
   "genre": "ramen",
   "cash_only_flag": null,
   "payment_qr_accepted": null,
   "stationless_flag": null,
   "status": "active"
  },
  {
   "rk_id": "rk_pub_00006",
   "name": "中国菜館 明華",
   "name_en": "Chugoku Saikan Meika",
   "pref": "三重県",
   "pref_en": "Mie",
   "city": "松阪市",
   "city_en": "Matsusaka Shi",
   "lat": 34.550728,
   "lng": 136.519226,
   "keito": [],
   "genre": "ramen",
   "cash_only_flag": null,
   "payment_qr_accepted": null,
   "stationless_flag": null,
   "status": "active"
  },
  {
   "rk_id": "rk_pub_00007",
   "name": "ラーメン天風 長島店",
   "name_en": "Ramen Tenpu Nagashima Ten",
   "pref": "三重県",
   "pref_en": "Mie",
   "city": "桑名市",
   "city_en": "Kuwana Shi",
   "lat": 35.095234,
   "lng": 136.703842,
   "keito": [],
   "genre": "ramen",
   "cash_only_flag": null,
   "payment_qr_accepted": null,
   "stationless_flag": null,
   "status": "active"
  },
  {
   "rk_id": "rk_pub_00008",
   "name": "元祖中洲屋台 一竜",
   "name_en": "Ganso Nakasu Yatai Ichiryu",
   "pref": "三重県",
   "pref_en": "Mie",
   "city": "津市",
   "city_en": "Tsu Shi",
   "lat": 34.678322,
   "lng": 136.517288,
   "keito": [],
   "genre": "ramen",
   "cash_only_flag": null,
   "payment_qr_accepted": null,
   "stationless_flag": null,
   "status": "active"
  },
  {
   "rk_id": "rk_pub_00009",
   "name": "ベビースターダイニング",
   "name_en": "Baby Star Dining",
   "pref": "三重県",
   "pref_en": "Mie",
   "city": "津市",
   "city_en": "Tsu Shi",
   "lat": 34.684879,
   "lng": 136.421204,
   "keito": [],
   "genre": "ramen",
   "cash_only_flag": null,
   "payment_qr_accepted": null,
   "stationless_flag": null,
   "status": "active"
  },
  {
   "rk_id": "rk_pub_00010",
   "name": "中華そば大林",
   "name_en": "Chuka Soba Obayashi",
   "pref": "三重県",
   "pref_en": "Mie",
   "city": "鈴鹿市",
   "city_en": "Suzuka Shi",
   "lat": 34.855713,
   "lng": 136.540802,
   "keito": [
    "shoyu"
   ],
   "genre": "ramen",
   "cash_only_flag": null,
   "payment_qr_accepted": null,
   "stationless_flag": null,
   "status": "active"
  },
  {
   "rk_id": "rk_pub_00011",
   "name": "新福菜館 久御山店",
   "name_en": "Shinpukusaikan",
   "pref": "京都府",
   "pref_en": "Kyoto",
   "city": "久世郡久御山町",
   "city_en": "Kuze Gun Kumiyama Machi",
   "lat": 34.875072,
   "lng": 135.758102,
   "keito": [],
   "genre": "ramen",
   "cash_only_flag": null,
   "payment_qr_accepted": null,
   "stationless_flag": null,
   "status": "active"
  },
  {
   "rk_id": "rk_pub_00012",
   "name": "町屋のラーメン酒場 K",
   "name_en": "Machiya no Ramen Sakaba K",
   "pref": "京都府",
   "pref_en": "Kyoto",
   "city": "京都市上京区",
   "city_en": "Kyoto Shi Jokyo Ku",
   "lat": 35.030266,
   "lng": 135.739777,
   "keito": [],
   "genre": "ramen",
   "cash_only_flag": null,
   "payment_qr_accepted": null,
   "stationless_flag": null,
   "status": "active"
  },
  {
   "rk_id": "rk_pub_00013",
   "name": "原了郭 京都駅 八条口店",
   "name_en": "Hararyokaku Kyotoeki Hachijoguchi Ten",
   "pref": "京都府",
   "pref_en": "Kyoto",
   "city": "京都市下京区",
   "city_en": "Kyoto Shi Shimogyo Ku",
   "lat": 34.985142,
   "lng": 135.761215,
   "keito": [],
   "genre": "ramen",
   "cash_only_flag": null,
   "payment_qr_accepted": null,
   "stationless_flag": null,
   "status": "active"
  },
  {
   "rk_id": "rk_pub_00014",
   "name": "餃子の王将 河原町店",
   "name_en": "Gyoza No Osho Kawaramachi Ten",
   "pref": "京都府",
   "pref_en": "Kyoto",
   "city": "京都市中京区",
   "city_en": "Kyoto Shi Chukyo Ku",
   "lat": 35.006287,
   "lng": 135.770081,
   "keito": [],
   "genre": "chinese",
   "cash_only_flag": null,
   "payment_qr_accepted": null,
   "stationless_flag": null,
   "status": "active"
  },
  {
   "rk_id": "rk_pub_00015",
   "name": "キラメキノトリ 西大路円町店",
   "name_en": "Kiramekinotori Nishioji Enmachi Ten",
   "pref": "京都府",
   "pref_en": "Kyoto",
   "city": "京都市中京区",
   "city_en": "Kyoto Shi Chukyo Ku",
   "lat": 35.018314,
   "lng": 135.731552,
   "keito": [],
   "genre": "ramen",
   "cash_only_flag": null,
   "payment_qr_accepted": null,
   "stationless_flag": null,
   "status": "active"
  },
  {
   "rk_id": "rk_pub_00016",
   "name": "太陽軒",
   "name_en": "Taiyouken",
   "pref": "京都府",
   "pref_en": "Kyoto",
   "city": "京都市伏見区",
   "city_en": "Kyoto Shi Fushimi Ku",
   "lat": 34.925987,
   "lng": 135.769516,
   "keito": [],
   "genre": "ramen",
   "cash_only_flag": null,
   "payment_qr_accepted": null,
   "stationless_flag": null,
   "status": "active"
  },
  {
   "rk_id": "rk_pub_00017",
   "name": "らーめんや たみん",
   "name_en": "Ramenya Tamin",
   "pref": "京都府",
   "pref_en": "Kyoto",
   "city": "京都市伏見区",
   "city_en": "Kyoto Shi Fushimi Ku",
   "lat": 34.964191,
   "lng": 135.770905,
   "keito": [],
   "genre": "ramen",
   "cash_only_flag": null,
   "payment_qr_accepted": null,
   "stationless_flag": null,
   "status": "active"
  },
  {
   "rk_id": "rk_pub_00018",
   "name": "来来亭 十条竹田店",
   "name_en": "Rairaitei",
   "pref": "京都府",
   "pref_en": "Kyoto",
   "city": "京都市南区",
   "city_en": "Kyoto Shi Minami Ku",
   "lat": 34.97274,
   "lng": 135.761292,
   "keito": [
    "shoyu"
   ],
   "genre": "ramen",
   "cash_only_flag": null,
   "payment_qr_accepted": null,
   "stationless_flag": null,
   "status": "active"
  },
  {
   "rk_id": "rk_pub_00019",
   "name": "つけ麺 京都わたなべ",
   "name_en": "Tsuke Men Kyoto Watanabe",
   "pref": "京都府",
   "pref_en": "Kyoto",
   "city": "京都市右京区",
   "city_en": "Kyoto Shi Ukyo Ku",
   "lat": 35.003311,
   "lng": 135.731567,
   "keito": [
    "tsukemen"
   ],
   "genre": "ramen",
   "cash_only_flag": null,
   "payment_qr_accepted": null,
   "stationless_flag": null,
   "status": "active"
  },
  {
   "rk_id": "rk_pub_00020",
   "name": "屋号がない！担々麺",
   "name_en": "Yago ga Nai! Tantanmen",
   "pref": "京都府",
   "pref_en": "Kyoto",
   "city": "京都市山科区",
   "city_en": "Kyoto Shi Yamashina Ku",
   "lat": 34.965469,
   "lng": 135.808289,
   "keito": [
    "spicy"
   ],
   "genre": "ramen",
   "cash_only_flag": null,
   "payment_qr_accepted": null,
   "stationless_flag": null,
   "status": "active"
  },
  {
   "rk_id": "rk_pub_00021",
   "name": "麺屋 聖",
   "name_en": "Men Ya Hijiri",
   "pref": "京都府",
   "pref_en": "Kyoto",
   "city": "京都市左京区",
   "city_en": "Kyoto Shi Sakyo Ku",
   "lat": 35.04335,
   "lng": 135.784103,
   "keito": [],
   "genre": "ramen",
   "cash_only_flag": null,
   "payment_qr_accepted": null,
   "stationless_flag": null,
   "status": "active"
  },
  {
   "rk_id": "rk_pub_00022",
   "name": "麺屋EDITION 京都本店",
   "name_en": "Men Ya Edition Kyoto Honten",
   "pref": "京都府",
   "pref_en": "Kyoto",
   "city": "京都市東山区",
   "city_en": "Kyoto Shi Higashiyama Ku",
   "lat": 34.989872,
   "lng": 135.768463,
   "keito": [],
   "genre": "ramen",
   "cash_only_flag": null,
   "payment_qr_accepted": null,
   "stationless_flag": null,
   "status": "active"
  },
  {
   "rk_id": "rk_pub_00023",
   "name": "天下一品 アルプラザ城陽店",
   "name_en": "Tenkaippin",
   "pref": "京都府",
   "pref_en": "Kyoto",
   "city": "城陽市",
   "city_en": "Joyo Shi",
   "lat": 34.843407,
   "lng": 135.785339,
   "keito": [],
   "genre": "ramen",
   "cash_only_flag": null,
   "payment_qr_accepted": null,
   "stationless_flag": null,
   "status": "active"
  },
  {
   "rk_id": "rk_pub_00024",
   "name": "総本家廣瀬家 特製ラーメン 第一旭 福知山店",
   "name_en": "Sohonke Hiroseya Tokusei Ramen Daiichi Asahi Fukuchiyama Ten",
   "pref": "京都府",
   "pref_en": "Kyoto",
   "city": "福知山市",
   "city_en": "Fukuchiyama Shi",
   "lat": 35.2799,
   "lng": 135.132111,
   "keito": [
    "tonkotsu"
   ],
   "genre": "ramen",
   "cash_only_flag": null,
   "payment_qr_accepted": null,
   "stationless_flag": null,
   "status": "active"
  },
  {
   "rk_id": "rk_pub_00025",
   "name": "麺やTAO",
   "name_en": "Men Ya Tao",
   "pref": "佐賀県",
   "pref_en": "Saga",
   "city": "三養基郡みやき町大字市",
   "city_en": "Miyaki Gun Miyaki Machi Oaza Shi",
   "lat": 33.293316,
   "lng": 130.426575,
   "keito": [],
   "genre": "ramen",
   "cash_only_flag": null,
   "payment_qr_accepted": null,
   "stationless_flag": null,
   "status": "active"
  },
  {
   "rk_id": "rk_pub_00026",
   "name": "チャイナ食堂 龍福KITCHEN",
   "name_en": "China Shokudo Ryufuku Kitchen",
   "pref": "佐賀県",
   "pref_en": "Saga",
   "city": "佐賀市",
   "city_en": "Saga Shi",
   "lat": 33.249081,
   "lng": 130.294312,
   "keito": [],
   "genre": "ramen",
   "cash_only_flag": null,
   "payment_qr_accepted": null,
   "stationless_flag": null,
   "status": "active"
  },
  {
   "rk_id": "rk_pub_00027",
   "name": "ラーメンきあげ",
   "name_en": "Ramen Kiage",
   "pref": "佐賀県",
   "pref_en": "Saga",
   "city": "唐津市",
   "city_en": "Karatsu Shi",
   "lat": 33.446457,
   "lng": 129.966644,
   "keito": [],
   "genre": "ramen",
   "cash_only_flag": null,
   "payment_qr_accepted": null,
   "stationless_flag": null,
   "status": "active"
  },
  {
   "rk_id": "rk_pub_00028",
   "name": "秀ちゃんラーメン",
   "name_en": "Hide-chan Ramen",
   "pref": "佐賀県",
   "pref_en": "Saga",
   "city": "杵島郡白石町",
   "city_en": "Kine Shima Gun Shiroishi Machi",
   "lat": 33.183193,
   "lng": 130.185364,
   "keito": [],
   "genre": "ramen",
   "cash_only_flag": null,
   "payment_qr_accepted": null,
   "stationless_flag": null,
   "status": "active"
  },
  {
   "rk_id": "rk_pub_00029",
   "name": "辛麺酒場一",
   "name_en": "Karamen Sakaba Hajime",
   "pref": "佐賀県",
   "pref_en": "Saga",
   "city": "鳥栖市",
   "city_en": "Tosu Shi",
   "lat": 33.374634,
   "lng": 130.518402,
   "keito": [],
   "genre": "ramen",
   "cash_only_flag": null,
   "payment_qr_accepted": null,
   "stationless_flag": null,
   "status": "active"
  },
  {
   "rk_id": "rk_pub_00030",
   "name": "とんとん",
   "name_en": "Tonton",
   "pref": "兵庫県",
   "pref_en": "Hyogo",
   "city": "丹波市",
   "city_en": "Tanba Shi",
   "lat": 35.247086,
   "lng": 134.999802,
   "keito": [],
   "genre": "ramen",
   "cash_only_flag": null,
   "payment_qr_accepted": null,
   "stationless_flag": null,
   "status": "active"
  },
  {
   "rk_id": "rk_pub_00031",
   "name": "お食事処 宿場町 ひらふく",
   "name_en": "Oshokuji Dokoro Shukubamachi Hirafuku",
   "pref": "兵庫県",
   "pref_en": "Hyogo",
   "city": "佐用郡佐用町",
   "city_en": "Sayo Gun Sayo Machi",
   "lat": 35.04858,
   "lng": 134.367874,
   "keito": [],
   "genre": "ramen",
   "cash_only_flag": null,
   "payment_qr_accepted": null,
   "stationless_flag": null,
   "status": "active"
  },
  {
   "rk_id": "rk_pub_00032",
   "name": "播州ラーメン かんばし 尾上店",
   "name_en": "Banshu Ramen Kanbashi Onoe Ten",
   "pref": "兵庫県",
   "pref_en": "Hyogo",
   "city": "加古川市",
   "city_en": "Kakogawa Shi",
   "lat": 34.736423,
   "lng": 134.831009,
   "keito": [],
   "genre": "ramen",
   "cash_only_flag": null,
   "payment_qr_accepted": null,
   "stationless_flag": null,
   "status": "active"
  },
  {
   "rk_id": "rk_pub_00033",
   "name": "丸十",
   "name_en": "Maruju",
   "pref": "兵庫県",
   "pref_en": "Hyogo",
   "city": "姫路市",
   "city_en": "Himeji Shi",
   "lat": 34.829494,
   "lng": 134.692215,
   "keito": [],
   "genre": "ramen",
   "cash_only_flag": null,
   "payment_qr_accepted": null,
   "stationless_flag": null,
   "status": "active"
  },
  {
   "rk_id": "rk_pub_00034",
   "name": "えきそば グランフェスタ店",
   "name_en": "Ekisoba Granfesta Ten",
   "pref": "兵庫県",
   "pref_en": "Hyogo",
   "city": "姫路市",
   "city_en": "Himeji Shi",
   "lat": 34.828102,
   "lng": 134.691437,
   "keito": [],
   "genre": "ramen",
   "cash_only_flag": null,
   "payment_qr_accepted": null,
   "stationless_flag": null,
   "status": "active"
  },
  {
   "rk_id": "rk_pub_00035",
   "name": "麺屋甚八 飾磨店",
   "name_en": "Menya Jinpachi Shikama Ten",
   "pref": "兵庫県",
   "pref_en": "Hyogo",
   "city": "姫路市飾磨区",
   "city_en": "Himeji Shi Shikama Ku",
   "lat": 34.784943,
   "lng": 134.651215,
   "keito": [],
   "genre": "ramen",
   "cash_only_flag": null,
   "payment_qr_accepted": null,
   "stationless_flag": null,
   "status": "active"
  },
  {
   "rk_id": "rk_pub_00036",
   "name": "三吉らーめん",
   "name_en": "Sankichi Ramen",
   "pref": "兵庫県",
   "pref_en": "Hyogo",
   "city": "尼崎市",
   "city_en": "Amagasaki Shi",
   "lat": 34.730141,
   "lng": 135.386612,
   "keito": [],
   "genre": "ramen",
   "cash_only_flag": null,
   "payment_qr_accepted": null,
   "stationless_flag": null,
   "status": "active"
  },
  {
   "rk_id": "rk_pub_00037",
   "name": "だしが命の塩らーめん ぎょぎょぎょ 尼崎店",
   "name_en": "Dashiga Inochi No Shio Ramen Gyogyogyo Amagasaki Ten",
   "pref": "兵庫県",
   "pref_en": "Hyogo",
   "city": "尼崎市",
   "city_en": "Amagasaki Shi",
   "lat": 34.720825,
   "lng": 135.411057,
   "keito": [
    "shio"
   ],
   "genre": "ramen",
   "cash_only_flag": null,
   "payment_qr_accepted": null,
   "stationless_flag": null,
   "status": "active"
  },
  {
   "rk_id": "rk_pub_00038",
   "name": "紅虎餃子房 ピオレ明石店",
   "name_en": "Beniko Gyozabo Piole Akashi Ten",
   "pref": "兵庫県",
   "pref_en": "Hyogo",
   "city": "明石市",
   "city_en": "Akashi Shi",
   "lat": 34.648937,
   "lng": 134.992722,
   "keito": [],
   "genre": "chinese",
   "cash_only_flag": null,
   "payment_qr_accepted": null,
   "stationless_flag": null,
   "status": "active"
  },
  {
   "rk_id": "rk_pub_00039",
   "name": "下木家",
   "name_en": "Shimokiya",
   "pref": "兵庫県",
   "pref_en": "Hyogo",
   "city": "淡路市",
   "city_en": "Awaji Shi",
   "lat": 34.459591,
   "lng": 134.822083,
   "keito": [
    "tonkotsu"
   ],
   "genre": "ramen",
   "cash_only_flag": null,
   "payment_qr_accepted": null,
   "stationless_flag": null,
   "status": "active"
  },
  {
   "rk_id": "rk_pub_00040",
   "name": "徳島らーめん まるたか 第5回ふるさと四国の物産展",
   "name_en": "Tokushima Ramen Marutaka Dai 5 Kai Furusato Shikoku No Bussanten",
   "pref": "兵庫県",
   "pref_en": "Hyogo",
   "city": "神戸市中央区",
   "city_en": "Kobe Shi Chuo Ku",
   "lat": 34.692623,
   "lng": 135.195175,
   "keito": [],
   "genre": "ramen",
   "cash_only_flag": null,
   "payment_qr_accepted": null,
   "stationless_flag": null,
   "status": "active"
  },
  {
   "rk_id": "rk_pub_00041",
   "name": "神戸灘八 本店",
   "name_en": "Kobe Nada Hachi Honten",
   "pref": "兵庫県",
   "pref_en": "Hyogo",
   "city": "神戸市中央区",
   "city_en": "Kobe Shi Chuo Ku",
   "lat": 34.692177,
   "lng": 135.191193,
   "keito": [],
   "genre": "ramen",
   "cash_only_flag": null,
   "payment_qr_accepted": null,
   "stationless_flag": null,
   "status": "active"
  },
  {
   "rk_id": "rk_pub_00042",
   "name": "珠しっぴん",
   "name_en": "Tama Shippin",
   "pref": "兵庫県",
   "pref_en": "Hyogo",
   "city": "神戸市中央区",
   "city_en": "Kobe Shi Chuo Ku",
   "lat": 34.689095,
   "lng": 135.188156,
   "keito": [],
   "genre": "ramen",
   "cash_only_flag": null,
   "payment_qr_accepted": null,
   "stationless_flag": null,
   "status": "active"
  },
  {
   "rk_id": "rk_pub_00043",
   "name": "法橋",
   "name_en": "Hokyo",
   "pref": "兵庫県",
   "pref_en": "Hyogo",
   "city": "神戸市中央区",
   "city_en": "Kobe Shi Chuo Ku",
   "lat": 34.699154,
   "lng": 135.202377,
   "keito": [],
   "genre": "ramen",
   "cash_only_flag": null,
   "payment_qr_accepted": null,
   "stationless_flag": null,
   "status": "active"
  },
  {
   "rk_id": "rk_pub_00044",
   "name": "お食事 心",
   "name_en": "Oshokuji Kokoro",
   "pref": "兵庫県",
   "pref_en": "Hyogo",
   "city": "神戸市兵庫区",
   "city_en": "Kobe Shi Hyogo Ku",
   "lat": 34.685562,
   "lng": 135.16951,
   "keito": [],
   "genre": "ramen",
   "cash_only_flag": null,
   "payment_qr_accepted": null,
   "stationless_flag": null,
   "status": "active"
  },
  {
   "rk_id": "rk_pub_00045",
   "name": "椀食卓 さなか",
   "name_en": "Wan Shokutaku Sanaka",
   "pref": "兵庫県",
   "pref_en": "Hyogo",
   "city": "神戸市東灘区",
   "city_en": "Kobe Shi Higashinada Ku",
   "lat": 34.726818,
   "lng": 135.27681,
   "keito": [],
   "genre": "ramen",
   "cash_only_flag": null,
   "payment_qr_accepted": null,
   "stationless_flag": null,
   "status": "active"
  },
  {
   "rk_id": "rk_pub_00046",
   "name": "啜処 三斗 王子店",
   "name_en": "Susurudokoro Santo Oji Ten",
   "pref": "兵庫県",
   "pref_en": "Hyogo",
   "city": "神戸市灘区",
   "city_en": "Kobe Shi Nada Ku",
   "lat": 34.711731,
   "lng": 135.222031,
   "keito": [],
   "genre": "ramen",
   "cash_only_flag": null,
   "payment_qr_accepted": null,
   "stationless_flag": null,
   "status": "active"
  },
  {
   "rk_id": "rk_pub_00047",
   "name": "新星家",
   "name_en": "Shinseiya",
   "pref": "兵庫県",
   "pref_en": "Hyogo",
   "city": "神戸市長田区",
   "city_en": "Kobe Shi Nagata Ku",
   "lat": 34.66721,
   "lng": 135.152527,
   "keito": [
    "tonkotsu"
   ],
   "genre": "ramen",
   "cash_only_flag": null,
   "payment_qr_accepted": null,
   "stationless_flag": null,
   "status": "active"
  },
  {
   "rk_id": "rk_pub_00048",
   "name": "宮っ子ラーメン 本店",
   "name_en": "Miyakko Ramen Honten",
   "pref": "兵庫県",
   "pref_en": "Hyogo",
   "city": "西宮市",
   "city_en": "Nishinomiya Shi",
   "lat": 34.766884,
   "lng": 135.363068,
   "keito": [],
   "genre": "ramen",
   "cash_only_flag": null,
   "payment_qr_accepted": null,
   "stationless_flag": null,
   "status": "active"
  },
  {
   "rk_id": "rk_pub_00049",
   "name": "大阪王将 阪神甲子園店",
   "name_en": "Osaka Osho Hanshin Koshien Ten",
   "pref": "兵庫県",
   "pref_en": "Hyogo",
   "city": "西宮市",
   "city_en": "Nishinomiya Shi",
   "lat": 34.723904,
   "lng": 135.362381,
   "keito": [],
   "genre": "ramen",
   "cash_only_flag": null,
   "payment_qr_accepted": null,
   "stationless_flag": null,
   "status": "active"
  },
  {
   "rk_id": "rk_pub_00050",
   "name": "ラーメン・コーヒー『きび』",
   "name_en": "Ramen Kohi Kibi",
   "pref": "兵庫県",
   "pref_en": "Hyogo",
   "city": "豊岡市",
   "city_en": "Toyoka Shi",
   "lat": 35.501347,
   "lng": 134.805496,
   "keito": [],
   "genre": "ramen",
   "cash_only_flag": null,
   "payment_qr_accepted": null,
   "stationless_flag": null,
   "status": "active"
  },
  {
   "rk_id": "rk_pub_00051",
   "name": "三浦商店",
   "name_en": "Miura Shoten",
   "pref": "北海道",
   "pref_en": "Hokkaido",
   "city": "上川郡新得町",
   "city_en": "Kamikawa Gun Shintoku Machi",
   "lat": 43.083069,
   "lng": 142.832672,
   "keito": [],
   "genre": "ramen",
   "cash_only_flag": null,
   "payment_qr_accepted": null,
   "stationless_flag": null,
   "status": "active"
  },
  {
   "rk_id": "rk_pub_00052",
   "name": "カレーらーめん じぇんとる麺 伊達店",
   "name_en": "Curry Ramen Gentlemen Date Ten",
   "pref": "北海道",
   "pref_en": "Hokkaido",
   "city": "伊達市",
   "city_en": "Date Shi",
   "lat": 42.472027,
   "lng": 140.861343,
   "keito": [],
   "genre": "ramen",
   "cash_only_flag": null,
   "payment_qr_accepted": null,
   "stationless_flag": null,
   "status": "active"
  },
  {
   "rk_id": "rk_pub_00053",
   "name": "虎龍",
   "name_en": "Koryu",
   "pref": "北海道",
   "pref_en": "Hokkaido",
   "city": "函館市",
   "city_en": "Hakodate Shi",
   "lat": 41.802483,
   "lng": 140.73909,
   "keito": [],
   "genre": "ramen",
   "cash_only_flag": null,
   "payment_qr_accepted": null,
   "stationless_flag": null,
   "status": "active"
  },
  {
   "rk_id": "rk_pub_00054",
   "name": "廣河ヌードル",
   "name_en": "Hirokawa Noodle",
   "pref": "北海道",
   "pref_en": "Hokkaido",
   "city": "函館市",
   "city_en": "Hakodate Shi",
   "lat": 41.793491,
   "lng": 140.732864,
   "keito": [],
   "genre": "ramen",
   "cash_only_flag": null,
   "payment_qr_accepted": null,
   "stationless_flag": null,
   "status": "active"
  },
  {
   "rk_id": "rk_pub_00055",
   "name": "さとう食堂",
   "name_en": "Sato Shokudo",
   "pref": "北海道",
   "pref_en": "Hokkaido",
   "city": "利尻郡利尻富士町",
   "city_en": "Rishiri Gun Rishirifuji Machi",
   "lat": 45.222095,
   "lng": 141.219864,
   "keito": [],
   "genre": "ramen",
   "cash_only_flag": null,
   "payment_qr_accepted": null,
   "stationless_flag": null,
   "status": "active"
  },
  {
   "rk_id": "rk_pub_00056",
   "name": "麺や 福丸",
   "name_en": "Men Ya Fukumaru",
   "pref": "北海道",
   "pref_en": "Hokkaido",
   "city": "北斗市",
   "city_en": "Hokuto Shi",
   "lat": 41.869396,
   "lng": 140.658737,
   "keito": [],
   "genre": "ramen",
   "cash_only_flag": null,
   "payment_qr_accepted": null,
   "stationless_flag": null,
   "status": "active"
  },
  {
   "rk_id": "rk_pub_00057",
   "name": "らーめん もぐもぐ堂",
   "name_en": "Ramen Mogumogu Do",
   "pref": "北海道",
   "pref_en": "Hokkaido",
   "city": "北見市",
   "city_en": "Kitami Shi",
   "lat": 43.797081,
   "lng": 143.857849,
   "keito": [],
   "genre": "ramen",
   "cash_only_flag": null,
   "payment_qr_accepted": null,
   "stationless_flag": null,
   "status": "active"
  },
  {
   "rk_id": "rk_pub_00058",
   "name": "極太無双",
   "name_en": "Gokubuto Muso",
   "pref": "北海道",
   "pref_en": "Hokkaido",
   "city": "千歳市",
   "city_en": "Chitose Shi",
   "lat": 42.853039,
   "lng": 141.624893,
   "keito": [],
   "genre": "ramen",
   "cash_only_flag": null,
   "payment_qr_accepted": null,
   "stationless_flag": null,
   "status": "active"
  },
  {
   "rk_id": "rk_pub_00059",
   "name": "あいづ食堂",
   "name_en": "Aizu Shokudo",
   "pref": "北海道",
   "pref_en": "Hokkaido",
   "city": "天塩郡幌延町",
   "city_en": "Teshio Gun Horonobe Machi",
   "lat": 45.013718,
   "lng": 141.849136,
   "keito": [],
   "genre": "ramen",
   "cash_only_flag": null,
   "payment_qr_accepted": null,
   "stationless_flag": null,
   "status": "active"
  },
  {
   "rk_id": "rk_pub_00060",
   "name": "てうちラーメン いよ丸水産",
   "name_en": "Teuchi Ramen Iyo Maru Suisan",
   "pref": "北海道",
   "pref_en": "Hokkaido",
   "city": "富良野市",
   "city_en": "Furano Shi",
   "lat": 43.344826,
   "lng": 142.389297,
   "keito": [],
   "genre": "ramen",
   "cash_only_flag": null,
   "payment_qr_accepted": null,
   "stationless_flag": null,
   "status": "active"
  },
  {
   "rk_id": "rk_pub_00061",
   "name": "らあめんとおばんざい 麺乃夢恋",
   "name_en": "Ramen to Obanzai Men no Yumekoi",
   "pref": "北海道",
   "pref_en": "Hokkaido",
   "city": "小樽市",
   "city_en": "Otaru Shi",
   "lat": 43.143864,
   "lng": 141.162842,
   "keito": [],
   "genre": "ramen",
   "cash_only_flag": null,
   "payment_qr_accepted": null,
   "stationless_flag": null,
   "status": "active"
  },
  {
   "rk_id": "rk_pub_00062",
   "name": "ラーメン大光",
   "name_en": "Ramen Daiko",
   "pref": "北海道",
   "pref_en": "Hokkaido",
   "city": "帯広市",
   "city_en": "Obihiro Shi",
   "lat": 42.908806,
   "lng": 143.214417,
   "keito": [],
   "genre": "ramen",
   "cash_only_flag": null,
   "payment_qr_accepted": null,
   "stationless_flag": null,
   "status": "active"
  },
  {
   "rk_id": "rk_pub_00063",
   "name": "ラーメン空海",
   "name_en": "Ramen Kukai",
   "pref": "北海道",
   "pref_en": "Hokkaido",
   "city": "帯広市",
   "city_en": "Obihiro Shi",
   "lat": 42.919128,
   "lng": 143.178894,
   "keito": [],
   "genre": "ramen",
   "cash_only_flag": null,
   "payment_qr_accepted": null,
   "stationless_flag": null,
   "status": "active"
  },
  {
   "rk_id": "rk_pub_00064",
   "name": "鈴や",
   "name_en": "Suzuya",
   "pref": "北海道",
   "pref_en": "Hokkaido",
   "city": "広尾郡広尾町",
   "city_en": "Hiro Gun Hiro Machi",
   "lat": 42.413189,
   "lng": 143.25737,
   "keito": [],
   "genre": "ramen",
   "cash_only_flag": null,
   "payment_qr_accepted": null,
   "stationless_flag": null,
   "status": "active"
  },
  {
   "rk_id": "rk_pub_00065",
   "name": "旭川ラーメン蜂屋本店",
   "name_en": "Asahikawa Ramen Hachiya Honten",
   "pref": "北海道",
   "pref_en": "Hokkaido",
   "city": "旭川市",
   "city_en": "Asahikawa Shi",
   "lat": 43.764458,
   "lng": 142.371704,
   "keito": [],
   "genre": "ramen",
   "cash_only_flag": null,
   "payment_qr_accepted": null,
   "stationless_flag": null,
   "status": "active"
  },
  {
   "rk_id": "rk_pub_00066",
   "name": "はれる家",
   "name_en": "Hareruya",
   "pref": "北海道",
   "pref_en": "Hokkaido",
   "city": "旭川市",
   "city_en": "Asahikawa Shi",
   "lat": 43.781914,
   "lng": 142.386887,
   "keito": [
    "tonkotsu"
   ],
   "genre": "ramen",
   "cash_only_flag": null,
   "payment_qr_accepted": null,
   "stationless_flag": null,
   "status": "active"
  },
  {
   "rk_id": "rk_pub_00067",
   "name": "らーめん富蔵",
   "name_en": "Ramen Tomikura",
   "pref": "北海道",
   "pref_en": "Hokkaido",
   "city": "旭川市",
   "city_en": "Asahikawa Shi",
   "lat": 43.788967,
   "lng": 142.407379,
   "keito": [],
   "genre": "ramen",
   "cash_only_flag": null,
   "payment_qr_accepted": null,
   "stationless_flag": null,
   "status": "active"
  },
  {
   "rk_id": "rk_pub_00068",
   "name": "あさめし前田本舗",
   "name_en": "Asameshi Maeda Honpo",
   "pref": "北海道",
   "pref_en": "Hokkaido",
   "city": "旭川市",
   "city_en": "Asahikawa Shi",
   "lat": 43.765087,
   "lng": 142.359741,
   "keito": [],
   "genre": "ramen",
   "cash_only_flag": null,
   "payment_qr_accepted": null,
   "stationless_flag": null,
   "status": "active"
  },
  {
   "rk_id": "rk_pub_00069",
   "name": "大雪地ビール館",
   "name_en": "Taisetsuchi Beer Kan",
   "pref": "北海道",
   "pref_en": "Hokkaido",
   "city": "旭川市",
   "city_en": "Asahikawa Shi",
   "lat": 43.76265,
   "lng": 142.363724,
   "keito": [],
   "genre": "ramen",
   "cash_only_flag": null,
   "payment_qr_accepted": null,
   "stationless_flag": null,
   "status": "active"
  },
  {
   "rk_id": "rk_pub_00070",
   "name": "びっくり亭",
   "name_en": "Bikkuritei",
   "pref": "北海道",
   "pref_en": "Hokkaido",
   "city": "札幌市中央区",
   "city_en": "Sapporo Shi Chuo Ku",
   "lat": 43.058674,
   "lng": 141.350128,
   "keito": [],
   "genre": "ramen",
   "cash_only_flag": null,
   "payment_qr_accepted": null,
   "stationless_flag": null,
   "status": "active"
  },
  {
   "rk_id": "rk_pub_00071",
   "name": "札幌ラーメンショー2015",
   "name_en": "Sapporo Ramensho 2015",
   "pref": "北海道",
   "pref_en": "Hokkaido",
   "city": "札幌市中央区",
   "city_en": "Sapporo Shi Chuo Ku",
   "lat": 43.059574,
   "lng": 141.345062,
   "keito": [
    "miso"
   ],
   "genre": "ramen",
   "cash_only_flag": null,
   "payment_qr_accepted": null,
   "stationless_flag": null,
   "status": "active"
  },
  {
   "rk_id": "rk_pub_00072",
   "name": "中華工房 天紅",
   "name_en": "Chuka Kobo Tenko",
   "pref": "北海道",
   "pref_en": "Hokkaido",
   "city": "札幌市中央区",
   "city_en": "Sapporo Shi Chuo Ku",
   "lat": 43.057755,
   "lng": 141.345535,
   "keito": [],
   "genre": "ramen",
   "cash_only_flag": null,
   "payment_qr_accepted": null,
   "stationless_flag": null,
   "status": "active"
  },
  {
   "rk_id": "rk_pub_00073",
   "name": "スパイシーエリア 丸井今井札幌店",
   "name_en": "Spicy Area Marui Imai Sapporo Ten",
   "pref": "北海道",
   "pref_en": "Hokkaido",
   "city": "札幌市中央区",
   "city_en": "Sapporo Shi Chuo Ku",
   "lat": 43.059307,
   "lng": 141.354828,
   "keito": [
    "miso"
   ],
   "genre": "ramen",
   "cash_only_flag": null,
   "payment_qr_accepted": null,
   "stationless_flag": null,
   "status": "active"
  },
  {
   "rk_id": "rk_pub_00074",
   "name": "札幌真麺処 幸村",
   "name_en": "Sapporo Shinmendokoro Yukimura",
   "pref": "北海道",
   "pref_en": "Hokkaido",
   "city": "札幌市中央区",
   "city_en": "Sapporo Shi Chuo Ku",
   "lat": 43.056141,
   "lng": 141.357437,
   "keito": [
    "miso"
   ],
   "genre": "ramen",
   "cash_only_flag": null,
   "payment_qr_accepted": null,
   "stationless_flag": null,
   "status": "active"
  },
  {
   "rk_id": "rk_pub_00075",
   "name": "麺屋 まる",
   "name_en": "Men Ya Maru",
   "pref": "北海道",
   "pref_en": "Hokkaido",
   "city": "札幌市北区",
   "city_en": "Sapporo Shi Kita Ku",
   "lat": 43.074818,
   "lng": 141.347,
   "keito": [],
   "genre": "ramen",
   "cash_only_flag": null,
   "payment_qr_accepted": null,
   "stationless_flag": null,
   "status": "active"
  },
  {
   "rk_id": "rk_pub_00076",
   "name": "李記 担担麺食堂 澄川店",
   "name_en": "Riki Tantanmen Shokudo Sumikawa Ten",
   "pref": "北海道",
   "pref_en": "Hokkaido",
   "city": "札幌市南区",
   "city_en": "Sapporo Shi Minami Ku",
   "lat": 43.01733,
   "lng": 141.36673,
   "keito": [
    "spicy"
   ],
   "genre": "ramen",
   "cash_only_flag": null,
   "payment_qr_accepted": null,
   "stationless_flag": null,
   "status": "active"
  },
  {
   "rk_id": "rk_pub_00077",
   "name": "元祖海老そば 縁や 新札幌本店",
   "name_en": "Ganso Ebi Soba Enya Shinsapporo Honten",
   "pref": "北海道",
   "pref_en": "Hokkaido",
   "city": "札幌市厚別区",
   "city_en": "Sapporo Shi Atsubetsu Ku",
   "lat": 43.038853,
   "lng": 141.471802,
   "keito": [
    "miso"
   ],
   "genre": "ramen",
   "cash_only_flag": null,
   "payment_qr_accepted": null,
   "stationless_flag": null,
   "status": "active"
  },
  {
   "rk_id": "rk_pub_00078",
   "name": "らーめんやさん ほしや",
   "name_en": "Ramenyasan Hoshiya",
   "pref": "北海道",
   "pref_en": "Hokkaido",
   "city": "札幌市手稲区",
   "city_en": "Sapporo Shi Teine Ku",
   "lat": 43.136295,
   "lng": 141.195435,
   "keito": [],
   "genre": "ramen",
   "cash_only_flag": null,
   "payment_qr_accepted": null,
   "stationless_flag": null,
   "status": "active"
  },
  {
   "rk_id": "rk_pub_00079",
   "name": "麺処 そめいよしの 東苗穂店",
   "name_en": "Men Tokoro Someiyoshino Higashinaebo Ten",
   "pref": "北海道",
   "pref_en": "Hokkaido",
   "city": "札幌市東区",
   "city_en": "Sapporo Shi Higashi Ku",
   "lat": 43.104431,
   "lng": 141.420563,
   "keito": [],
   "genre": "ramen",
   "cash_only_flag": null,
   "payment_qr_accepted": null,
   "stationless_flag": null,
   "status": "active"
  },
  {
   "rk_id": "rk_pub_00080",
   "name": "麓郷舎",
   "name_en": "Rokugosha",
   "pref": "北海道",
   "pref_en": "Hokkaido",
   "city": "札幌市清田区",
   "city_en": "Sapporo Shi Kiyoda Ku",
   "lat": 43.025295,
   "lng": 141.434036,
   "keito": [],
   "genre": "ramen",
   "cash_only_flag": null,
   "payment_qr_accepted": null,
   "stationless_flag": null,
   "status": "active"
  },
  {
   "rk_id": "rk_pub_00081",
   "name": "特一竜",
   "name_en": "Toku Ichiryu",
   "pref": "北海道",
   "pref_en": "Hokkaido",
   "city": "札幌市白石区",
   "city_en": "Sapporo Shi Shiroishi Ku",
   "lat": 43.056965,
   "lng": 141.411697,
   "keito": [],
   "genre": "ramen",
   "cash_only_flag": null,
   "payment_qr_accepted": null,
   "stationless_flag": null,
   "status": "active"
  },
  {
   "rk_id": "rk_pub_00082",
   "name": "たんたん",
   "name_en": "Tantan",
   "pref": "北海道",
   "pref_en": "Hokkaido",
   "city": "札幌市西区",
   "city_en": "Sapporo Shi Nishi Ku",
   "lat": 43.078064,
   "lng": 141.274841,
   "keito": [],
   "genre": "ramen",
   "cash_only_flag": null,
   "payment_qr_accepted": null,
   "stationless_flag": null,
   "status": "active"
  },
  {
   "rk_id": "rk_pub_00083",
   "name": "麺や虎鉄 西町店",
   "name_en": "Men ya Kotetsu Nishimachi Ten",
   "pref": "北海道",
   "pref_en": "Hokkaido",
   "city": "札幌市西区",
   "city_en": "Sapporo Shi Nishi Ku",
   "lat": 43.077747,
   "lng": 141.290024,
   "keito": [],
   "genre": "ramen",
   "cash_only_flag": null,
   "payment_qr_accepted": null,
   "stationless_flag": null,
   "status": "active"
  },
  {
   "rk_id": "rk_pub_00084",
   "name": "どんころらぁめん 月寒東店",
   "name_en": "Donkororamen Tsukisamu Higashi Ten",
   "pref": "北海道",
   "pref_en": "Hokkaido",
   "city": "札幌市豊平区",
   "city_en": "Sapporo Shi Toyohira Ku",
   "lat": 43.03141,
   "lng": 141.400787,
   "keito": [],
   "genre": "ramen",
   "cash_only_flag": null,
   "payment_qr_accepted": null,
   "stationless_flag": null,
   "status": "active"
  },
  {
   "rk_id": "rk_pub_00085",
   "name": "太陽食堂",
   "name_en": "Taiyo Shokudo",
   "pref": "北海道",
   "pref_en": "Hokkaido",
   "city": "根室市",
   "city_en": "Nemuro Shi",
   "lat": 43.174454,
   "lng": 145.511124,
   "keito": [],
   "genre": "ramen",
   "cash_only_flag": null,
   "payment_qr_accepted": null,
   "stationless_flag": null,
   "status": "active"
  },
  {
   "rk_id": "rk_pub_00086",
   "name": "めん六や 江別店",
   "name_en": "Men Roku Ya Ebetsu Ten",
   "pref": "北海道",
   "pref_en": "Hokkaido",
   "city": "江別市",
   "city_en": "Ebetsu Shi",
   "lat": 43.085289,
   "lng": 141.516449,
   "keito": [],
   "genre": "ramen",
   "cash_only_flag": null,
   "payment_qr_accepted": null,
   "stationless_flag": null,
   "status": "active"
  },
  {
   "rk_id": "rk_pub_00087",
   "name": "らーめん工房 平岡",
   "name_en": "Ramen Kobo Hiraoka",
   "pref": "北海道",
   "pref_en": "Hokkaido",
   "city": "深川市",
   "city_en": "Fukagawa Shi",
   "lat": 43.725647,
   "lng": 142.063416,
   "keito": [],
   "genre": "ramen",
   "cash_only_flag": null,
   "payment_qr_accepted": null,
   "stationless_flag": null,
   "status": "active"
  },
  {
   "rk_id": "rk_pub_00088",
   "name": "麺匠 とぐち",
   "name_en": "Menshiwo Toguchi",
   "pref": "北海道",
   "pref_en": "Hokkaido",
   "city": "登別市",
   "city_en": "Noboribetsu Shi",
   "lat": 42.36367,
   "lng": 141.057739,
   "keito": [],
   "genre": "ramen",
   "cash_only_flag": null,
   "payment_qr_accepted": null,
   "stationless_flag": null,
   "status": "active"
  },
  {
   "rk_id": "rk_pub_00089",
   "name": "らーめんもみじ",
   "name_en": "Ramenmomiji",
   "pref": "北海道",
   "pref_en": "Hokkaido",
   "city": "石狩市",
   "city_en": "Ishikari Shi",
   "lat": 43.146584,
   "lng": 141.282837,
   "keito": [],
   "genre": "ramen",
   "cash_only_flag": null,
   "payment_qr_accepted": null,
   "stationless_flag": null,
   "status": "active"
  },
  {
   "rk_id": "rk_pub_00090",
   "name": "ドーミーイン稚内",
   "name_en": "Dormy Inn Wakkanai",
   "pref": "北海道",
   "pref_en": "Hokkaido",
   "city": "稚内市",
   "city_en": "Wakkanai Shi",
   "lat": 45.418266,
   "lng": 141.675125,
   "keito": [],
   "genre": "ramen",
   "cash_only_flag": null,
   "payment_qr_accepted": null,
   "stationless_flag": null,
   "status": "active"
  },
  {
   "rk_id": "rk_pub_00091",
   "name": "食事の店 のぶりん",
   "name_en": "Shokuji No Mise Noburin",
   "pref": "北海道",
   "pref_en": "Hokkaido",
   "city": "紋別郡遠軽町",
   "city_en": "Monbetsu Gun Enkaru Machi",
   "lat": 43.973167,
   "lng": 143.496719,
   "keito": [],
   "genre": "ramen",
   "cash_only_flag": null,
   "payment_qr_accepted": null,
   "stationless_flag": null,
   "status": "active"
  },
  {
   "rk_id": "rk_pub_00092",
   "name": "北極星",
   "name_en": "Hokkyokusei",
   "pref": "北海道",
   "pref_en": "Hokkaido",
   "city": "苫前郡初山別村",
   "city_en": "Tomamae Gun Shosanbetsu Mura",
   "lat": 44.553318,
   "lng": 141.803986,
   "keito": [],
   "genre": "ramen",
   "cash_only_flag": null,
   "payment_qr_accepted": null,
   "stationless_flag": null,
   "status": "active"
  },
  {
   "rk_id": "rk_pub_00093",
   "name": "生成",
   "name_en": "Seisei",
   "pref": "北海道",
   "pref_en": "Hokkaido",
   "city": "苫小牧市",
   "city_en": "Tomakomai Shi",
   "lat": 42.636539,
   "lng": 141.568283,
   "keito": [],
   "genre": "ramen",
   "cash_only_flag": null,
   "payment_qr_accepted": null,
   "stationless_flag": null,
   "status": "active"
  },
  {
   "rk_id": "rk_pub_00094",
   "name": "華京",
   "name_en": "Kakyo",
   "pref": "北海道",
   "pref_en": "Hokkaido",
   "city": "茅部郡森町",
   "city_en": "Kayabe Gun Moricho",
   "lat": 42.107395,
   "lng": 140.576111,
   "keito": [],
   "genre": "ramen",
   "cash_only_flag": null,
   "payment_qr_accepted": null,
   "stationless_flag": null,
   "status": "active"
  },
  {
   "rk_id": "rk_pub_00095",
   "name": "かっこう",
   "name_en": "Kakko",
   "pref": "北海道",
   "pref_en": "Hokkaido",
   "city": "虻田郡豊浦町",
   "city_en": "Abuta Gun Toyora Machi",
   "lat": 42.577251,
   "lng": 140.719391,
   "keito": [],
   "genre": "ramen",
   "cash_only_flag": null,
   "payment_qr_accepted": null,
   "stationless_flag": null,
   "status": "active"
  },
  {
   "rk_id": "rk_pub_00096",
   "name": "夏堀",
   "name_en": "Natsubori",
   "pref": "北海道",
   "pref_en": "Hokkaido",
   "city": "釧路市",
   "city_en": "Kushiro Shi",
   "lat": 42.995129,
   "lng": 144.377426,
   "keito": [],
   "genre": "ramen",
   "cash_only_flag": null,
   "payment_qr_accepted": null,
   "stationless_flag": null,
   "status": "active"
  },
  {
   "rk_id": "rk_pub_00097",
   "name": "和食拉麺 北斗",
   "name_en": "Washoku Ramen Hokuto",
   "pref": "北海道",
   "pref_en": "Hokkaido",
   "city": "釧路市",
   "city_en": "Kushiro Shi",
   "lat": 43.043812,
   "lng": 144.192734,
   "keito": [],
   "genre": "ramen",
   "cash_only_flag": null,
   "payment_qr_accepted": null,
   "stationless_flag": null,
   "status": "active"
  },
  {
   "rk_id": "rk_pub_00098",
   "name": "宝来",
   "name_en": "Horai",
   "pref": "千葉県",
   "pref_en": "Chiba",
   "city": "佐倉市",
   "city_en": "Sakura Shi",
   "lat": 35.707943,
   "lng": 140.224426,
   "keito": [],
   "genre": "ramen",
   "cash_only_flag": null,
   "payment_qr_accepted": null,
   "stationless_flag": null,
   "status": "active"
  },
  {
   "rk_id": "rk_pub_00099",
   "name": "香港亭 八千代緑が丘店",
   "name_en": "Honkon Tei Yachiyo Midorigaoka Ten",
   "pref": "千葉県",
   "pref_en": "Chiba",
   "city": "八千代市",
   "city_en": "Yachiyo Shi",
   "lat": 35.729275,
   "lng": 140.073181,
   "keito": [],
   "genre": "ramen",
   "cash_only_flag": null,
   "payment_qr_accepted": null,
   "stationless_flag": null,
   "status": "active"
  },
  {
   "rk_id": "rk_pub_00100",
   "name": "くるまやラーメン 千葉八街店",
   "name_en": "Kurumaya Ramen",
   "pref": "千葉県",
   "pref_en": "Chiba",
   "city": "八街市",
   "city_en": "Yachimata Shi",
   "lat": 35.651413,
   "lng": 140.316864,
   "keito": [
    "miso"
   ],
   "genre": "ramen",
   "cash_only_flag": null,
   "payment_qr_accepted": null,
   "stationless_flag": null,
   "status": "active"
  },
  {
   "rk_id": "rk_pub_00101",
   "name": "中華飯店 たいこう",
   "name_en": "Chuka Hanten Taiko",
   "pref": "千葉県",
   "pref_en": "Chiba",
   "city": "勝浦市",
   "city_en": "Katsura Shi",
   "lat": 35.152584,
   "lng": 140.319595,
   "keito": [],
   "genre": "chinese",
   "cash_only_flag": null,
   "payment_qr_accepted": null,
   "stationless_flag": null,
   "status": "active"
  },
  {
   "rk_id": "rk_pub_00102",
   "name": "紅梅軒",
   "name_en": "Kobaiken",
   "pref": "千葉県",
   "pref_en": "Chiba",
   "city": "千葉市中央区",
   "city_en": "Chiba Shi Chuo Ku",
   "lat": 35.612625,
   "lng": 140.141541,
   "keito": [],
   "genre": "ramen",
   "cash_only_flag": null,
   "payment_qr_accepted": null,
   "stationless_flag": null,
   "status": "active"
  },
  {
   "rk_id": "rk_pub_00103",
   "name": "麺屋一燈 そごう千葉店 ご当地うまいもの大会",
   "name_en": "Men Ya Itto Sogo Chiba Ten Go Tochi Umaimono Taikai",
   "pref": "千葉県",
   "pref_en": "Chiba",
   "city": "千葉市中央区",
   "city_en": "Chiba Shi Chuo Ku",
   "lat": 35.611118,
   "lng": 140.113571,
   "keito": [],
   "genre": "ramen",
   "cash_only_flag": null,
   "payment_qr_accepted": null,
   "stationless_flag": null,
   "status": "active"
  },
  {
   "rk_id": "rk_pub_00104",
   "name": "麺ト餃子 ふじ一",
   "name_en": "Men To Gyoza Fuji Ichi",
   "pref": "千葉県",
   "pref_en": "Chiba",
   "city": "千葉市中央区",
   "city_en": "Chiba Shi Chuo Ku",
   "lat": 35.611118,
   "lng": 140.113571,
   "keito": [],
   "genre": "chinese",
   "cash_only_flag": null,
   "payment_qr_accepted": null,
   "stationless_flag": null,
   "status": "active"
  },
  {
   "rk_id": "rk_pub_00105",
   "name": "中華 一元",
   "name_en": "Chuka Ichigen",
   "pref": "千葉県",
   "pref_en": "Chiba",
   "city": "千葉市稲毛区",
   "city_en": "Chiba Shi Inage Ku",
   "lat": 35.62537,
   "lng": 140.100418,
   "keito": [],
   "genre": "ramen",
   "cash_only_flag": null,
   "payment_qr_accepted": null,
   "stationless_flag": null,
   "status": "active"
  },
  {
   "rk_id": "rk_pub_00106",
   "name": "みそ屋 田所商店 WBG店",
   "name_en": "Misoya Tadokoro Shoten WBG Ten",
   "pref": "千葉県",
   "pref_en": "Chiba",
   "city": "千葉市美浜区",
   "city_en": "Chiba Shi Mihama Ku",
   "lat": 35.648041,
   "lng": 140.038834,
   "keito": [
    "miso"
   ],
   "genre": "ramen",
   "cash_only_flag": false,
   "payment_qr_accepted": null,
   "stationless_flag": null,
   "status": "active"
  },
  {
   "rk_id": "rk_pub_00107",
   "name": "日高屋 新検見川南口店",
   "name_en": "Hidakaya Shinkemigawa Minamiguchi Ten",
   "pref": "千葉県",
   "pref_en": "Chiba",
   "city": "千葉市花見川区",
   "city_en": "Chiba Shi Hanamigawa Ku",
   "lat": 35.65144,
   "lng": 140.073074,
   "keito": [
    "shoyu"
   ],
   "genre": "ramen",
   "cash_only_flag": false,
   "payment_qr_accepted": null,
   "stationless_flag": null,
   "status": "active"
  },
  {
   "rk_id": "rk_pub_00108",
   "name": "ラーメンガキ大将 高品店",
   "name_en": "Ramen Gaki Taisho Takashina Ten",
   "pref": "千葉県",
   "pref_en": "Chiba",
   "city": "千葉市若葉区",
   "city_en": "Chiba Shi Wakaba Ku",
   "lat": 35.623245,
   "lng": 140.130493,
   "keito": [],
   "genre": "ramen",
   "cash_only_flag": null,
   "payment_qr_accepted": null,
   "stationless_flag": null,
   "status": "active"
  },
  {
   "rk_id": "rk_pub_00109",
   "name": "麺や太尊",
   "name_en": "Menya Taison",
   "pref": "千葉県",
   "pref_en": "Chiba",
   "city": "印旛郡酒々井町",
   "city_en": "Inba Gun Sake Kurikaesi Imachi",
   "lat": 35.731632,
   "lng": 140.273117,
   "keito": [],
   "genre": "ramen",
   "cash_only_flag": null,
   "payment_qr_accepted": null,
   "stationless_flag": null,
   "status": "active"
  },
  {
   "rk_id": "rk_pub_00110",
   "name": "賜福楼",
   "name_en": "Shifukuro",
   "pref": "千葉県",
   "pref_en": "Chiba",
   "city": "印西市",
   "city_en": "Inzai Shi",
   "lat": 35.802212,
   "lng": 140.112183,
   "keito": [],
   "genre": "ramen",
   "cash_only_flag": null,
   "payment_qr_accepted": null,
   "stationless_flag": null,
   "status": "active"
  },
  {
   "rk_id": "rk_pub_00111",
   "name": "喜多方ラーメン 坂内 君津店",
   "name_en": "Kitakata Ramen Bannai Kimitsu Ten",
   "pref": "千葉県",
   "pref_en": "Chiba",
   "city": "君津市",
   "city_en": "Kimitsu Shi",
   "lat": 35.330582,
   "lng": 139.923752,
   "keito": [
    "shoyu"
   ],
   "genre": "ramen",
   "cash_only_flag": null,
   "payment_qr_accepted": null,
   "stationless_flag": null,
   "status": "active"
  },
  {
   "rk_id": "rk_pub_00112",
   "name": "喜苑",
   "name_en": "Kien",
   "pref": "千葉県",
   "pref_en": "Chiba",
   "city": "夷隅郡大多喜町",
   "city_en": "Isumi Gun Otaki Machi",
   "lat": 35.289562,
   "lng": 140.251892,
   "keito": [],
   "genre": "ramen",
   "cash_only_flag": null,
   "payment_qr_accepted": null,
   "stationless_flag": null,
   "status": "active"
  },
  {
   "rk_id": "rk_pub_00113",
   "name": "北海道ラーメン ロッキー 秀",
   "name_en": "Hokkaido Ramen Rocky Shu",
   "pref": "千葉県",
   "pref_en": "Chiba",
   "city": "富里市",
   "city_en": "Tomisato Shi",
   "lat": 35.739727,
   "lng": 140.324982,
   "keito": [],
   "genre": "ramen",
   "cash_only_flag": null,
   "payment_qr_accepted": null,
   "stationless_flag": null,
   "status": "active"
  },
  {
   "rk_id": "rk_pub_00114",
   "name": "ハ福食堂 九十九里店",
   "name_en": "Hachifuku Shokudo Kujukuri Ten",
   "pref": "千葉県",
   "pref_en": "Chiba",
   "city": "山武郡九十九里町",
   "city_en": "Sanbu Gun Kujukuri Machi",
   "lat": 35.539745,
   "lng": 140.454391,
   "keito": [],
   "genre": "ramen",
   "cash_only_flag": null,
   "payment_qr_accepted": null,
   "stationless_flag": null,
   "status": "active"
  },
  {
   "rk_id": "rk_pub_00115",
   "name": "ラーメン王将",
   "name_en": "Ramen Osho",
   "pref": "千葉県",
   "pref_en": "Chiba",
   "city": "市原市",
   "city_en": "Ichihara Shi",
   "lat": 35.492298,
   "lng": 140.122055,
   "keito": [],
   "genre": "ramen",
   "cash_only_flag": null,
   "payment_qr_accepted": null,
   "stationless_flag": null,
   "status": "active"
  },
  {
   "rk_id": "rk_pub_00116",
   "name": "NOODLE SP CRAFT",
   "name_en": "NOODLE SP CRAFT",
   "pref": "千葉県",
   "pref_en": "Chiba",
   "city": "市原市",
   "city_en": "Ichihara Shi",
   "lat": 35.528431,
   "lng": 140.099564,
   "keito": [],
   "genre": "ramen",
   "cash_only_flag": null,
   "payment_qr_accepted": null,
   "stationless_flag": null,
   "status": "active"
  },
  {
   "rk_id": "rk_pub_00117",
   "name": "玉屋",
   "name_en": "Tamaya",
   "pref": "千葉県",
   "pref_en": "Chiba",
   "city": "市川市",
   "city_en": "Ichikawa Shi",
   "lat": 35.748615,
   "lng": 139.943298,
   "keito": [],
   "genre": "ramen",
   "cash_only_flag": null,
   "payment_qr_accepted": null,
   "stationless_flag": null,
   "status": "active"
  },
  {
   "rk_id": "rk_pub_00118",
   "name": "市川市動物園 食堂",
   "name_en": "Ichikawashi Dobutsuen Shokudo",
   "pref": "千葉県",
   "pref_en": "Chiba",
   "city": "市川市",
   "city_en": "Ichikawa Shi",
   "lat": 35.764294,
   "lng": 139.964218,
   "keito": [],
   "genre": "ramen",
   "cash_only_flag": null,
   "payment_qr_accepted": null,
   "stationless_flag": null,
   "status": "active"
  },
  {
   "rk_id": "rk_pub_00119",
   "name": "舎鈴 シャポー本八幡店",
   "name_en": "Sharin",
   "pref": "千葉県",
   "pref_en": "Chiba",
   "city": "市川市",
   "city_en": "Ichikawa Shi",
   "lat": 35.721367,
   "lng": 139.926849,
   "keito": [
    "tsukemen"
   ],
   "genre": "ramen",
   "cash_only_flag": null,
   "payment_qr_accepted": null,
   "stationless_flag": null,
   "status": "active"
  },
  {
   "rk_id": "rk_pub_00120",
   "name": "市川ブラックラーメン",
   "name_en": "Ichikawa Black Ramen",
   "pref": "千葉県",
   "pref_en": "Chiba",
   "city": "市川市",
   "city_en": "Ichikawa Shi",
   "lat": 35.696545,
   "lng": 139.936569,
   "keito": [],
   "genre": "ramen",
   "cash_only_flag": null,
   "payment_qr_accepted": null,
   "stationless_flag": null,
   "status": "active"
  },
  {
   "rk_id": "rk_pub_00121",
   "name": "日高屋 成田東口店",
   "name_en": "Hidakaya Narita Higashiguchi Ten",
   "pref": "千葉県",
   "pref_en": "Chiba",
   "city": "成田市",
   "city_en": "Narita Shi",
   "lat": 35.777283,
   "lng": 140.315475,
   "keito": [
    "shoyu"
   ],
   "genre": "ramen",
   "cash_only_flag": false,
   "payment_qr_accepted": null,
   "stationless_flag": null,
   "status": "active"
  },
  {
   "rk_id": "rk_pub_00122",
   "name": "リバーサイド",
   "name_en": "Riverside",
   "pref": "千葉県",
   "pref_en": "Chiba",
   "city": "我孫子市",
   "city_en": "Abiko Shi",
   "lat": 35.842033,
   "lng": 140.129272,
   "keito": [],
   "genre": "ramen",
   "cash_only_flag": null,
   "payment_qr_accepted": null,
   "stationless_flag": null,
   "status": "active"
  },
  {
   "rk_id": "rk_pub_00123",
   "name": "中華レスト たむら",
   "name_en": "Chuka Rest Tamura",
   "pref": "千葉県",
   "pref_en": "Chiba",
   "city": "旭市",
   "city_en": "Asahi Shi",
   "lat": 35.718723,
   "lng": 140.602371,
   "keito": [],
   "genre": "ramen",
   "cash_only_flag": null,
   "payment_qr_accepted": null,
   "stationless_flag": null,
   "status": "active"
  },
  {
   "rk_id": "rk_pub_00124",
   "name": "ラーメン 西山家 木更津西口店",
   "name_en": "Ramen Nishiyamaya Kisarazu Nishiguchi Ten",
   "pref": "千葉県",
   "pref_en": "Chiba",
   "city": "木更津市",
   "city_en": "Kisarazu Shi",
   "lat": 35.382565,
   "lng": 139.925461,
   "keito": [
    "tonkotsu"
   ],
   "genre": "ramen",
   "cash_only_flag": null,
   "payment_qr_accepted": null,
   "stationless_flag": null,
   "status": "active"
  },
  {
   "rk_id": "rk_pub_00125",
   "name": "ラーメン 横綱 松戸店",
   "name_en": "Ramen Yokozuna Matsudo Ten",
   "pref": "千葉県",
   "pref_en": "Chiba",
   "city": "松戸市",
   "city_en": "Matsudo Shi",
   "lat": 35.823723,
   "lng": 139.934311,
   "keito": [],
   "genre": "ramen",
   "cash_only_flag": null,
   "payment_qr_accepted": null,
   "stationless_flag": null,
   "status": "active"
  },
  {
   "rk_id": "rk_pub_00126",
   "name": "長崎ちゃんぽん リンガーハット 松戸八柱店",
   "name_en": "Ringer Hut",
   "pref": "千葉県",
   "pref_en": "Chiba",
   "city": "松戸市",
   "city_en": "Matsudo Shi",
   "lat": 35.79108,
   "lng": 139.944107,
   "keito": [],
   "genre": "ramen",
   "cash_only_flag": false,
   "payment_qr_accepted": null,
   "stationless_flag": null,
   "status": "active"
  },
  {
   "rk_id": "rk_pub_00127",
   "name": "中国料理 大福元 二十世紀ヶ丘店",
   "name_en": "Chugoku Ryori Daifukugen Nijusseikigaoka-ten",
   "pref": "千葉県",
   "pref_en": "Chiba",
   "city": "松戸市",
   "city_en": "Matsudo Shi",
   "lat": 35.771908,
   "lng": 139.915833,
   "keito": [],
   "genre": "chinese",
   "cash_only_flag": null,
   "payment_qr_accepted": null,
   "stationless_flag": null,
   "status": "active"
  },
  {
   "rk_id": "rk_pub_00128",
   "name": "味嘉廊",
   "name_en": "Mikaro",
   "pref": "千葉県",
   "pref_en": "Chiba",
   "city": "松戸市",
   "city_en": "Matsudo Shi",
   "lat": 35.782166,
   "lng": 139.896362,
   "keito": [],
   "genre": "ramen",
   "cash_only_flag": null,
   "payment_qr_accepted": null,
   "stationless_flag": null,
   "status": "active"
  },
  {
   "rk_id": "rk_pub_00129",
   "name": "東池袋大勝軒いちぶん",
   "name_en": "Taishoken",
   "pref": "千葉県",
   "pref_en": "Chiba",
   "city": "柏市",
   "city_en": "Kashiwa Shi",
   "lat": 35.862953,
   "lng": 139.967819,
   "keito": [
    "tsukemen"
   ],
   "genre": "ramen",
   "cash_only_flag": null,
   "payment_qr_accepted": null,
   "stationless_flag": null,
   "status": "active"
  },
  {
   "rk_id": "rk_pub_00130",
   "name": "中華菜館 光が丘店",
   "name_en": "Chuka Saikan Hikarigaoka Ten",
   "pref": "千葉県",
   "pref_en": "Chiba",
   "city": "柏市",
   "city_en": "Kashiwa Shi",
   "lat": 35.829937,
   "lng": 139.955994,
   "keito": [],
   "genre": "ramen",
   "cash_only_flag": null,
   "payment_qr_accepted": null,
   "stationless_flag": null,
   "status": "active"
  },
  {
   "rk_id": "rk_pub_00131",
   "name": "柏 王道家",
   "name_en": "Kashiwa Odoya",
   "pref": "千葉県",
   "pref_en": "Chiba",
   "city": "柏市",
   "city_en": "Kashiwa Shi",
   "lat": 35.862881,
   "lng": 139.967438,
   "keito": [
    "tonkotsu"
   ],
   "genre": "ramen",
   "cash_only_flag": null,
   "payment_qr_accepted": null,
   "stationless_flag": null,
   "status": "active"
  },
  {
   "rk_id": "rk_pub_00132",
   "name": "兎に角 柏店",
   "name_en": "Tonikaku Kashiwa Ten",
   "pref": "千葉県",
   "pref_en": "Chiba",
   "city": "柏市",
   "city_en": "Kashiwa Shi",
   "lat": 35.861752,
   "lng": 139.973114,
   "keito": [],
   "genre": "ramen",
   "cash_only_flag": null,
   "payment_qr_accepted": null,
   "stationless_flag": null,
   "status": "active"
  },
  {
   "rk_id": "rk_pub_00133",
   "name": "ポッポ 流山店",
   "name_en": "Poppo Nagareyama Ten",
   "pref": "千葉県",
   "pref_en": "Chiba",
   "city": "流山市",
   "city_en": "Nagareyama Shi",
   "lat": 35.849094,
   "lng": 139.899445,
   "keito": [],
   "genre": "ramen",
   "cash_only_flag": null,
   "payment_qr_accepted": null,
   "stationless_flag": null,
   "status": "active"
  },
  {
   "rk_id": "rk_pub_00134",
   "name": "太月",
   "name_en": "Tazuki",
   "pref": "千葉県",
   "pref_en": "Chiba",
   "city": "浦安市",
   "city_en": "Urayasu Shi",
   "lat": 35.661076,
   "lng": 139.898102,
   "keito": [],
   "genre": "ramen",
   "cash_only_flag": null,
   "payment_qr_accepted": null,
   "stationless_flag": null,
   "status": "active"
  },
  {
   "rk_id": "rk_pub_00135",
   "name": "栄昇らーめん 匠",
   "name_en": "Eisho Ramen Takumi",
   "pref": "千葉県",
   "pref_en": "Chiba",
   "city": "習志野市",
   "city_en": "Narashino Shi",
   "lat": 35.690495,
   "lng": 140.022629,
   "keito": [],
   "genre": "ramen",
   "cash_only_flag": null,
   "payment_qr_accepted": null,
   "stationless_flag": null,
   "status": "active"
  },
  {
   "rk_id": "rk_pub_00136",
   "name": "中華料理 永楽",
   "name_en": "Chukaryori Eiraku",
   "pref": "千葉県",
   "pref_en": "Chiba",
   "city": "船橋市",
   "city_en": "Funabashi Shi",
   "lat": 35.700401,
   "lng": 140.034988,
   "keito": [],
   "genre": "chinese",
   "cash_only_flag": null,
   "payment_qr_accepted": null,
   "stationless_flag": null,
   "status": "active"
  },
  {
   "rk_id": "rk_pub_00137",
   "name": "中華料理 龍宝",
   "name_en": "Chukaryori Ryuho",
   "pref": "千葉県",
   "pref_en": "Chiba",
   "city": "船橋市",
   "city_en": "Funabashi Shi",
   "lat": 35.712673,
   "lng": 140.036087,
   "keito": [],
   "genre": "chinese",
   "cash_only_flag": null,
   "payment_qr_accepted": null,
   "stationless_flag": null,
   "status": "active"
  },
  {
   "rk_id": "rk_pub_00138",
   "name": "韓流亭",
   "name_en": "Kanryutei",
   "pref": "千葉県",
   "pref_en": "Chiba",
   "city": "船橋市",
   "city_en": "Funabashi Shi",
   "lat": 35.696304,
   "lng": 139.985092,
   "keito": [],
   "genre": "ramen",
   "cash_only_flag": null,
   "payment_qr_accepted": null,
   "stationless_flag": null,
   "status": "active"
  },
  {
   "rk_id": "rk_pub_00139",
   "name": "定食のまる大 東船橋南口店",
   "name_en": "Teishoku no Maru Dai Higashi Funabashi Minamiguchi Ten",
   "pref": "千葉県",
   "pref_en": "Chiba",
   "city": "船橋市",
   "city_en": "Funabashi Shi",
   "lat": 35.69912,
   "lng": 140.00444,
   "keito": [],
   "genre": "ramen",
   "cash_only_flag": null,
   "payment_qr_accepted": null,
   "stationless_flag": null,
   "status": "active"
  },
  {
   "rk_id": "rk_pub_00140",
   "name": "らーめん処 まるは",
   "name_en": "Ramen Dokoro Maruha",
   "pref": "千葉県",
   "pref_en": "Chiba",
   "city": "船橋市",
   "city_en": "Funabashi Shi",
   "lat": 35.699341,
   "lng": 139.986008,
   "keito": [],
   "genre": "ramen",
   "cash_only_flag": null,
   "payment_qr_accepted": null,
   "stationless_flag": null,
   "status": "active"
  },
  {
   "rk_id": "rk_pub_00141",
   "name": "まごころ食堂",
   "name_en": "Magokoro Shokudo",
   "pref": "千葉県",
   "pref_en": "Chiba",
   "city": "茂原市",
   "city_en": "Mobara Shi",
   "lat": 35.409588,
   "lng": 140.279602,
   "keito": [],
   "genre": "ramen",
   "cash_only_flag": null,
   "payment_qr_accepted": null,
   "stationless_flag": null,
   "status": "active"
  },
  {
   "rk_id": "rk_pub_00142",
   "name": "居酒屋 川間らーめん",
   "name_en": "Izakaya Kawama Ramen",
   "pref": "千葉県",
   "pref_en": "Chiba",
   "city": "野田市",
   "city_en": "Noda Shi",
   "lat": 35.978046,
   "lng": 139.833221,
   "keito": [],
   "genre": "ramen",
   "cash_only_flag": null,
   "payment_qr_accepted": null,
   "stationless_flag": null,
   "status": "active"
  },
  {
   "rk_id": "rk_pub_00143",
   "name": "大新楼",
   "name_en": "Daishinro",
   "pref": "千葉県",
   "pref_en": "Chiba",
   "city": "銚子市",
   "city_en": "Choshi Shi",
   "lat": 35.731632,
   "lng": 140.830399,
   "keito": [],
   "genre": "ramen",
   "cash_only_flag": null,
   "payment_qr_accepted": null,
   "stationless_flag": null,
   "status": "active"
  },
  {
   "rk_id": "rk_pub_00144",
   "name": "鎌ヶ谷 製麺堂てつ",
   "name_en": "Kamagaya Seimendo Tetsu",
   "pref": "千葉県",
   "pref_en": "Chiba",
   "city": "鎌ケ谷市",
   "city_en": "Kama Ke Tani Shi",
   "lat": 35.754494,
   "lng": 139.998657,
   "keito": [],
   "genre": "ramen",
   "cash_only_flag": null,
   "payment_qr_accepted": null,
   "stationless_flag": null,
   "status": "active"
  },
  {
   "rk_id": "rk_pub_00145",
   "name": "雷",
   "name_en": "Kaminari",
   "pref": "千葉県",
   "pref_en": "Chiba",
   "city": "館山市",
   "city_en": "Tateyama Shi",
   "lat": 34.992168,
   "lng": 139.879318,
   "keito": [],
   "genre": "ramen",
   "cash_only_flag": null,
   "payment_qr_accepted": null,
   "stationless_flag": null,
   "status": "active"
  },
  {
   "rk_id": "rk_pub_00146",
   "name": "屋台",
   "name_en": "Yatai",
   "pref": "千葉県",
   "pref_en": "Chiba",
   "city": "香取市",
   "city_en": "Katori Shi",
   "lat": 35.894356,
   "lng": 140.492218,
   "keito": [],
   "genre": "ramen",
   "cash_only_flag": null,
   "payment_qr_accepted": null,
   "stationless_flag": null,
   "status": "active"
  },
  {
   "rk_id": "rk_pub_00147",
   "name": "丸竹中華そば店",
   "name_en": "Marutake Chuka Soba Ten",
   "pref": "和歌山県",
   "pref_en": "Wakayama",
   "city": "和歌山市",
   "city_en": "Wakayama Shi",
   "lat": 34.247307,
   "lng": 135.166809,
   "keito": [
    "shoyu"
   ],
   "genre": "ramen",
   "cash_only_flag": null,
   "payment_qr_accepted": null,
   "stationless_flag": null,
   "status": "active"
  },
  {
   "rk_id": "rk_pub_00148",
   "name": "麺や たけだ",
   "name_en": "Menya Takeda",
   "pref": "和歌山県",
   "pref_en": "Wakayama",
   "city": "和歌山市",
   "city_en": "Wakayama Shi",
   "lat": 34.193996,
   "lng": 135.177353,
   "keito": [],
   "genre": "ramen",
   "cash_only_flag": null,
   "payment_qr_accepted": null,
   "stationless_flag": null,
   "status": "active"
  },
  {
   "rk_id": "rk_pub_00149",
   "name": "中華そば 丸田屋 岩出店",
   "name_en": "Chuka Soba Marutaya Iwade Ten",
   "pref": "和歌山県",
   "pref_en": "Wakayama",
   "city": "岩出市",
   "city_en": "Iwade Shi",
   "lat": 34.264229,
   "lng": 135.284668,
   "keito": [
    "shoyu"
   ],
   "genre": "ramen",
   "cash_only_flag": null,
   "payment_qr_accepted": null,
   "stationless_flag": null,
   "status": "active"
  },
  {
   "rk_id": "rk_pub_00150",
   "name": "潮岬観光タワーレストラン",
   "name_en": "Shionomisaki Kanko Tower Restaurant",
   "pref": "和歌山県",
   "pref_en": "Wakayama",
   "city": "東牟婁郡串本町",
   "city_en": "Higashimuro Gun Kushimoto Machi",
   "lat": 33.447029,
   "lng": 135.761078,
   "keito": [],
   "genre": "ramen",
   "cash_only_flag": null,
   "payment_qr_accepted": null,
   "stationless_flag": null,
   "status": "active"
  },
  {
   "rk_id": "rk_pub_00151",
   "name": "マルカン",
   "name_en": "Marukan",
   "pref": "和歌山県",
   "pref_en": "Wakayama",
   "city": "西牟婁郡すさみ町",
   "city_en": "Nishimuro Gun Susami Machi",
   "lat": 33.516605,
   "lng": 135.625122,
   "keito": [],
   "genre": "ramen",
   "cash_only_flag": null,
   "payment_qr_accepted": null,
   "stationless_flag": null,
   "status": "active"
  },
  {
   "rk_id": "rk_pub_00152",
   "name": "がってんカルビ さいたま新中里店",
   "name_en": "Gatten Karubi Saitama Shinnakazato Ten",
   "pref": "埼玉県",
   "pref_en": "Saitama",
   "city": "さいたま市中央区",
   "city_en": "Saitama Shi Chuo Ku",
   "lat": 35.876133,
   "lng": 139.632248,
   "keito": [],
   "genre": "ramen",
   "cash_only_flag": null,
   "payment_qr_accepted": null,
   "stationless_flag": null,
   "status": "active"
  },
  {
   "rk_id": "rk_pub_00153",
   "name": "庵悟",
   "name_en": "Ango",
   "pref": "埼玉県",
   "pref_en": "Saitama",
   "city": "さいたま市南区",
   "city_en": "Saitama Shi Minami Ku",
   "lat": 35.843193,
   "lng": 139.667282,
   "keito": [],
   "genre": "ramen",
   "cash_only_flag": null,
   "payment_qr_accepted": null,
   "stationless_flag": null,
   "status": "active"
  },
  {
   "rk_id": "rk_pub_00154",
   "name": "ニューラーメンショップ 大宮東口店",
   "name_en": "New Ramen Shop Omiya Higashiguchi Ten",
   "pref": "埼玉県",
   "pref_en": "Saitama",
   "city": "さいたま市大宮区",
   "city_en": "Saitama Shi Omiya Ku",
   "lat": 35.906647,
   "lng": 139.629776,
   "keito": [
    "other"
   ],
   "genre": "ramen",
   "cash_only_flag": null,
   "payment_qr_accepted": null,
   "stationless_flag": null,
   "status": "active"
  },
  {
   "rk_id": "rk_pub_00155",
   "name": "餃子酒場 永順 大宮一番街店",
   "name_en": "Gyoza Sakaba Eijun Omiya Ichibangai Ten",
   "pref": "埼玉県",
   "pref_en": "Saitama",
   "city": "さいたま市大宮区",
   "city_en": "Saitama Shi Omiya Ku",
   "lat": 35.908401,
   "lng": 139.625961,
   "keito": [],
   "genre": "chinese",
   "cash_only_flag": null,
   "payment_qr_accepted": null,
   "stationless_flag": null,
   "status": "active"
  },
  {
   "rk_id": "rk_pub_00156",
   "name": "八番",
   "name_en": "Hachiban",
   "pref": "埼玉県",
   "pref_en": "Saitama",
   "city": "さいたま市岩槻区",
   "city_en": "Saitama Shi Iwatsuki Ku",
   "lat": 35.959099,
   "lng": 139.690079,
   "keito": [],
   "genre": "ramen",
   "cash_only_flag": null,
   "payment_qr_accepted": null,
   "stationless_flag": null,
   "status": "active"
  },
  {
   "rk_id": "rk_pub_00157",
   "name": "娘々 北浦和店",
   "name_en": "Nyannyan Kitaurawa Ten",
   "pref": "埼玉県",
   "pref_en": "Saitama",
   "city": "さいたま市浦和区",
   "city_en": "Saitama Shi Urawa Ku",
   "lat": 35.873405,
   "lng": 139.647415,
   "keito": [],
   "genre": "ramen",
   "cash_only_flag": null,
   "payment_qr_accepted": null,
   "stationless_flag": null,
   "status": "active"
  },
  {
   "rk_id": "rk_pub_00158",
   "name": "若美屋",
   "name_en": "Wakamiya",
   "pref": "埼玉県",
   "pref_en": "Saitama",
   "city": "さいたま市浦和区",
   "city_en": "Saitama Shi Urawa Ku",
   "lat": 35.872566,
   "lng": 139.655457,
   "keito": [],
   "genre": "ramen",
   "cash_only_flag": null,
   "payment_qr_accepted": null,
   "stationless_flag": null,
   "status": "active"
  },
  {
   "rk_id": "rk_pub_00159",
   "name": "日高屋 指扇店",
   "name_en": "Hidakaya",
   "pref": "埼玉県",
   "pref_en": "Saitama",
   "city": "さいたま市西区",
   "city_en": "Saitama Shi Nishi Ku",
   "lat": 35.916321,
   "lng": 139.565643,
   "keito": [
    "shoyu"
   ],
   "genre": "ramen",
   "cash_only_flag": false,
   "payment_qr_accepted": null,
   "stationless_flag": null,
   "status": "active"
  },
  {
   "rk_id": "rk_pub_00160",
   "name": "日高屋 東大宮3丁目店",
   "name_en": "Hidakaya",
   "pref": "埼玉県",
   "pref_en": "Saitama",
   "city": "さいたま市見沼区",
   "city_en": "Saitama Shi Minuma Ku",
   "lat": 35.953335,
   "lng": 139.632736,
   "keito": [
    "shoyu"
   ],
   "genre": "ramen",
   "cash_only_flag": false,
   "payment_qr_accepted": null,
   "stationless_flag": null,
   "status": "active"
  },
  {
   "rk_id": "rk_pub_00161",
   "name": "らーめん酒房 遊麺",
   "name_en": "Ramen Shubo Yumen",
   "pref": "埼玉県",
   "pref_en": "Saitama",
   "city": "三郷市",
   "city_en": "Misato Shi",
   "lat": 35.819489,
   "lng": 139.881302,
   "keito": [],
   "genre": "ramen",
   "cash_only_flag": null,
   "payment_qr_accepted": null,
   "stationless_flag": null,
   "status": "active"
  },
  {
   "rk_id": "rk_pub_00162",
   "name": "娘娘",
   "name_en": "Nyanyan",
   "pref": "埼玉県",
   "pref_en": "Saitama",
   "city": "上尾市",
   "city_en": "Ageo Shi",
   "lat": 35.965431,
   "lng": 139.597778,
   "keito": [],
   "genre": "ramen",
   "cash_only_flag": null,
   "payment_qr_accepted": null,
   "stationless_flag": null,
   "status": "active"
  },
  {
   "rk_id": "rk_pub_00163",
   "name": "麺場 もっけい",
   "name_en": "Men Ba Mokkei",
   "pref": "埼玉県",
   "pref_en": "Saitama",
   "city": "久喜市",
   "city_en": "Kuki Shi",
   "lat": 36.041466,
   "lng": 139.656601,
   "keito": [],
   "genre": "ramen",
   "cash_only_flag": null,
   "payment_qr_accepted": null,
   "stationless_flag": null,
   "status": "active"
  },
  {
   "rk_id": "rk_pub_00164",
   "name": "中華料理 同源 上里店",
   "name_en": "Chukaryori Dogen Kamisato Ten",
   "pref": "埼玉県",
   "pref_en": "Saitama",
   "city": "児玉郡上里町",
   "city_en": "Kodama Gun Uesato Machi",
   "lat": 36.260139,
   "lng": 139.14328,
   "keito": [],
   "genre": "chinese",
   "cash_only_flag": null,
   "payment_qr_accepted": null,
   "stationless_flag": null,
   "status": "active"
  },
  {
   "rk_id": "rk_pub_00165",
   "name": "お食事処 蔵",
   "name_en": "Oshokujidokoro Kura",
   "pref": "埼玉県",
   "pref_en": "Saitama",
   "city": "入間市",
   "city_en": "Iruma Shi",
   "lat": 35.848312,
   "lng": 139.377396,
   "keito": [],
   "genre": "ramen",
   "cash_only_flag": null,
   "payment_qr_accepted": null,
   "stationless_flag": null,
   "status": "active"
  },
  {
   "rk_id": "rk_pub_00166",
   "name": "本格中華 らーめん 翔龍",
   "name_en": "Honkaku Chuka Ramen Shoryu",
   "pref": "埼玉県",
   "pref_en": "Saitama",
   "city": "八潮市",
   "city_en": "Yashio Shi",
   "lat": 35.845577,
   "lng": 139.831833,
   "keito": [],
   "genre": "ramen",
   "cash_only_flag": null,
   "payment_qr_accepted": null,
   "stationless_flag": null,
   "status": "active"
  },
  {
   "rk_id": "rk_pub_00167",
   "name": "おこのみ売店",
   "name_en": "Okonomi Baiten",
   "pref": "埼玉県",
   "pref_en": "Saitama",
   "city": "加須市",
   "city_en": "Kazo Shi",
   "lat": 36.136971,
   "lng": 139.550949,
   "keito": [],
   "genre": "ramen",
   "cash_only_flag": null,
   "payment_qr_accepted": null,
   "stationless_flag": null,
   "status": "active"
  },
  {
   "rk_id": "rk_pub_00168",
   "name": "博多らーめん 清水屋 姫宮店",
   "name_en": "Hakata Ramen Shimizuya Himemiya Ten",
   "pref": "埼玉県",
   "pref_en": "Saitama",
   "city": "南埼玉郡宮代町",
   "city_en": "Minamisaitama Gun Miyashiro Machi",
   "lat": 36.00238,
   "lng": 139.741974,
   "keito": [
    "tonkotsu"
   ],
   "genre": "ramen",
   "cash_only_flag": null,
   "payment_qr_accepted": null,
   "stationless_flag": null,
   "status": "active"
  },
  {
   "rk_id": "rk_pub_00169",
   "name": "つけ麺誉",
   "name_en": "Tsukemen Homare",
   "pref": "埼玉県",
   "pref_en": "Saitama",
   "city": "坂戸市",
   "city_en": "Sakato Shi",
   "lat": 35.951408,
   "lng": 139.439804,
   "keito": [
    "tsukemen"
   ],
   "genre": "ramen",
   "cash_only_flag": null,
   "payment_qr_accepted": null,
   "stationless_flag": null,
   "status": "active"
  },
  {
   "rk_id": "rk_pub_00170",
   "name": "中国料理 酔仙楼",
   "name_en": "Chugoku Ryori Suisenro",
   "pref": "埼玉県",
   "pref_en": "Saitama",
   "city": "富士見市",
   "city_en": "Fujimi Shi",
   "lat": 35.840031,
   "lng": 139.578354,
   "keito": [],
   "genre": "chinese",
   "cash_only_flag": null,
   "payment_qr_accepted": null,
   "stationless_flag": null,
   "status": "active"
  },
  {
   "rk_id": "rk_pub_00171",
   "name": "つけめん102 川口店",
   "name_en": "Tsukemen 102 Kawaguchi Ten",
   "pref": "埼玉県",
   "pref_en": "Saitama",
   "city": "川口市",
   "city_en": "Kawaguchi Shi",
   "lat": 35.803741,
   "lng": 139.717529,
   "keito": [
    "tsukemen"
   ],
   "genre": "ramen",
   "cash_only_flag": null,
   "payment_qr_accepted": null,
   "stationless_flag": null,
   "status": "active"
  },
  {
   "rk_id": "rk_pub_00172",
   "name": "宮本商店 川口新井宿店",
   "name_en": "Miyamoto Shoten Kawaguchi Araijuku Ten",
   "pref": "埼玉県",
   "pref_en": "Saitama",
   "city": "川口市",
   "city_en": "Kawaguchi Shi",
   "lat": 35.841217,
   "lng": 139.734344,
   "keito": [],
   "genre": "ramen",
   "cash_only_flag": null,
   "payment_qr_accepted": null,
   "stationless_flag": null,
   "status": "active"
  },
  {
   "rk_id": "rk_pub_00173",
   "name": "らぁ麺 㐂楽",
   "name_en": "Ra Men Kiraku",
   "pref": "埼玉県",
   "pref_en": "Saitama",
   "city": "川口市",
   "city_en": "Kawaguchi Shi",
   "lat": 35.82954,
   "lng": 139.693008,
   "keito": [],
   "genre": "ramen",
   "cash_only_flag": null,
   "payment_qr_accepted": null,
   "stationless_flag": null,
   "status": "active"
  },
  {
   "rk_id": "rk_pub_00174",
   "name": "美華楼",
   "name_en": "Mikaro",
   "pref": "埼玉県",
   "pref_en": "Saitama",
   "city": "川口市",
   "city_en": "Kawaguchi Shi",
   "lat": 35.803886,
   "lng": 139.729782,
   "keito": [],
   "genre": "ramen",
   "cash_only_flag": null,
   "payment_qr_accepted": null,
   "stationless_flag": null,
   "status": "active"
  },
  {
   "rk_id": "rk_pub_00175",
   "name": "横浜家系らーめん 武蔵家 川口店",
   "name_en": "Yokohama Iekei Ramen Musashiya Kawaguchi Ten",
   "pref": "埼玉県",
   "pref_en": "Saitama",
   "city": "川口市",
   "city_en": "Kawaguchi Shi",
   "lat": 35.80291,
   "lng": 139.720139,
   "keito": [],
   "genre": "ramen",
   "cash_only_flag": null,
   "payment_qr_accepted": null,
   "stationless_flag": null,
   "status": "active"
  },
  {
   "rk_id": "rk_pub_00176",
   "name": "日高屋 川越西口店",
   "name_en": "Hidakaya Kawagoe Nishiguchi Ten",
   "pref": "埼玉県",
   "pref_en": "Saitama",
   "city": "川越市",
   "city_en": "Kawagoe Shi",
   "lat": 35.907661,
   "lng": 139.480789,
   "keito": [
    "shoyu"
   ],
   "genre": "ramen",
   "cash_only_flag": false,
   "payment_qr_accepted": null,
   "stationless_flag": null,
   "status": "active"
  },
  {
   "rk_id": "rk_pub_00177",
   "name": "アンダーグラウンドラーメン 食の祭典 日本全国うまいものめぐり",
   "name_en": "Underground Ramen Shokuno Saiten Nihon Zenkoku Umaimono Meguri",
   "pref": "埼玉県",
   "pref_en": "Saitama",
   "city": "川越市",
   "city_en": "Kawagoe Shi",
   "lat": 35.912521,
   "lng": 139.48233,
   "keito": [],
   "genre": "ramen",
   "cash_only_flag": null,
   "payment_qr_accepted": null,
   "stationless_flag": null,
   "status": "active"
  },
  {
   "rk_id": "rk_pub_00178",
   "name": "ひかり飯店",
   "name_en": "Hikari Hanten",
   "pref": "埼玉県",
   "pref_en": "Saitama",
   "city": "川越市",
   "city_en": "Kawagoe Shi",
   "lat": 35.91851,
   "lng": 139.481079,
   "keito": [],
   "genre": "chinese",
   "cash_only_flag": null,
   "payment_qr_accepted": null,
   "stationless_flag": null,
   "status": "active"
  },
  {
   "rk_id": "rk_pub_00179",
   "name": "らー麺 とぐち 初夏の北海道物産展",
   "name_en": "Ramen Toguchi Shoka No Hokkaido Bussanten",
   "pref": "埼玉県",
   "pref_en": "Saitama",
   "city": "川越市",
   "city_en": "Kawagoe Shi",
   "lat": 35.912521,
   "lng": 139.48233,
   "keito": [],
   "genre": "ramen",
   "cash_only_flag": null,
   "payment_qr_accepted": null,
   "stationless_flag": null,
   "status": "active"
  },
  {
   "rk_id": "rk_pub_00180",
   "name": "かにの網元 幸手店",
   "name_en": "Kani no Amimoto Satte Ten",
   "pref": "埼玉県",
   "pref_en": "Saitama",
   "city": "幸手市",
   "city_en": "Satte Shi",
   "lat": 36.097191,
   "lng": 139.722763,
   "keito": [],
   "genre": "ramen",
   "cash_only_flag": null,
   "payment_qr_accepted": null,
   "stationless_flag": null,
   "status": "active"
  },
  {
   "rk_id": "rk_pub_00181",
   "name": "紅虎餃子房 イオンモール北戸田",
   "name_en": "Benitora Gyozabo Aeon Mall Kitatoda",
   "pref": "埼玉県",
   "pref_en": "Saitama",
   "city": "戸田市",
   "city_en": "Toda Shi",
   "lat": 35.826706,
   "lng": 139.65303,
   "keito": [],
   "genre": "chinese",
   "cash_only_flag": null,
   "payment_qr_accepted": null,
   "stationless_flag": null,
   "status": "active"
  },
  {
   "rk_id": "rk_pub_00182",
   "name": "菜香楼",
   "name_en": "Saikoro",
   "pref": "埼玉県",
   "pref_en": "Saitama",
   "city": "所沢市",
   "city_en": "Tokorozawa Shi",
   "lat": 35.804497,
   "lng": 139.443649,
   "keito": [],
   "genre": "ramen",
   "cash_only_flag": null,
   "payment_qr_accepted": null,
   "stationless_flag": null,
   "status": "active"
  },
  {
   "rk_id": "rk_pub_00183",
   "name": "酒と肴と晩ご飯 なか屋",
   "name_en": "Sake to Sakana to Bangohan Nakaya",
   "pref": "埼玉県",
   "pref_en": "Saitama",
   "city": "所沢市",
   "city_en": "Tokorozawa Shi",
   "lat": 35.791794,
   "lng": 139.469055,
   "keito": [],
   "genre": "ramen",
   "cash_only_flag": null,
   "payment_qr_accepted": null,
   "stationless_flag": null,
   "status": "active"
  },
  {
   "rk_id": "rk_pub_00184",
   "name": "バリバリラーメン",
   "name_en": "Baribariramen",
   "pref": "埼玉県",
   "pref_en": "Saitama",
   "city": "新座市",
   "city_en": "Niza Shi",
   "lat": 35.793633,
   "lng": 139.552322,
   "keito": [],
   "genre": "ramen",
   "cash_only_flag": null,
   "payment_qr_accepted": null,
   "stationless_flag": null,
   "status": "active"
  },
  {
   "rk_id": "rk_pub_00185",
   "name": "ピクニックコート 日高店",
   "name_en": "Picnic Court Hidaka Ten",
   "pref": "埼玉県",
   "pref_en": "Saitama",
   "city": "日高市",
   "city_en": "Hidaka Shi",
   "lat": 35.916157,
   "lng": 139.3741,
   "keito": [],
   "genre": "ramen",
   "cash_only_flag": null,
   "payment_qr_accepted": null,
   "stationless_flag": null,
   "status": "active"
  },
  {
   "rk_id": "rk_pub_00186",
   "name": "でびっとらーめん",
   "name_en": "Debittoramen",
   "pref": "埼玉県",
   "pref_en": "Saitama",
   "city": "春日部市",
   "city_en": "Kasukabe Shi",
   "lat": 35.981434,
   "lng": 139.757919,
   "keito": [],
   "genre": "ramen",
   "cash_only_flag": null,
   "payment_qr_accepted": null,
   "stationless_flag": null,
   "status": "active"
  },
  {
   "rk_id": "rk_pub_00187",
   "name": "つけめん番長 銀",
   "name_en": "Tsukemen Bancho Gin",
   "pref": "埼玉県",
   "pref_en": "Saitama",
   "city": "朝霞市",
   "city_en": "Asaka Shi",
   "lat": 35.811909,
   "lng": 139.582123,
   "keito": [
    "tsukemen"
   ],
   "genre": "ramen",
   "cash_only_flag": null,
   "payment_qr_accepted": null,
   "stationless_flag": null,
   "status": "active"
  },
  {
   "rk_id": "rk_pub_00188",
   "name": "手もみラーメン 万龍",
   "name_en": "Temomi Ramen Manryu",
   "pref": "埼玉県",
   "pref_en": "Saitama",
   "city": "本庄市",
   "city_en": "Honjo Shi",
   "lat": 36.234863,
   "lng": 139.187881,
   "keito": [],
   "genre": "ramen",
   "cash_only_flag": null,
   "payment_qr_accepted": null,
   "stationless_flag": null,
   "status": "active"
  },
  {
   "rk_id": "rk_pub_00189",
   "name": "恵比須屋食堂",
   "name_en": "Ebisu Ya Shokudo",
   "pref": "埼玉県",
   "pref_en": "Saitama",
   "city": "東松山市",
   "city_en": "Higashimatsuyama Shi",
   "lat": 36.034096,
   "lng": 139.38353,
   "keito": [],
   "genre": "ramen",
   "cash_only_flag": null,
   "payment_qr_accepted": null,
   "stationless_flag": null,
   "status": "active"
  },
  {
   "rk_id": "rk_pub_00190",
   "name": "百穴発掘の家",
   "name_en": "Hyakuana Hakkutsu no Ie",
   "pref": "埼玉県",
   "pref_en": "Saitama",
   "city": "比企郡吉見町",
   "city_en": "Hiki Gun Yoshimi Machi",
   "lat": 36.039448,
   "lng": 139.422134,
   "keito": [
    "tonkotsu"
   ],
   "genre": "ramen",
   "cash_only_flag": null,
   "payment_qr_accepted": null,
   "stationless_flag": null,
   "status": "active"
  },
  {
   "rk_id": "rk_pub_00191",
   "name": "伊勢屋だんご店",
   "name_en": "Iseya Dango Ten",
   "pref": "埼玉県",
   "pref_en": "Saitama",
   "city": "深谷市",
   "city_en": "Fukaya Shi",
   "lat": 36.195068,
   "lng": 139.281967,
   "keito": [],
   "genre": "ramen",
   "cash_only_flag": null,
   "payment_qr_accepted": null,
   "stationless_flag": null,
   "status": "active"
  },
  {
   "rk_id": "rk_pub_00192",
   "name": "長尾中華そば 青森物産展",
   "name_en": "Nagao Chuka Soba Aomori Bussan Ten",
   "pref": "埼玉県",
   "pref_en": "Saitama",
   "city": "熊谷市",
   "city_en": "Kumagaya Shi",
   "lat": 36.14595,
   "lng": 139.381973,
   "keito": [
    "shoyu"
   ],
   "genre": "ramen",
   "cash_only_flag": null,
   "payment_qr_accepted": null,
   "stationless_flag": null,
   "status": "active"
  },
  {
   "rk_id": "rk_pub_00193",
   "name": "草木万里野 熊谷太井店",
   "name_en": "Somoku Banri No Kumagaya Futoi Ten",
   "pref": "埼玉県",
   "pref_en": "Saitama",
   "city": "熊谷市",
   "city_en": "Kumagaya Shi",
   "lat": 36.120739,
   "lng": 139.427261,
   "keito": [],
   "genre": "ramen",
   "cash_only_flag": null,
   "payment_qr_accepted": null,
   "stationless_flag": null,
   "status": "active"
  },
  {
   "rk_id": "rk_pub_00194",
   "name": "カッパラーメンセンター",
   "name_en": "Kapparamen Center",
   "pref": "埼玉県",
   "pref_en": "Saitama",
   "city": "狭山市",
   "city_en": "Sayama Shi",
   "lat": 35.863754,
   "lng": 139.400284,
   "keito": [],
   "genre": "ramen",
   "cash_only_flag": null,
   "payment_qr_accepted": null,
   "stationless_flag": null,
   "status": "active"
  },
  {
   "rk_id": "rk_pub_00195",
   "name": "呑食処 祭の宴",
   "name_en": "Donshokudokoro Matsuri No Utage",
   "pref": "埼玉県",
   "pref_en": "Saitama",
   "city": "秩父市",
   "city_en": "Chichibu Shi",
   "lat": 35.989964,
   "lng": 139.084198,
   "keito": [],
   "genre": "ramen",
   "cash_only_flag": null,
   "payment_qr_accepted": null,
   "stationless_flag": null,
   "status": "active"
  },
  {
   "rk_id": "rk_pub_00196",
   "name": "中華料理 大東園",
   "name_en": "Chukaryori Daitoen",
   "pref": "埼玉県",
   "pref_en": "Saitama",
   "city": "羽生市",
   "city_en": "Hanyu Shi",
   "lat": 36.17165,
   "lng": 139.553604,
   "keito": [],
   "genre": "chinese",
   "cash_only_flag": null,
   "payment_qr_accepted": null,
   "stationless_flag": null,
   "status": "active"
  },
  {
   "rk_id": "rk_pub_00197",
   "name": "紫菜館 草加店",
   "name_en": "Shisaikan Soka Ten",
   "pref": "埼玉県",
   "pref_en": "Saitama",
   "city": "草加市",
   "city_en": "Soka Shi",
   "lat": 35.826366,
   "lng": 139.805359,
   "keito": [],
   "genre": "ramen",
   "cash_only_flag": null,
   "payment_qr_accepted": null,
   "stationless_flag": null,
   "status": "active"
  },
  {
   "rk_id": "rk_pub_00198",
   "name": "お酒と麺のたいくんち",
   "name_en": "Osake to Men no Taikunchi",
   "pref": "埼玉県",
   "pref_en": "Saitama",
   "city": "草加市",
   "city_en": "Soka Shi",
   "lat": 35.836494,
   "lng": 139.791519,
   "keito": [],
   "genre": "ramen",
   "cash_only_flag": null,
   "payment_qr_accepted": null,
   "stationless_flag": null,
   "status": "active"
  },
  {
   "rk_id": "rk_pub_00199",
   "name": "八洲ラーメン",
   "name_en": "Hasshu Ramen",
   "pref": "埼玉県",
   "pref_en": "Saitama",
   "city": "行田市",
   "city_en": "Gyoda Shi",
   "lat": 36.136402,
   "lng": 139.475967,
   "keito": [],
   "genre": "ramen",
   "cash_only_flag": null,
   "payment_qr_accepted": null,
   "stationless_flag": null,
   "status": "active"
  },
  {
   "rk_id": "rk_pub_00200",
   "name": "春慶小亭",
   "name_en": "Shunkei Shotei",
   "pref": "埼玉県",
   "pref_en": "Saitama",
   "city": "越谷市",
   "city_en": "Koshigaya Shi",
   "lat": 35.87579,
   "lng": 139.788696,
   "keito": [],
   "genre": "ramen",
   "cash_only_flag": null,
   "payment_qr_accepted": null,
   "stationless_flag": null,
   "status": "active"
  },
  {
   "rk_id": "rk_pub_00201",
   "name": "中華料理 泓源",
   "name_en": "Chukaryori Kogen",
   "pref": "埼玉県",
   "pref_en": "Saitama",
   "city": "越谷市",
   "city_en": "Koshigaya Shi",
   "lat": 35.866817,
   "lng": 139.793396,
   "keito": [],
   "genre": "chinese",
   "cash_only_flag": null,
   "payment_qr_accepted": null,
   "stationless_flag": null,
   "status": "active"
  },
  {
   "rk_id": "rk_pub_00202",
   "name": "海南飯店",
   "name_en": "Kainan Hanten",
   "pref": "埼玉県",
   "pref_en": "Saitama",
   "city": "越谷市",
   "city_en": "Koshigaya Shi",
   "lat": 35.883556,
   "lng": 139.798752,
   "keito": [],
   "genre": "chinese",
   "cash_only_flag": null,
   "payment_qr_accepted": null,
   "stationless_flag": null,
   "status": "active"
  },
  {
   "rk_id": "rk_pub_00203",
   "name": "INDIEラーメン",
   "name_en": "Indie Ramen",
   "pref": "埼玉県",
   "pref_en": "Saitama",
   "city": "鴻巣市",
   "city_en": "Konosu Shi",
   "lat": 36.059395,
   "lng": 139.512131,
   "keito": [],
   "genre": "ramen",
   "cash_only_flag": null,
   "payment_qr_accepted": null,
   "stationless_flag": null,
   "status": "active"
  },
  {
   "rk_id": "rk_pub_00204",
   "name": "みその屋 中津店",
   "name_en": "Misono Ya Nakatsu Ten",
   "pref": "大分県",
   "pref_en": "Oita",
   "city": "中津市",
   "city_en": "Nakatsu Shi",
   "lat": 33.59145,
   "lng": 131.192535,
   "keito": [
    "miso"
   ],
   "genre": "ramen",
   "cash_only_flag": null,
   "payment_qr_accepted": null,
   "stationless_flag": null,
   "status": "active"
  },
  {
   "rk_id": "rk_pub_00205",
   "name": "ラーメンいっちゃん琴別府店",
   "name_en": "Ramen Itchan Kotobeppu Ten",
   "pref": "大分県",
   "pref_en": "Oita",
   "city": "別府市",
   "city_en": "Beppu Shi",
   "lat": 33.33044,
   "lng": 131.49394,
   "keito": [],
   "genre": "ramen",
   "cash_only_flag": null,
   "payment_qr_accepted": null,
   "stationless_flag": null,
   "status": "active"
  },
  {
   "rk_id": "rk_pub_00206",
   "name": "大分ラーメン 丸優",
   "name_en": "Oita Ramen Maruyu",
   "pref": "大分県",
   "pref_en": "Oita",
   "city": "大分市",
   "city_en": "Oita Shi",
   "lat": 33.224751,
   "lng": 131.618134,
   "keito": [],
   "genre": "ramen",
   "cash_only_flag": null,
   "payment_qr_accepted": null,
   "stationless_flag": null,
   "status": "active"
  },
  {
   "rk_id": "rk_pub_00207",
   "name": "味噌乃家 フリーモールわさだ店",
   "name_en": "Misonoya Freemall Wasada Ten",
   "pref": "大分県",
   "pref_en": "Oita",
   "city": "大分市",
   "city_en": "Oita Shi",
   "lat": 33.185596,
   "lng": 131.569763,
   "keito": [
    "miso",
    "tonkotsu"
   ],
   "genre": "ramen",
   "cash_only_flag": null,
   "payment_qr_accepted": null,
   "stationless_flag": null,
   "status": "active"
  },
  {
   "rk_id": "rk_pub_00208",
   "name": "横浜家系ラーメン 高崎家",
   "name_en": "Yokohama Iekei Ramen Takasakiya",
   "pref": "大分県",
   "pref_en": "Oita",
   "city": "大分市",
   "city_en": "Oita Shi",
   "lat": 33.237953,
   "lng": 131.607071,
   "keito": [
    "tonkotsu"
   ],
   "genre": "ramen",
   "cash_only_flag": null,
   "payment_qr_accepted": null,
   "stationless_flag": null,
   "status": "active"
  },
  {
   "rk_id": "rk_pub_00209",
   "name": "麺家さくら",
   "name_en": "Menya Sakura",
   "pref": "大分県",
   "pref_en": "Oita",
   "city": "日田市",
   "city_en": "Hita Shi",
   "lat": 33.34905,
   "lng": 130.92758,
   "keito": [],
   "genre": "ramen",
   "cash_only_flag": null,
   "payment_qr_accepted": null,
   "stationless_flag": null,
   "status": "active"
  },
  {
   "rk_id": "rk_pub_00210",
   "name": "白馬童子 八尾店",
   "name_en": "Hakuba Doji Yao Ten",
   "pref": "大阪府",
   "pref_en": "Osaka",
   "city": "八尾市",
   "city_en": "Yao Shi",
   "lat": 34.613434,
   "lng": 135.585419,
   "keito": [],
   "genre": "ramen",
   "cash_only_flag": null,
   "payment_qr_accepted": null,
   "stationless_flag": null,
   "status": "active"
  },
  {
   "rk_id": "rk_pub_00211",
   "name": "金久右衛門 江坂店",
   "name_en": "Kinguemon Esaka Ten",
   "pref": "大阪府",
   "pref_en": "Osaka",
   "city": "吹田市",
   "city_en": "Suita Shi",
   "lat": 34.758518,
   "lng": 135.495132,
   "keito": [],
   "genre": "ramen",
   "cash_only_flag": null,
   "payment_qr_accepted": null,
   "stationless_flag": null,
   "status": "active"
  },
  {
   "rk_id": "rk_pub_00212",
   "name": "ヤマネコ軒",
   "name_en": "Yamanekoken",
   "pref": "大阪府",
   "pref_en": "Osaka",
   "city": "吹田市",
   "city_en": "Suita Shi",
   "lat": 34.756176,
   "lng": 135.496567,
   "keito": [],
   "genre": "ramen",
   "cash_only_flag": null,
   "payment_qr_accepted": null,
   "stationless_flag": null,
   "status": "active"
  },
  {
   "rk_id": "rk_pub_00213",
   "name": "ラーメン 横綱 堺店",
   "name_en": "Ramen Yokozuna Sakai Ten",
   "pref": "大阪府",
   "pref_en": "Osaka",
   "city": "堺市北区",
   "city_en": "Sakai Shi Kita Ku",
   "lat": 34.565319,
   "lng": 135.503326,
   "keito": [],
   "genre": "ramen",
   "cash_only_flag": null,
   "payment_qr_accepted": null,
   "stationless_flag": null,
   "status": "active"
  },
  {
   "rk_id": "rk_pub_00214",
   "name": "河童ラーメン本舗 堺店",
   "name_en": "Kappa Ramen Honpo Sakai Ten",
   "pref": "大阪府",
   "pref_en": "Osaka",
   "city": "堺市堺区",
   "city_en": "Sakai Shi Sakai Ku",
   "lat": 34.591438,
   "lng": 135.476059,
   "keito": [],
   "genre": "ramen",
   "cash_only_flag": false,
   "payment_qr_accepted": null,
   "stationless_flag": null,
   "status": "active"
  },
  {
   "rk_id": "rk_pub_00215",
   "name": "らーめんジャン",
   "name_en": "Ramen Jan",
   "pref": "大阪府",
   "pref_en": "Osaka",
   "city": "堺市西区",
   "city_en": "Sakai Shi Nishi Ku",
   "lat": 34.544334,
   "lng": 135.488007,
   "keito": [],
   "genre": "ramen",
   "cash_only_flag": null,
   "payment_qr_accepted": null,
   "stationless_flag": null,
   "status": "active"
  },
  {
   "rk_id": "rk_pub_00216",
   "name": "尾道らーめん 月光仮面",
   "name_en": "Onomichi Ramen Gekko Kamen",
   "pref": "大阪府",
   "pref_en": "Osaka",
   "city": "大阪市中央区",
   "city_en": "Osaka Shi Chuo Ku",
   "lat": 34.666374,
   "lng": 135.505707,
   "keito": [],
   "genre": "ramen",
   "cash_only_flag": null,
   "payment_qr_accepted": null,
   "stationless_flag": null,
   "status": "active"
  },
  {
   "rk_id": "rk_pub_00217",
   "name": "千日前 やすだや",
   "name_en": "Sennichimae Yasudaya",
   "pref": "大阪府",
   "pref_en": "Osaka",
   "city": "大阪市中央区",
   "city_en": "Osaka Shi Chuo Ku",
   "lat": 34.667305,
   "lng": 135.503723,
   "keito": [],
   "genre": "ramen",
   "cash_only_flag": null,
   "payment_qr_accepted": null,
   "stationless_flag": null,
   "status": "active"
  },
  {
   "rk_id": "rk_pub_00218",
   "name": "森ちゃんのラーメンフェスタ2017",
   "name_en": "Mori Chan no Ramen Festa 2017",
   "pref": "大阪府",
   "pref_en": "Osaka",
   "city": "大阪市中央区",
   "city_en": "Osaka Shi Chuo Ku",
   "lat": 34.686604,
   "lng": 135.527466,
   "keito": [],
   "genre": "ramen",
   "cash_only_flag": null,
   "payment_qr_accepted": null,
   "stationless_flag": null,
   "status": "active"
  },
  {
   "rk_id": "rk_pub_00219",
   "name": "ちゃんぽん亭総本家 瓦町店",
   "name_en": "Chanpontei",
   "pref": "大阪府",
   "pref_en": "Osaka",
   "city": "大阪市中央区",
   "city_en": "Osaka Shi Chuo Ku",
   "lat": 34.686245,
   "lng": 135.49971,
   "keito": [
    "tonkotsu"
   ],
   "genre": "ramen",
   "cash_only_flag": null,
   "payment_qr_accepted": null,
   "stationless_flag": null,
   "status": "active"
  },
  {
   "rk_id": "rk_pub_00220",
   "name": "らぁ麺はやし田 道頓堀店",
   "name_en": "Ra Men Hayashida Dotonbori Ten",
   "pref": "大阪府",
   "pref_en": "Osaka",
   "city": "大阪市中央区",
   "city_en": "Osaka Shi Chuo Ku",
   "lat": 34.668877,
   "lng": 135.501221,
   "keito": [],
   "genre": "ramen",
   "cash_only_flag": null,
   "payment_qr_accepted": null,
   "stationless_flag": null,
   "status": "active"
  },
  {
   "rk_id": "rk_pub_00221",
   "name": "HALAL RAMEN 浪速屋",
   "name_en": "HALAL RAMEN Naniwaya",
   "pref": "大阪府",
   "pref_en": "Osaka",
   "city": "大阪市中央区",
   "city_en": "Osaka Shi Chuo Ku",
   "lat": 34.669701,
   "lng": 135.498245,
   "keito": [],
   "genre": "ramen",
   "cash_only_flag": null,
   "payment_qr_accepted": null,
   "stationless_flag": null,
   "status": "active"
  },
  {
   "rk_id": "rk_pub_00222",
   "name": "帆のるぐらんで心斎橋",
   "name_en": "Ho Noru Grande Shinsaibashi",
   "pref": "大阪府",
   "pref_en": "Osaka",
   "city": "大阪市中央区",
   "city_en": "Osaka Shi Chuo Ku",
   "lat": 34.671654,
   "lng": 135.502274,
   "keito": [],
   "genre": "ramen",
   "cash_only_flag": null,
   "payment_qr_accepted": null,
   "stationless_flag": null,
   "status": "active"
  },
  {
   "rk_id": "rk_pub_00223",
   "name": "本場博多ラーメン・油そば 一号艇",
   "name_en": "Honba Hakata Ramen Abura Soba Ichigotei",
   "pref": "大阪府",
   "pref_en": "Osaka",
   "city": "大阪市住吉区",
   "city_en": "Osaka Shi Sumiyoshi Ku",
   "lat": 34.598198,
   "lng": 135.513062,
   "keito": [
    "other",
    "tonkotsu"
   ],
   "genre": "ramen",
   "cash_only_flag": null,
   "payment_qr_accepted": null,
   "stationless_flag": null,
   "status": "active"
  },
  {
   "rk_id": "rk_pub_00224",
   "name": "沖縄家庭料理と泡盛 島ぬ風 阪急三番街店",
   "name_en": "Okinawa Kateiryori To Awamori Shima Nu Kaze Hankyu Sanbangai Ten",
   "pref": "大阪府",
   "pref_en": "Osaka",
   "city": "大阪市北区",
   "city_en": "Osaka Shi Kita Ku",
   "lat": 34.70414,
   "lng": 135.499008,
   "keito": [],
   "genre": "ramen",
   "cash_only_flag": null,
   "payment_qr_accepted": null,
   "stationless_flag": null,
   "status": "active"
  },
  {
   "rk_id": "rk_pub_00225",
   "name": "馬鹿坊",
   "name_en": "Bakabo",
   "pref": "大阪府",
   "pref_en": "Osaka",
   "city": "大阪市北区",
   "city_en": "Osaka Shi Kita Ku",
   "lat": 34.708912,
   "lng": 135.508102,
   "keito": [],
   "genre": "ramen",
   "cash_only_flag": null,
   "payment_qr_accepted": null,
   "stationless_flag": null,
   "status": "active"
  },
  {
   "rk_id": "rk_pub_00226",
   "name": "赤白 ルクア大阪店",
   "name_en": "Akashiro Lucua Osaka Ten",
   "pref": "大阪府",
   "pref_en": "Osaka",
   "city": "大阪市北区",
   "city_en": "Osaka Shi Kita Ku",
   "lat": 34.701881,
   "lng": 135.496338,
   "keito": [],
   "genre": "ramen",
   "cash_only_flag": null,
   "payment_qr_accepted": null,
   "stationless_flag": null,
   "status": "active"
  },
  {
   "rk_id": "rk_pub_00227",
   "name": "らぁ麺 もう利 南森町店",
   "name_en": "Ramen Mouri Minamimorimachiten",
   "pref": "大阪府",
   "pref_en": "Osaka",
   "city": "大阪市北区",
   "city_en": "Osaka Shi Kita Ku",
   "lat": 34.69352,
   "lng": 135.512543,
   "keito": [],
   "genre": "ramen",
   "cash_only_flag": null,
   "payment_qr_accepted": null,
   "stationless_flag": null,
   "status": "active"
  },
  {
   "rk_id": "rk_pub_00228",
   "name": "名前のないラーメン屋",
   "name_en": "Namae no Nai Ramenya",
   "pref": "大阪府",
   "pref_en": "Osaka",
   "city": "大阪市北区",
   "city_en": "Osaka Shi Kita Ku",
   "lat": 34.709297,
   "lng": 135.498795,
   "keito": [],
   "genre": "ramen",
   "cash_only_flag": null,
   "payment_qr_accepted": null,
   "stationless_flag": null,
   "status": "active"
  },
  {
   "rk_id": "rk_pub_00229",
   "name": "ラーメン 魁力屋 鴫野店",
   "name_en": "Kairikiya",
   "pref": "大阪府",
   "pref_en": "Osaka",
   "city": "大阪市城東区",
   "city_en": "Osaka Shi Joto Ku",
   "lat": 34.695053,
   "lng": 135.546097,
   "keito": [
    "shoyu"
   ],
   "genre": "ramen",
   "cash_only_flag": false,
   "payment_qr_accepted": null,
   "stationless_flag": null,
   "status": "active"
  },
  {
   "rk_id": "rk_pub_00230",
   "name": "きりん寺 桃谷店",
   "name_en": "Kirinji Momodani Ten",
   "pref": "大阪府",
   "pref_en": "Osaka",
   "city": "大阪市天王寺区",
   "city_en": "Osaka Shi Tennoji Ku",
   "lat": 34.657833,
   "lng": 135.52681,
   "keito": [],
   "genre": "ramen",
   "cash_only_flag": null,
   "payment_qr_accepted": null,
   "stationless_flag": null,
   "status": "active"
  },
  {
   "rk_id": "rk_pub_00231",
   "name": "餃子の王将 喜連瓜破店",
   "name_en": "Gyoza No Osho Kireuriwari Ten",
   "pref": "大阪府",
   "pref_en": "Osaka",
   "city": "大阪市平野区",
   "city_en": "Osaka Shi Heiya Ku",
   "lat": 34.609413,
   "lng": 135.551636,
   "keito": [],
   "genre": "chinese",
   "cash_only_flag": null,
   "payment_qr_accepted": null,
   "stationless_flag": null,
   "status": "active"
  },
  {
   "rk_id": "rk_pub_00232",
   "name": "金久右衛門 本店",
   "name_en": "Kin'emon Honten",
   "pref": "大阪府",
   "pref_en": "Osaka",
   "city": "大阪市東成区",
   "city_en": "Osaka Shi Higashinari Ku",
   "lat": 34.678314,
   "lng": 135.562469,
   "keito": [],
   "genre": "ramen",
   "cash_only_flag": null,
   "payment_qr_accepted": null,
   "stationless_flag": null,
   "status": "active"
  },
  {
   "rk_id": "rk_pub_00233",
   "name": "手づくりサンド はさみ",
   "name_en": "Tezukuri Sando Hasami",
   "pref": "大阪府",
   "pref_en": "Osaka",
   "city": "大阪市東淀川区",
   "city_en": "Osaka Shi Higashiyodogawa Ku",
   "lat": 34.746052,
   "lng": 135.536652,
   "keito": [],
   "genre": "ramen",
   "cash_only_flag": null,
   "payment_qr_accepted": null,
   "stationless_flag": null,
   "status": "active"
  },
  {
   "rk_id": "rk_pub_00234",
   "name": "どろそば将 えびす町店",
   "name_en": "Dorosoba Sho Ebisu Machi Ten",
   "pref": "大阪府",
   "pref_en": "Osaka",
   "city": "大阪市浪速区",
   "city_en": "Osaka Shi Naniwa Ku",
   "lat": 34.654613,
   "lng": 135.504211,
   "keito": [],
   "genre": "ramen",
   "cash_only_flag": null,
   "payment_qr_accepted": null,
   "stationless_flag": null,
   "status": "active"
  },
  {
   "rk_id": "rk_pub_00235",
   "name": "来来亭 十三店",
   "name_en": "Rairaitei Juso Ten",
   "pref": "大阪府",
   "pref_en": "Osaka",
   "city": "大阪市淀川区",
   "city_en": "Osaka Shi Yodogawa Ku",
   "lat": 34.726616,
   "lng": 135.487411,
   "keito": [
    "shoyu"
   ],
   "genre": "ramen",
   "cash_only_flag": null,
   "payment_qr_accepted": null,
   "stationless_flag": null,
   "status": "active"
  },
  {
   "rk_id": "rk_pub_00236",
   "name": "精鋭麺部隊",
   "name_en": "Seiei Men Butai",
   "pref": "大阪府",
   "pref_en": "Osaka",
   "city": "大阪市淀川区",
   "city_en": "Osaka Shi Yodogawa Ku",
   "lat": 34.719913,
   "lng": 135.48201,
   "keito": [],
   "genre": "ramen",
   "cash_only_flag": null,
   "payment_qr_accepted": null,
   "stationless_flag": null,
   "status": "active"
  },
  {
   "rk_id": "rk_pub_00237",
   "name": "らぁめん六郎亭",
   "name_en": "Ramen Rokuroten",
   "pref": "大阪府",
   "pref_en": "Osaka",
   "city": "大阪市港区",
   "city_en": "Osaka Shi Minato Ku",
   "lat": 34.656879,
   "lng": 135.446838,
   "keito": [],
   "genre": "ramen",
   "cash_only_flag": null,
   "payment_qr_accepted": null,
   "stationless_flag": null,
   "status": "active"
  },
  {
   "rk_id": "rk_pub_00238",
   "name": "西梅田 らんぷ",
   "name_en": "Nishiumeda Ranpu",
   "pref": "大阪府",
   "pref_en": "Osaka",
   "city": "大阪市福島区",
   "city_en": "Osaka Shi Fukushima Ku",
   "lat": 34.700165,
   "lng": 135.489716,
   "keito": [],
   "genre": "ramen",
   "cash_only_flag": null,
   "payment_qr_accepted": null,
   "stationless_flag": null,
   "status": "active"
  },
  {
   "rk_id": "rk_pub_00239",
   "name": "つるまる 土佐堀ダイビル店",
   "name_en": "Tsurumaru Tosabori Daibiru Ten",
   "pref": "大阪府",
   "pref_en": "Osaka",
   "city": "大阪市西区",
   "city_en": "Osaka Shi Nishi Ku",
   "lat": 34.688847,
   "lng": 135.491089,
   "keito": [],
   "genre": "ramen",
   "cash_only_flag": null,
   "payment_qr_accepted": null,
   "stationless_flag": null,
   "status": "active"
  },
  {
   "rk_id": "rk_pub_00240",
   "name": "つけ麺 まるぶし",
   "name_en": "Tsuke Men Marubushi",
   "pref": "大阪府",
   "pref_en": "Osaka",
   "city": "大阪市西成区",
   "city_en": "Osaka Shi Nishinari Ku",
   "lat": 34.639278,
   "lng": 135.495117,
   "keito": [
    "tsukemen"
   ],
   "genre": "ramen",
   "cash_only_flag": null,
   "payment_qr_accepted": null,
   "stationless_flag": null,
   "status": "active"
  },
  {
   "rk_id": "rk_pub_00241",
   "name": "らーめん 世界一 京橋本店",
   "name_en": "Ramen Sekaichi Kyobashi Honten",
   "pref": "大阪府",
   "pref_en": "Osaka",
   "city": "大阪市都島区",
   "city_en": "Osaka Shi Miyako Shima Ku",
   "lat": 34.698811,
   "lng": 135.534409,
   "keito": [],
   "genre": "ramen",
   "cash_only_flag": null,
   "payment_qr_accepted": null,
   "stationless_flag": null,
   "status": "active"
  },
  {
   "rk_id": "rk_pub_00242",
   "name": "汁なしまぜ麺専門店 麺屋 花桃",
   "name_en": "Shirunashi Maze Men Senmonten Men Ya Hanamomo",
   "pref": "大阪府",
   "pref_en": "Osaka",
   "city": "大阪市阿倍野区",
   "city_en": "Osaka Shi Abeno Ku",
   "lat": 34.633083,
   "lng": 135.517334,
   "keito": [
    "other"
   ],
   "genre": "ramen",
   "cash_only_flag": null,
   "payment_qr_accepted": null,
   "stationless_flag": null,
   "status": "active"
  },
  {
   "rk_id": "rk_pub_00243",
   "name": "中国料理 李瞬",
   "name_en": "Chugokuryori Rishun",
   "pref": "大阪府",
   "pref_en": "Osaka",
   "city": "守口市",
   "city_en": "Moriguchi Shi",
   "lat": 34.735195,
   "lng": 135.568283,
   "keito": [],
   "genre": "chinese",
   "cash_only_flag": null,
   "payment_qr_accepted": null,
   "stationless_flag": null,
   "status": "active"
  },
  {
   "rk_id": "rk_pub_00244",
   "name": "餃子の王将 香里園駅前店",
   "name_en": "Gyoza No Osho Korien Ekimae Ten",
   "pref": "大阪府",
   "pref_en": "Osaka",
   "city": "寝屋川市",
   "city_en": "Neyagawa Shi",
   "lat": 34.783501,
   "lng": 135.629349,
   "keito": [],
   "genre": "chinese",
   "cash_only_flag": null,
   "payment_qr_accepted": null,
   "stationless_flag": null,
   "status": "active"
  },
  {
   "rk_id": "rk_pub_00245",
   "name": "南摂津魂心家",
   "name_en": "Minamisettsu Konshinya",
   "pref": "大阪府",
   "pref_en": "Osaka",
   "city": "摂津市",
   "city_en": "Settsu Shi",
   "lat": 34.764446,
   "lng": 135.569656,
   "keito": [
    "tonkotsu"
   ],
   "genre": "ramen",
   "cash_only_flag": null,
   "payment_qr_accepted": null,
   "stationless_flag": null,
   "status": "active"
  },
  {
   "rk_id": "rk_pub_00246",
   "name": "麺屋 36",
   "name_en": "Menya 36",
   "pref": "大阪府",
   "pref_en": "Osaka",
   "city": "東大阪市",
   "city_en": "Higashiosaka Shi",
   "lat": 34.66362,
   "lng": 135.61792,
   "keito": [],
   "genre": "ramen",
   "cash_only_flag": null,
   "payment_qr_accepted": null,
   "stationless_flag": null,
   "status": "active"
  },
  {
   "rk_id": "rk_pub_00247",
   "name": "都そば 長瀬店",
   "name_en": "Miyako Soba Nagase Ten",
   "pref": "大阪府",
   "pref_en": "Osaka",
   "city": "東大阪市",
   "city_en": "Higashiosaka Shi",
   "lat": 34.650295,
   "lng": 135.577744,
   "keito": [],
   "genre": "ramen",
   "cash_only_flag": null,
   "payment_qr_accepted": null,
   "stationless_flag": null,
   "status": "active"
  },
  {
   "rk_id": "rk_pub_00248",
   "name": "麺酒屋 GUNS",
   "name_en": "Men Sakaya Guns",
   "pref": "大阪府",
   "pref_en": "Osaka",
   "city": "松原市",
   "city_en": "Matsubara Shi",
   "lat": 34.586376,
   "lng": 135.537903,
   "keito": [],
   "genre": "ramen",
   "cash_only_flag": null,
   "payment_qr_accepted": null,
   "stationless_flag": null,
   "status": "active"
  },
  {
   "rk_id": "rk_pub_00249",
   "name": "東京油組総本店 枚方組",
   "name_en": "Tokyo Aburagumi Sohonten",
   "pref": "大阪府",
   "pref_en": "Osaka",
   "city": "枚方市",
   "city_en": "Hirakata Shi",
   "lat": 34.815609,
   "lng": 135.647583,
   "keito": [
    "other"
   ],
   "genre": "ramen",
   "cash_only_flag": null,
   "payment_qr_accepted": null,
   "stationless_flag": null,
   "status": "active"
  },
  {
   "rk_id": "rk_pub_00250",
   "name": "小陽春 りんくうシークル店",
   "name_en": "Shoyoshun Rinku Sicle Ten",
   "pref": "大阪府",
   "pref_en": "Osaka",
   "city": "泉佐野市",
   "city_en": "Izumisano Shi",
   "lat": 34.406223,
   "lng": 135.295151,
   "keito": [],
   "genre": "ramen",
   "cash_only_flag": null,
   "payment_qr_accepted": null,
   "stationless_flag": null,
   "status": "active"
  },
  {
   "rk_id": "rk_pub_00251",
   "name": "長浜ラーメン ごん太",
   "name_en": "Nagahama Ramen Gonta",
   "pref": "大阪府",
   "pref_en": "Osaka",
   "city": "羽曳野市",
   "city_en": "Habikino Shi",
   "lat": 34.548229,
   "lng": 135.602203,
   "keito": [
    "tonkotsu"
   ],
   "genre": "ramen",
   "cash_only_flag": null,
   "payment_qr_accepted": null,
   "stationless_flag": null,
   "status": "active"
  },
  {
   "rk_id": "rk_pub_00252",
   "name": "鶏そば 16",
   "name_en": "Tori Soba 16",
   "pref": "大阪府",
   "pref_en": "Osaka",
   "city": "茨木市",
   "city_en": "Ibaraki Shi",
   "lat": 34.819004,
   "lng": 135.573318,
   "keito": [],
   "genre": "ramen",
   "cash_only_flag": null,
   "payment_qr_accepted": null,
   "stationless_flag": null,
   "status": "active"
  },
  {
   "rk_id": "rk_pub_00253",
   "name": "ます",
   "name_en": "Masu",
   "pref": "大阪府",
   "pref_en": "Osaka",
   "city": "豊中市",
   "city_en": "Toyonaka Shi",
   "lat": 34.793568,
   "lng": 135.447449,
   "keito": [],
   "genre": "ramen",
   "cash_only_flag": null,
   "payment_qr_accepted": null,
   "stationless_flag": null,
   "status": "active"
  },
  {
   "rk_id": "rk_pub_00254",
   "name": "ラーメン男塾！！ 貝塚小瀬店",
   "name_en": "Ramen Otokojuku Kaizuka Oze Ten",
   "pref": "大阪府",
   "pref_en": "Osaka",
   "city": "貝塚市",
   "city_en": "Kaizuka Shi",
   "lat": 34.449024,
   "lng": 135.372574,
   "keito": [],
   "genre": "ramen",
   "cash_only_flag": null,
   "payment_qr_accepted": null,
   "stationless_flag": null,
   "status": "active"
  },
  {
   "rk_id": "rk_pub_00255",
   "name": "らーめん桜坂",
   "name_en": "Ramen Sakurazaka",
   "pref": "大阪府",
   "pref_en": "Osaka",
   "city": "高槻市",
   "city_en": "Takatsuki Shi",
   "lat": 34.848728,
   "lng": 135.620346,
   "keito": [],
   "genre": "ramen",
   "cash_only_flag": null,
   "payment_qr_accepted": null,
   "stationless_flag": null,
   "status": "active"
  },
  {
   "rk_id": "rk_pub_00256",
   "name": "麺場 田所商店 高槻店",
   "name_en": "Menba Tadokoro Shoten Takatsuki Ten",
   "pref": "大阪府",
   "pref_en": "Osaka",
   "city": "高槻市",
   "city_en": "Takatsuki Shi",
   "lat": 34.860027,
   "lng": 135.650574,
   "keito": [
    "miso"
   ],
   "genre": "ramen",
   "cash_only_flag": false,
   "payment_qr_accepted": null,
   "stationless_flag": null,
   "status": "active"
  },