{
 "_note": "REAL 1,000-row sample from the Japan Ramen Active Master (62,173 active). IDs are public masks (internal keys withheld). name_en/pref_en/city_en let you query fully in English. keito is the coarse public enum (tonkotsu/miso/shoyu/shio/tsukemen/spicy/other). payment_qr_accepted / stationless are enriched in the live API only. No canary records.",
 "_attribution": "Store facts observed from public web ramen listings; licensing-verified records from Japanese municipality open data (© municipality open data, CC BY). Derived values (keito, romanization, station distance) © gachi-tokusuru.com.",
 "schema_version": "1.2.0",
 "sample_count": 1000,
 "master_count": 62173,
 "shops": [
  {
   "rk_id": "rk_pub_00001",
   "name": "らーめん たべ亭",
   "name_en": "Ramen Tabetei",
   "pref": "三重県",
   "pref_en": "Mie",
   "city": "いなべ市",
   "city_en": "Inabe Shi",
   "lat": 35.150902,
   "lng": 136.510727,
   "keito": [],
   "genre": "ramen",
   "cash_only_flag": null,
   "payment_qr_accepted": null,
   "stationless_flag": null,
   "status": "active"
  },
  {
   "rk_id": "rk_pub_00002",
   "name": "ル・シノワ 花栞",
   "name_en": "Le Chinois Hana Shiori",
   "pref": "三重県",
   "pref_en": "Mie",
   "city": "伊勢市",
   "city_en": "Ise Shi",
   "lat": 34.507648,
   "lng": 136.780991,
   "keito": [],
   "genre": "ramen",
   "cash_only_flag": null,
   "payment_qr_accepted": null,
   "stationless_flag": null,
   "status": "active"
  },
  {
   "rk_id": "rk_pub_00003",
   "name": "ラーメン魁力屋東員店",
   "name_en": "Ramen Kairikiya Toin Ten",
   "pref": "三重県",
   "pref_en": "Mie",
   "city": "員弁郡東員町",
   "city_en": "Inabe Gun Toin Cho",
   "lat": 35.061817,
   "lng": 136.57991,
   "keito": [
    "shoyu"
   ],
   "genre": "ramen",
   "cash_only_flag": false,
   "payment_qr_accepted": null,
   "stationless_flag": null,
   "status": "active"
  },
  {
   "rk_id": "rk_pub_00004",
   "name": "尾鷲しおラーメン モクモクしお学舎",
   "name_en": "Owase Shio Ramen Mokumoku Shio Gakusha",
   "pref": "三重県",
   "pref_en": "Mie",
   "city": "四日市市",
   "city_en": "Yokkaichi Shi",
   "lat": 34.967522,
   "lng": 136.619492,
   "keito": [],
   "genre": "ramen",
   "cash_only_flag": null,
   "payment_qr_accepted": null,
   "stationless_flag": null,
   "status": "active"
  },
  {
   "rk_id": "rk_pub_00005",
   "name": "四日市きみちゃんらーめん塩浜街道店",
   "name_en": "Yokkaichi Kimi-chan Ramen Shiohama Kaido Ten",
   "pref": "三重県",
   "pref_en": "Mie",
   "city": "四日市市",
   "city_en": "Yokkaichi Shi",
   "lat": 34.930367,
   "lng": 136.625305,
   "keito": [],
   "genre": "ramen",
   "cash_only_flag": null,
   "payment_qr_accepted": null,
   "stationless_flag": null,
   "status": "active"
  },
  {
   "rk_id": "rk_pub_00006",
   "name": "おかげさん",
   "name_en": "Okagesan",
   "pref": "三重県",
   "pref_en": "Mie",
   "city": "松阪市",
   "city_en": "Matsusaka Shi",
   "lat": 34.491425,
   "lng": 136.441925,
   "keito": [],
   "genre": "ramen",
   "cash_only_flag": null,
   "payment_qr_accepted": null,
   "stationless_flag": null,
   "status": "active"
  },
  {
   "rk_id": "rk_pub_00007",
   "name": "摩天楼",
   "name_en": "Matenro",
   "pref": "三重県",
   "pref_en": "Mie",
   "city": "桑名市",
   "city_en": "Kuwana Shi",
   "lat": 35.072361,
   "lng": 136.62352,
   "keito": [],
   "genre": "ramen",
   "cash_only_flag": null,
   "payment_qr_accepted": null,
   "stationless_flag": null,
   "status": "active"
  },
  {
   "rk_id": "rk_pub_00008",
   "name": "浅屋",
   "name_en": "Asaya",
   "pref": "三重県",
   "pref_en": "Mie",
   "city": "津市",
   "city_en": "Tsu Shi",
   "lat": 34.75964,
   "lng": 136.505798,
   "keito": [],
   "genre": "ramen",
   "cash_only_flag": null,
   "payment_qr_accepted": null,
   "stationless_flag": null,
   "status": "active"
  },
  {
   "rk_id": "rk_pub_00009",
   "name": "天然温泉 けやきの湯 ドーミーイン津",
   "name_en": "Tennen Onsen Keyaki no Yu Dormy Inn Tsu",
   "pref": "三重県",
   "pref_en": "Mie",
   "city": "津市",
   "city_en": "Tsu Shi",
   "lat": 34.733192,
   "lng": 136.511536,
   "keito": [],
   "genre": "ramen",
   "cash_only_flag": null,
   "payment_qr_accepted": null,
   "stationless_flag": null,
   "status": "active"
  },
  {
   "rk_id": "rk_pub_00010",
   "name": "めん六や 三重鈴鹿店",
   "name_en": "Men Roku Ya Mie Suzuka Ten",
   "pref": "三重県",
   "pref_en": "Mie",
   "city": "鈴鹿市",
   "city_en": "Suzuka Shi",
   "lat": 34.874336,
   "lng": 136.552277,
   "keito": [],
   "genre": "ramen",
   "cash_only_flag": null,
   "payment_qr_accepted": null,
   "stationless_flag": null,
   "status": "active"
  },
  {
   "rk_id": "rk_pub_00011",
   "name": "裏でやって創",
   "name_en": "Ura de Yatte So",
   "pref": "三重県",
   "pref_en": "Mie",
   "city": "鳥羽市",
   "city_en": "Toba Shi",
   "lat": 34.481789,
   "lng": 136.842484,
   "keito": [],
   "genre": "ramen",
   "cash_only_flag": null,
   "payment_qr_accepted": null,
   "stationless_flag": null,
   "status": "active"
  },
  {
   "rk_id": "rk_pub_00012",
   "name": "お食事処 いのうえ",
   "name_en": "Oshokujidokoro Inoue",
   "pref": "京都府",
   "pref_en": "Kyoto",
   "city": "京都市上京区",
   "city_en": "Kyoto Shi Kamigyo Ku",
   "lat": 35.025959,
   "lng": 135.734589,
   "keito": [],
   "genre": "ramen",
   "cash_only_flag": null,
   "payment_qr_accepted": null,
   "stationless_flag": null,
   "status": "active"
  },
  {
   "rk_id": "rk_pub_00013",
   "name": "京都ラーメン きんざん 本店",
   "name_en": "Kyoto Ramen Kinzan Honten",
   "pref": "京都府",
   "pref_en": "Kyoto",
   "city": "京都市下京区",
   "city_en": "Kyoto Shi Shimogyo Ku",
   "lat": 34.989094,
   "lng": 135.730301,
   "keito": [],
   "genre": "ramen",
   "cash_only_flag": null,
   "payment_qr_accepted": null,
   "stationless_flag": null,
   "status": "active"
  },
  {
   "rk_id": "rk_pub_00014",
   "name": "ラーメン魁力屋 四条烏丸店",
   "name_en": "Ramen Kairikiya Shijokarasuma Ten",
   "pref": "京都府",
   "pref_en": "Kyoto",
   "city": "京都市中京区",
   "city_en": "Kyoto Shi Nakagyo Ku",
   "lat": 35.004517,
   "lng": 135.761276,
   "keito": [
    "shoyu"
   ],
   "genre": "ramen",
   "cash_only_flag": false,
   "payment_qr_accepted": null,
   "stationless_flag": null,
   "status": "active"
  },
  {
   "rk_id": "rk_pub_00015",
   "name": "Vegan Ramen UZU KYOTO",
   "name_en": "Vegan Ramen UZU KYOTO",
   "pref": "京都府",
   "pref_en": "Kyoto",
   "city": "京都市中京区",
   "city_en": "Kyoto Shi Nakagyo Ku",
   "lat": 35.015038,
   "lng": 135.768112,
   "keito": [],
   "genre": "ramen",
   "cash_only_flag": null,
   "payment_qr_accepted": null,
   "stationless_flag": null,
   "status": "active"
  },
  {
   "rk_id": "rk_pub_00016",
   "name": "ラーメン 横綱 醍醐店",
   "name_en": "Ramen Yokozuna Daigo Ten",
   "pref": "京都府",
   "pref_en": "Kyoto",
   "city": "京都市伏見区",
   "city_en": "Kyoto Shi Fushimi Ku",
   "lat": 34.954636,
   "lng": 135.811356,
   "keito": [],
   "genre": "ramen",
   "cash_only_flag": null,
   "payment_qr_accepted": null,
   "stationless_flag": null,
   "status": "active"
  },
  {
   "rk_id": "rk_pub_00017",
   "name": "京都醍醐 魂心家",
   "name_en": "Kyoto Daigo Konshinya",
   "pref": "京都府",
   "pref_en": "Kyoto",
   "city": "京都市伏見区",
   "city_en": "Kyoto Shi Fushimi Ku",
   "lat": 34.954887,
   "lng": 135.812332,
   "keito": [
    "tonkotsu"
   ],
   "genre": "ramen",
   "cash_only_flag": null,
   "payment_qr_accepted": null,
   "stationless_flag": null,
   "status": "active"
  },
  {
   "rk_id": "rk_pub_00018",
   "name": "ラーメン 横綱 吉祥院本店",
   "name_en": "Ramen Yokozuna Kisshoin Honten",
   "pref": "京都府",
   "pref_en": "Kyoto",
   "city": "京都市南区",
   "city_en": "Kyoto Shi Minami Ku",
   "lat": 34.971054,
   "lng": 135.727509,
   "keito": [],
   "genre": "ramen",
   "cash_only_flag": null,
   "payment_qr_accepted": null,
   "stationless_flag": null,
   "status": "active"
  },
  {
   "rk_id": "rk_pub_00019",
   "name": "来来亭 太秦店",
   "name_en": "Rairaitei Uzumasa Ten",
   "pref": "京都府",
   "pref_en": "Kyoto",
   "city": "京都市右京区",
   "city_en": "Kyoto Shi Ukyo Ku",
   "lat": 35.020794,
   "lng": 135.698395,
   "keito": [
    "shoyu"
   ],
   "genre": "ramen",
   "cash_only_flag": null,
   "payment_qr_accepted": null,
   "stationless_flag": null,
   "status": "active"
  },
  {
   "rk_id": "rk_pub_00020",
   "name": "餃子の朝日",
   "name_en": "Gyoza No Asahi",
   "pref": "京都府",
   "pref_en": "Kyoto",
   "city": "京都市山科区",
   "city_en": "Kyoto Shi Yamashina Ku",
   "lat": 34.989273,
   "lng": 135.811783,
   "keito": [],
   "genre": "chinese",
   "cash_only_flag": null,
   "payment_qr_accepted": null,
   "stationless_flag": null,
   "status": "active"
  },
  {
   "rk_id": "rk_pub_00021",
   "name": "中国料理 東北家",
   "name_en": "Chugoku Ryori Tohokuya",
   "pref": "京都府",
   "pref_en": "Kyoto",
   "city": "京都市左京区",
   "city_en": "Kyoto Shi Sakyo Ku",
   "lat": 35.017654,
   "lng": 135.774612,
   "keito": [
    "tonkotsu"
   ],
   "genre": "chinese",
   "cash_only_flag": null,
   "payment_qr_accepted": null,
   "stationless_flag": null,
   "status": "active"
  },
  {
   "rk_id": "rk_pub_00022",
   "name": "油そば 味の天徳 京都祇園店",
   "name_en": "Abura Soba Aji No Tentoku Kyoto Gion Ten",
   "pref": "京都府",
   "pref_en": "Kyoto",
   "city": "京都市東山区",
   "city_en": "Kyoto Shi Higashiyama Ku",
   "lat": 35.00478,
   "lng": 135.775681,
   "keito": [
    "other"
   ],
   "genre": "ramen",
   "cash_only_flag": null,
   "payment_qr_accepted": null,
   "stationless_flag": null,
   "status": "active"
  },
  {
   "rk_id": "rk_pub_00023",
   "name": "うどん食堂 太鼓亭 京都向日店",
   "name_en": "Udon Shokudo Taiko Tei Kyoto Muko Ten",
   "pref": "京都府",
   "pref_en": "Kyoto",
   "city": "向日市",
   "city_en": "Muko Shi",
   "lat": 34.947243,
   "lng": 135.715744,
   "keito": [],
   "genre": "noodle",
   "cash_only_flag": null,
   "payment_qr_accepted": null,
   "stationless_flag": null,
   "status": "active"
  },
  {
   "rk_id": "rk_pub_00024",
   "name": "とん吉",
   "name_en": "Tonkichi",
   "pref": "京都府",
   "pref_en": "Kyoto",
   "city": "福知山市",
   "city_en": "Fukuchiyama Shi",
   "lat": 35.285549,
   "lng": 135.118851,
   "keito": [],
   "genre": "ramen",
   "cash_only_flag": null,
   "payment_qr_accepted": null,
   "stationless_flag": null,
   "status": "active"
  },
  {
   "rk_id": "rk_pub_00025",
   "name": "お食事処 わかたけ",
   "name_en": "Oshokujidokoro Wakatake",
   "pref": "京都府",
   "pref_en": "Kyoto",
   "city": "長岡京市",
   "city_en": "Nagaokakyo Shi",
   "lat": 34.926075,
   "lng": 135.69281,
   "keito": [],
   "genre": "ramen",
   "cash_only_flag": null,
   "payment_qr_accepted": null,
   "stationless_flag": null,
   "status": "active"
  },
  {
   "rk_id": "rk_pub_00026",
   "name": "ラーメン蘭蘭",
   "name_en": "Ramen Ran Ran",
   "pref": "佐賀県",
   "pref_en": "Saga",
   "city": "佐賀市",
   "city_en": "Saga Shi",
   "lat": 33.26289,
   "lng": 130.300171,
   "keito": [],
   "genre": "ramen",
   "cash_only_flag": null,
   "payment_qr_accepted": null,
   "stationless_flag": null,
   "status": "active"
  },
  {
   "rk_id": "rk_pub_00027",
   "name": "中華そば ぜんぜん",
   "name_en": "Chuka Soba Zenzen",
   "pref": "佐賀県",
   "pref_en": "Saga",
   "city": "佐賀市",
   "city_en": "Saga Shi",
   "lat": 33.257187,
   "lng": 130.315872,
   "keito": [
    "shoyu"
   ],
   "genre": "ramen",
   "cash_only_flag": null,
   "payment_qr_accepted": null,
   "stationless_flag": null,
   "status": "active"
  },
  {
   "rk_id": "rk_pub_00028",
   "name": "須彌亭",
   "name_en": "Shumitei",
   "pref": "佐賀県",
   "pref_en": "Saga",
   "city": "杵島郡江北町",
   "city_en": "Kishima Gun Kohoku Machi",
   "lat": 33.211636,
   "lng": 130.168427,
   "keito": [],
   "genre": "ramen",
   "cash_only_flag": null,
   "payment_qr_accepted": null,
   "stationless_flag": null,
   "status": "active"
  },
  {
   "rk_id": "rk_pub_00029",
   "name": "丸真ラーメン",
   "name_en": "Marushin Ramen",
   "pref": "佐賀県",
   "pref_en": "Saga",
   "city": "鳥栖市",
   "city_en": "Tosu Shi",
   "lat": 33.363605,
   "lng": 130.515793,
   "keito": [],
   "genre": "ramen",
   "cash_only_flag": null,
   "payment_qr_accepted": null,
   "stationless_flag": null,
   "status": "active"
  },
  {
   "rk_id": "rk_pub_00030",
   "name": "熟成豚骨ラーメン専門 一番軒 三田店",
   "name_en": "Jukusei Tonkotsu Ramen Senmon Ichibanken Mita Ten",
   "pref": "兵庫県",
   "pref_en": "Hyogo",
   "city": "三田市",
   "city_en": "Sanda Shi",
   "lat": 34.876713,
   "lng": 135.22406,
   "keito": [
    "tonkotsu"
   ],
   "genre": "ramen",
   "cash_only_flag": null,
   "payment_qr_accepted": null,
   "stationless_flag": null,
   "status": "active"
  },
  {
   "rk_id": "rk_pub_00031",
   "name": "麺道 しゅはり 伊丹店",
   "name_en": "Mendo Shuhari Itami Ten",
   "pref": "兵庫県",
   "pref_en": "Hyogo",
   "city": "伊丹市",
   "city_en": "Itami Shi",
   "lat": 34.783157,
   "lng": 135.398483,
   "keito": [],
   "genre": "ramen",
   "cash_only_flag": null,
   "payment_qr_accepted": null,
   "stationless_flag": null,
   "status": "active"
  },
  {
   "rk_id": "rk_pub_00032",
   "name": "からみそラーメン ふくろう 加古川店",
   "name_en": "Karamiso Ramen Fukuro Kakogawa Ten",
   "pref": "兵庫県",
   "pref_en": "Hyogo",
   "city": "加古川市",
   "city_en": "Kakogawa Shi",
   "lat": 34.747505,
   "lng": 134.834854,
   "keito": [
    "miso"
   ],
   "genre": "ramen",
   "cash_only_flag": null,
   "payment_qr_accepted": null,
   "stationless_flag": null,
   "status": "active"
  },
  {
   "rk_id": "rk_pub_00033",
   "name": "拝啓",
   "name_en": "Haikei",
   "pref": "兵庫県",
   "pref_en": "Hyogo",
   "city": "姫路市",
   "city_en": "Himeji Shi",
   "lat": 34.835873,
   "lng": 134.687363,
   "keito": [],
   "genre": "ramen",
   "cash_only_flag": null,
   "payment_qr_accepted": null,
   "stationless_flag": null,
   "status": "active"
  },
  {
   "rk_id": "rk_pub_00034",
   "name": "餃子の王将 ビエラ姫路駅東口店",
   "name_en": "Gyoza No Osho Viera Himejieki Higashiguchi Ten",
   "pref": "兵庫県",
   "pref_en": "Hyogo",
   "city": "姫路市",
   "city_en": "Himeji Shi",
   "lat": 34.826347,
   "lng": 134.690079,
   "keito": [],
   "genre": "chinese",
   "cash_only_flag": null,
   "payment_qr_accepted": null,
   "stationless_flag": null,
   "status": "active"
  },
  {
   "rk_id": "rk_pub_00035",
   "name": "上州亭 飾磨本店",
   "name_en": "Joshu Tei Shikama Honten",
   "pref": "兵庫県",
   "pref_en": "Hyogo",
   "city": "姫路市飾磨区",
   "city_en": "Himeji Shi Shikama Ku",
   "lat": 34.803978,
   "lng": 134.674759,
   "keito": [],
   "genre": "ramen",
   "cash_only_flag": null,
   "payment_qr_accepted": null,
   "stationless_flag": null,
   "status": "active"
  },
  {
   "rk_id": "rk_pub_00036",
   "name": "博多ラーメンげんこつ 杭瀬店",
   "name_en": "Hakata Ramen Genkotsu Kuise Ten",
   "pref": "兵庫県",
   "pref_en": "Hyogo",
   "city": "尼崎市",
   "city_en": "Amagasaki Shi",
   "lat": 34.719723,
   "lng": 135.430344,
   "keito": [
    "tonkotsu"
   ],
   "genre": "ramen",
   "cash_only_flag": null,
   "payment_qr_accepted": null,
   "stationless_flag": null,
   "status": "active"
  },
  {
   "rk_id": "rk_pub_00037",
   "name": "麺屋 Smile",
   "name_en": "Menya Smile",
   "pref": "兵庫県",
   "pref_en": "Hyogo",
   "city": "尼崎市",
   "city_en": "Amagasaki Shi",
   "lat": 34.756588,
   "lng": 135.446045,
   "keito": [],
   "genre": "ramen",
   "cash_only_flag": null,
   "payment_qr_accepted": null,
   "stationless_flag": null,
   "status": "active"
  },
  {
   "rk_id": "rk_pub_00038",
   "name": "神戸ちぇりー亭 明石魚住店",
   "name_en": "Kobe Cheri Tei Akashi Uozumi Ten",
   "pref": "兵庫県",
   "pref_en": "Hyogo",
   "city": "明石市",
   "city_en": "Akashi Shi",
   "lat": 34.701275,
   "lng": 134.910095,
   "keito": [],
   "genre": "ramen",
   "cash_only_flag": null,
   "payment_qr_accepted": null,
   "stationless_flag": null,
   "status": "active"
  },
  {
   "rk_id": "rk_pub_00039",
   "name": "お食事処 浜ちどり",
   "name_en": "Oshokuji Dokoro Hamachidori",
   "pref": "兵庫県",
   "pref_en": "Hyogo",
   "city": "淡路市",
   "city_en": "Awaji Shi",
   "lat": 34.590107,
   "lng": 135.020096,
   "keito": [],
   "genre": "ramen",
   "cash_only_flag": null,
   "payment_qr_accepted": null,
   "stationless_flag": null,
   "status": "active"
  },
  {
   "rk_id": "rk_pub_00040",
   "name": "新愛園",
   "name_en": "Shinaien",
   "pref": "兵庫県",
   "pref_en": "Hyogo",
   "city": "神戸市中央区",
   "city_en": "Kobe Shi Chuo Ku",
   "lat": 34.691364,
   "lng": 135.188751,
   "keito": [],
   "genre": "ramen",
   "cash_only_flag": null,
   "payment_qr_accepted": null,
   "stationless_flag": null,
   "status": "active"
  },
  {
   "rk_id": "rk_pub_00041",
   "name": "三豊麺 プロメナ神戸店",
   "name_en": "Mitoyomen Promena Kobe Ten",
   "pref": "兵庫県",
   "pref_en": "Hyogo",
   "city": "神戸市中央区",
   "city_en": "Kobe Shi Chuo Ku",
   "lat": 34.680454,
   "lng": 135.181808,
   "keito": [],
   "genre": "ramen",
   "cash_only_flag": false,
   "payment_qr_accepted": null,
   "stationless_flag": null,
   "status": "active"
  },
  {
   "rk_id": "rk_pub_00042",
   "name": "中華料理 好味園 三宮店",
   "name_en": "Chukaryori Komien Sannomiya Ten",
   "pref": "兵庫県",
   "pref_en": "Hyogo",
   "city": "神戸市中央区",
   "city_en": "Kobe Shi Chuo Ku",
   "lat": 34.691025,
   "lng": 135.19223,
   "keito": [],
   "genre": "chinese",
   "cash_only_flag": null,
   "payment_qr_accepted": null,
   "stationless_flag": null,
   "status": "active"
  },
  {
   "rk_id": "rk_pub_00043",
   "name": "BUTAKIN 神戸元町店",
   "name_en": "Butakin Kobe Motomachi Ten",
   "pref": "兵庫県",
   "pref_en": "Hyogo",
   "city": "神戸市中央区",
   "city_en": "Kobe Shi Chuo Ku",
   "lat": 34.68961,
   "lng": 135.188095,
   "keito": [],
   "genre": "ramen",
   "cash_only_flag": null,
   "payment_qr_accepted": null,
   "stationless_flag": null,
   "status": "active"
  },
  {
   "rk_id": "rk_pub_00044",
   "name": "好再来",
   "name_en": "Kosairai",
   "pref": "兵庫県",
   "pref_en": "Hyogo",
   "city": "神戸市兵庫区",
   "city_en": "Kobe Shi Hyogo Ku",
   "lat": 34.677616,
   "lng": 135.170853,
   "keito": [],
   "genre": "ramen",
   "cash_only_flag": null,
   "payment_qr_accepted": null,
   "stationless_flag": null,
   "status": "active"
  },
  {
   "rk_id": "rk_pub_00045",
   "name": "山神山人 岡本店",
   "name_en": "Sanshin Sanjin Okamoto Ten",
   "pref": "兵庫県",
   "pref_en": "Hyogo",
   "city": "神戸市東灘区",
   "city_en": "Kobe Shi Higashinada Ku",
   "lat": 34.72794,
   "lng": 135.278,
   "keito": [],
   "genre": "ramen",
   "cash_only_flag": null,
   "payment_qr_accepted": null,
   "stationless_flag": null,
   "status": "active"
  },
  {
   "rk_id": "rk_pub_00046",
   "name": "麺屋ダイニング 中華そば なおや",
   "name_en": "Menya Dainingu Chuka Soba Naoya",
   "pref": "兵庫県",
   "pref_en": "Hyogo",
   "city": "神戸市灘区",
   "city_en": "Kobe Shi Nada Ku",
   "lat": 34.71418,
   "lng": 135.237015,
   "keito": [
    "shoyu"
   ],
   "genre": "ramen",
   "cash_only_flag": null,
   "payment_qr_accepted": null,
   "stationless_flag": null,
   "status": "active"
  },
  {
   "rk_id": "rk_pub_00047",
   "name": "六寶",
   "name_en": "Roppo",
   "pref": "兵庫県",
   "pref_en": "Hyogo",
   "city": "神戸市西区",
   "city_en": "Kobe Shi Nishi Ku",
   "lat": 34.679245,
   "lng": 134.983032,
   "keito": [],
   "genre": "ramen",
   "cash_only_flag": null,
   "payment_qr_accepted": null,
   "stationless_flag": null,
   "status": "active"
  },
  {
   "rk_id": "rk_pub_00048",
   "name": "芦屋らーめん庵 本店",
   "name_en": "Ashiya Ramen An Honten",
   "pref": "兵庫県",
   "pref_en": "Hyogo",
   "city": "芦屋市",
   "city_en": "Ashiya Shi",
   "lat": 34.732857,
   "lng": 135.309708,
   "keito": [],
   "genre": "ramen",
   "cash_only_flag": null,
   "payment_qr_accepted": null,
   "stationless_flag": null,
   "status": "active"
  },
  {
   "rk_id": "rk_pub_00049",
   "name": "NOODLE HOUSE らみょん",
   "name_en": "NOODLE HOUSE Ramyon",
   "pref": "兵庫県",
   "pref_en": "Hyogo",
   "city": "西宮市",
   "city_en": "Nishinomiya Shi",
   "lat": 34.74025,
   "lng": 135.340698,
   "keito": [],
   "genre": "ramen",
   "cash_only_flag": null,
   "payment_qr_accepted": null,
   "stationless_flag": null,
   "status": "active"
  },
  {
   "rk_id": "rk_pub_00050",
   "name": "餃子の王将 豊岡店",
   "name_en": "Gyoza No Osho Toyooka Ten",
   "pref": "兵庫県",
   "pref_en": "Hyogo",
   "city": "豊岡市",
   "city_en": "Toyoka Shi",
   "lat": 35.551212,
   "lng": 134.808578,
   "keito": [],
   "genre": "chinese",
   "cash_only_flag": null,
   "payment_qr_accepted": null,
   "stationless_flag": null,
   "status": "active"
  },
  {
   "rk_id": "rk_pub_00051",
   "name": "ラーメンハウス 登山軒",
   "name_en": "Ramen Hausu Tozanken",
   "pref": "北海道",
   "pref_en": "Hokkaido",
   "city": "上川郡上川町",
   "city_en": "Kamikawa Gun Kamikawa Cho",
   "lat": 43.65868,
   "lng": 143.035294,
   "keito": [],
   "genre": "ramen",
   "cash_only_flag": null,
   "payment_qr_accepted": null,
   "stationless_flag": null,
   "status": "active"
  },
  {
   "rk_id": "rk_pub_00052",
   "name": "まるみ食堂",
   "name_en": "Marumi Shokudo",
   "pref": "北海道",
   "pref_en": "Hokkaido",
   "city": "二海郡八雲町",
   "city_en": "Futami Gun Yakumo Cho",
   "lat": 42.253262,
   "lng": 140.274292,
   "keito": [],
   "genre": "ramen",
   "cash_only_flag": null,
   "payment_qr_accepted": null,
   "stationless_flag": null,
   "status": "active"
  },
  {
   "rk_id": "rk_pub_00053",
   "name": "にしん亭",
   "name_en": "Nishintei",
   "pref": "北海道",
   "pref_en": "Hokkaido",
   "city": "函館市",
   "city_en": "Hakodate Shi",
   "lat": 41.772263,
   "lng": 140.726791,
   "keito": [],
   "genre": "ramen",
   "cash_only_flag": null,
   "payment_qr_accepted": null,
   "stationless_flag": null,
   "status": "active"
  },
  {
   "rk_id": "rk_pub_00054",
   "name": "ブルートレイン",
   "name_en": "Blue Train",
   "pref": "北海道",
   "pref_en": "Hokkaido",
   "city": "函館市",
   "city_en": "Hakodate Shi",
   "lat": 41.780468,
   "lng": 140.784348,
   "keito": [],
   "genre": "ramen",
   "cash_only_flag": null,
   "payment_qr_accepted": null,
   "stationless_flag": null,
   "status": "active"
  },
  {
   "rk_id": "rk_pub_00055",
   "name": "翼餃子",
   "name_en": "Tsubasa Gyoza",
   "pref": "北海道",
   "pref_en": "Hokkaido",
   "city": "函館市",
   "city_en": "Hakodate Shi",
   "lat": 41.814419,
   "lng": 140.758881,
   "keito": [],
   "genre": "chinese",
   "cash_only_flag": null,
   "payment_qr_accepted": null,
   "stationless_flag": null,
   "status": "active"
  },
  {
   "rk_id": "rk_pub_00056",
   "name": "サミャン",
   "name_en": "Samyan",
   "pref": "北海道",
   "pref_en": "Hokkaido",
   "city": "北斗市",
   "city_en": "Hokuto Shi",
   "lat": 41.823654,
   "lng": 140.663391,
   "keito": [],
   "genre": "ramen",
   "cash_only_flag": null,
   "payment_qr_accepted": null,
   "stationless_flag": null,
   "status": "active"
  },
  {
   "rk_id": "rk_pub_00057",
   "name": "あおやま亭",
   "name_en": "Aoyamatei",
   "pref": "北海道",
   "pref_en": "Hokkaido",
   "city": "北見市",
   "city_en": "Kitami Shi",
   "lat": 43.784058,
   "lng": 143.611115,
   "keito": [],
   "genre": "ramen",
   "cash_only_flag": null,
   "payment_qr_accepted": null,
   "stationless_flag": null,
   "status": "active"
  },
  {
   "rk_id": "rk_pub_00058",
   "name": "札幌ラーメン 北斎 千歳店",
   "name_en": "Sapporo Ramen Hokusai Chitose Ten",
   "pref": "北海道",
   "pref_en": "Hokkaido",
   "city": "千歳市",
   "city_en": "Chitose Shi",
   "lat": 42.822517,
   "lng": 141.647552,
   "keito": [
    "miso"
   ],
   "genre": "ramen",
   "cash_only_flag": null,
   "payment_qr_accepted": null,
   "stationless_flag": null,
   "status": "active"
  },
  {
   "rk_id": "rk_pub_00059",
   "name": "華龍 白石亭",
   "name_en": "Karyu Shiraishitei",
   "pref": "北海道",
   "pref_en": "Hokkaido",
   "city": "夕張郡長沼町",
   "city_en": "Yubari Gun Naganuma Cho",
   "lat": 43.00864,
   "lng": 141.696899,
   "keito": [],
   "genre": "ramen",
   "cash_only_flag": null,
   "payment_qr_accepted": null,
   "stationless_flag": null,
   "status": "active"
  },
  {
   "rk_id": "rk_pub_00060",
   "name": "山香食堂",
   "name_en": "Yamaga Shokudo",
   "pref": "北海道",
   "pref_en": "Hokkaido",
   "city": "富良野市",
   "city_en": "Furano Shi",
   "lat": 43.334896,
   "lng": 142.395966,
   "keito": [],
   "genre": "ramen",
   "cash_only_flag": null,
   "payment_qr_accepted": null,
   "stationless_flag": null,
   "status": "active"
  },
  {
   "rk_id": "rk_pub_00061",
   "name": "右衛門",
   "name_en": "Uemon",
   "pref": "北海道",
   "pref_en": "Hokkaido",
   "city": "小樽市",
   "city_en": "Otaru Shi",
   "lat": 43.191174,
   "lng": 140.999878,
   "keito": [],
   "genre": "ramen",
   "cash_only_flag": null,
   "payment_qr_accepted": null,
   "stationless_flag": null,
   "status": "active"
  },
  {
   "rk_id": "rk_pub_00062",
   "name": "あげ富 本店",
   "name_en": "Age Tomi Honten",
   "pref": "北海道",
   "pref_en": "Hokkaido",
   "city": "川上郡標茶町",
   "city_en": "Kawakami Gun Shibecha Cho",
   "lat": 43.295406,
   "lng": 144.605789,
   "keito": [],
   "genre": "ramen",
   "cash_only_flag": null,
   "payment_qr_accepted": null,
   "stationless_flag": null,
   "status": "active"
  },
  {
   "rk_id": "rk_pub_00063",
   "name": "HACHIDORI",
   "name_en": "HACHIDORI",
   "pref": "北海道",
   "pref_en": "Hokkaido",
   "city": "帯広市",
   "city_en": "Obihiro Shi",
   "lat": 42.927219,
   "lng": 143.128403,
   "keito": [],
   "genre": "ramen",
   "cash_only_flag": null,
   "payment_qr_accepted": null,
   "stationless_flag": null,
   "status": "active"
  },
  {
   "rk_id": "rk_pub_00064",
   "name": "帯広担々麺専門店 破顔一笑",
   "name_en": "Obihiro Tantanmen Senmonten Hagan Issho",
   "pref": "北海道",
   "pref_en": "Hokkaido",
   "city": "帯広市",
   "city_en": "Obihiro Shi",
   "lat": 42.936062,
   "lng": 143.179352,
   "keito": [
    "spicy"
   ],
   "genre": "ramen",
   "cash_only_flag": null,
   "payment_qr_accepted": null,
   "stationless_flag": null,
   "status": "active"
  },
  {
   "rk_id": "rk_pub_00065",
   "name": "らーめん 山頭火 旭川ラーメン村店",
   "name_en": "Ramen Santoka Asahikawa Ramen Mura Ten",
   "pref": "北海道",
   "pref_en": "Hokkaido",
   "city": "旭川市",
   "city_en": "Asahikawa Shi",
   "lat": 43.781883,
   "lng": 142.413589,
   "keito": [
    "miso"
   ],
   "genre": "ramen",
   "cash_only_flag": null,
   "payment_qr_accepted": null,
   "stationless_flag": null,
   "status": "active"
  },
  {
   "rk_id": "rk_pub_00066",
   "name": "麺屋 夢",
   "name_en": "Menya Yume",
   "pref": "北海道",
   "pref_en": "Hokkaido",
   "city": "旭川市",
   "city_en": "Asahikawa Shi",
   "lat": 43.769562,
   "lng": 142.40683,
   "keito": [],
   "genre": "ramen",
   "cash_only_flag": null,
   "payment_qr_accepted": null,
   "stationless_flag": null,
   "status": "active"
  },
  {
   "rk_id": "rk_pub_00067",
   "name": "ごはんどき 旭川永山店",
   "name_en": "Gohandoki Asahikawa Nagayama Ten",
   "pref": "北海道",
   "pref_en": "Hokkaido",
   "city": "旭川市",
   "city_en": "Asahikawa Shi",
   "lat": 43.804813,
   "lng": 142.423477,
   "keito": [],
   "genre": "ramen",
   "cash_only_flag": null,
   "payment_qr_accepted": null,
   "stationless_flag": null,
   "status": "active"
  },
  {
   "rk_id": "rk_pub_00068",
   "name": "みそラーメン専門 山崎商店",
   "name_en": "Miso Ramen Senmon Yamazaki Shoten",
   "pref": "北海道",
   "pref_en": "Hokkaido",
   "city": "旭川市",
   "city_en": "Asahikawa Shi",
   "lat": 43.782837,
   "lng": 142.337021,
   "keito": [
    "miso"
   ],
   "genre": "ramen",
   "cash_only_flag": null,
   "payment_qr_accepted": null,
   "stationless_flag": null,
   "status": "active"
  },
  {
   "rk_id": "rk_pub_00069",
   "name": "ファミリーレストラン りっか亭",
   "name_en": "Famirii Resutoran Rikkatei",
   "pref": "北海道",
   "pref_en": "Hokkaido",
   "city": "旭川市",
   "city_en": "Asahikawa Shi",
   "lat": 43.772606,
   "lng": 142.357056,
   "keito": [],
   "genre": "ramen",
   "cash_only_flag": null,
   "payment_qr_accepted": null,
   "stationless_flag": null,
   "status": "active"
  },
  {
   "rk_id": "rk_pub_00070",
   "name": "山嵐黒虎",
   "name_en": "Yamaarashi Kokko",
   "pref": "北海道",
   "pref_en": "Hokkaido",
   "city": "札幌市中央区",
   "city_en": "Sapporo Shi Chuo Ku",
   "lat": 43.057465,
   "lng": 141.356567,
   "keito": [],
   "genre": "ramen",
   "cash_only_flag": null,
   "payment_qr_accepted": null,
   "stationless_flag": null,
   "status": "active"
  },
  {
   "rk_id": "rk_pub_00071",
   "name": "二代目 萬来軒",
   "name_en": "Nidaime Banraiken",
   "pref": "北海道",
   "pref_en": "Hokkaido",
   "city": "札幌市中央区",
   "city_en": "Sapporo Shi Chuo Ku",
   "lat": 43.054253,
   "lng": 141.354477,
   "keito": [],
   "genre": "ramen",
   "cash_only_flag": null,
   "payment_qr_accepted": null,
   "stationless_flag": null,
   "status": "active"
  },
  {
   "rk_id": "rk_pub_00072",
   "name": "札幌ラーメンショー2018",
   "name_en": "Sapporo Ramensho 2018",
   "pref": "北海道",
   "pref_en": "Hokkaido",
   "city": "札幌市中央区",
   "city_en": "Sapporo Shi Chuo Ku",
   "lat": 43.059574,
   "lng": 141.345062,
   "keito": [
    "miso"
   ],
   "genre": "ramen",
   "cash_only_flag": null,
   "payment_qr_accepted": null,
   "stationless_flag": null,
   "status": "active"
  },
  {
   "rk_id": "rk_pub_00073",
   "name": "CRAB GANG",
   "name_en": "CRAB GANG",
   "pref": "北海道",
   "pref_en": "Hokkaido",
   "city": "札幌市中央区",
   "city_en": "Sapporo Shi Chuo Ku",
   "lat": 43.052883,
   "lng": 141.353241,
   "keito": [],
   "genre": "ramen",
   "cash_only_flag": null,
   "payment_qr_accepted": null,
   "stationless_flag": null,
   "status": "active"
  },
  {
   "rk_id": "rk_pub_00074",
   "name": "シャケトロたろう ココノススキノ店",
   "name_en": "Shaketoro Taro Kokono Susukino Ten",
   "pref": "北海道",
   "pref_en": "Hokkaido",
   "city": "札幌市中央区",
   "city_en": "Sapporo Shi Chuo Ku",
   "lat": 43.055187,
   "lng": 141.352646,
   "keito": [],
   "genre": "ramen",
   "cash_only_flag": null,
   "payment_qr_accepted": null,
   "stationless_flag": null,
   "status": "active"
  },
  {
   "rk_id": "rk_pub_00075",
   "name": "175°DENO～担担麺～ 札幌北口店",
   "name_en": "175 Deno Tantan Men Sapporo Kitaguchi Ten",
   "pref": "北海道",
   "pref_en": "Hokkaido",
   "city": "札幌市北区",
   "city_en": "Sapporo Shi Kita Ku",
   "lat": 43.069229,
   "lng": 141.34906,
   "keito": [
    "spicy",
    "miso"
   ],
   "genre": "ramen",
   "cash_only_flag": null,
   "payment_qr_accepted": null,
   "stationless_flag": null,
   "status": "active"
  },
  {
   "rk_id": "rk_pub_00076",
   "name": "お酢屋食事処 GOEMON 八",
   "name_en": "Osuya Shokujidokoro GOEMON Hachi",
   "pref": "北海道",
   "pref_en": "Hokkaido",
   "city": "札幌市北区",
   "city_en": "Sapporo Shi Kita Ku",
   "lat": 43.142872,
   "lng": 141.358536,
   "keito": [],
   "genre": "ramen",
   "cash_only_flag": null,
   "payment_qr_accepted": null,
   "stationless_flag": null,
   "status": "active"
  },
  {
   "rk_id": "rk_pub_00077",
   "name": "麺屋 開高 新さっぽろ店",
   "name_en": "Men Ya Kaiko Shinsapporo Ten",
   "pref": "北海道",
   "pref_en": "Hokkaido",
   "city": "札幌市厚別区",
   "city_en": "Sapporo Shi Atsubetsu Ku",
   "lat": 43.038906,
   "lng": 141.471161,
   "keito": [],
   "genre": "ramen",
   "cash_only_flag": null,
   "payment_qr_accepted": null,
   "stationless_flag": null,
   "status": "active"
  },
  {
   "rk_id": "rk_pub_00078",
   "name": "金山PA（下り）スナックコーナー",
   "name_en": "Kanayama PA (Kudari) Snack Corner",
   "pref": "北海道",
   "pref_en": "Hokkaido",
   "city": "札幌市手稲区",
   "city_en": "Sapporo Shi Teine Ku",
   "lat": 43.125893,
   "lng": 141.211395,
   "keito": [],
   "genre": "ramen",
   "cash_only_flag": null,
   "payment_qr_accepted": null,
   "stationless_flag": null,
   "status": "active"
  },
  {
   "rk_id": "rk_pub_00079",
   "name": "らーめん専家 羅妃焚 新道店",
   "name_en": "Ramen Senya Rahitaki Shindo Ten",
   "pref": "北海道",
   "pref_en": "Hokkaido",
   "city": "札幌市東区",
   "city_en": "Sapporo Shi Higashi Ku",
   "lat": 43.105034,
   "lng": 141.371994,
   "keito": [
    "tonkotsu"
   ],
   "genre": "ramen",
   "cash_only_flag": null,
   "payment_qr_accepted": null,
   "stationless_flag": null,
   "status": "active"
  },
  {
   "rk_id": "rk_pub_00080",
   "name": "虎龍",
   "name_en": "Koryu",
   "pref": "北海道",
   "pref_en": "Hokkaido",
   "city": "札幌市東区",
   "city_en": "Sapporo Shi Higashi Ku",
   "lat": 43.104553,
   "lng": 141.350464,
   "keito": [],
   "genre": "ramen",
   "cash_only_flag": null,
   "payment_qr_accepted": null,
   "stationless_flag": null,
   "status": "active"
  },
  {
   "rk_id": "rk_pub_00081",
   "name": "味の時計台 南郷8丁目店",
   "name_en": "Ajino Tokeidai Nango 8 Chome Ten",
   "pref": "北海道",
   "pref_en": "Hokkaido",
   "city": "札幌市白石区",
   "city_en": "Sapporo Shi Shiroishi Ku",
   "lat": 43.040516,
   "lng": 141.41243,
   "keito": [
    "miso"
   ],
   "genre": "ramen",
   "cash_only_flag": false,
   "payment_qr_accepted": null,
   "stationless_flag": null,
   "status": "active"
  },
  {
   "rk_id": "rk_pub_00082",
   "name": "みそラーメン専門店 市琉",
   "name_en": "Miso Ramen Senmonten Shi Ryu",
   "pref": "北海道",
   "pref_en": "Hokkaido",
   "city": "札幌市白石区",
   "city_en": "Sapporo Shi Shiroishi Ku",
   "lat": 43.048595,
   "lng": 141.40976,
   "keito": [
    "miso"
   ],
   "genre": "ramen",
   "cash_only_flag": null,
   "payment_qr_accepted": null,
   "stationless_flag": null,
   "status": "active"
  },
  {
   "rk_id": "rk_pub_00083",
   "name": "札幌海老麺舎 本店",
   "name_en": "Sapporo Ebimensha Honten",
   "pref": "北海道",
   "pref_en": "Hokkaido",
   "city": "札幌市西区",
   "city_en": "Sapporo Shi Nishi Ku",
   "lat": 43.093208,
   "lng": 141.264938,
   "keito": [
    "miso"
   ],
   "genre": "ramen",
   "cash_only_flag": null,
   "payment_qr_accepted": null,
   "stationless_flag": null,
   "status": "active"
  },
  {
   "rk_id": "rk_pub_00084",
   "name": "中国料理 珠華飯店 平岸店",
   "name_en": "Chugoku Ryori Juka Hanten Hiragishi Ten",
   "pref": "北海道",
   "pref_en": "Hokkaido",
   "city": "札幌市豊平区",
   "city_en": "Sapporo Shi Toyohira Ku",
   "lat": 43.032959,
   "lng": 141.374725,
   "keito": [],
   "genre": "chinese",
   "cash_only_flag": null,
   "payment_qr_accepted": null,
   "stationless_flag": null,
   "status": "active"
  },
  {
   "rk_id": "rk_pub_00085",
   "name": "明月庵 田中屋",
   "name_en": "Meigetsuan Tanakaya",
   "pref": "北海道",
   "pref_en": "Hokkaido",
   "city": "枝幸郡中頓別町",
   "city_en": "Esashi Gun Nakatombetsu Cho",
   "lat": 44.972904,
   "lng": 142.293915,
   "keito": [],
   "genre": "ramen",
   "cash_only_flag": null,
   "payment_qr_accepted": null,
   "stationless_flag": null,
   "status": "active"
  },
  {
   "rk_id": "rk_pub_00086",
   "name": "らぁ麺 えべ郎",
   "name_en": "Ramen Ebero",
   "pref": "北海道",
   "pref_en": "Hokkaido",
   "city": "江別市",
   "city_en": "Ebetsu Shi",
   "lat": 43.091576,
   "lng": 141.523834,
   "keito": [],
   "genre": "ramen",
   "cash_only_flag": null,
   "payment_qr_accepted": null,
   "stationless_flag": null,
   "status": "active"
  },
  {
   "rk_id": "rk_pub_00087",
   "name": "ラーメン家族 元藤",
   "name_en": "Ramen Kazoku Motofuji",
   "pref": "北海道",
   "pref_en": "Hokkaido",
   "city": "河西郡芽室町",
   "city_en": "Kasai Gun Memuro Cho",
   "lat": 42.914261,
   "lng": 143.075256,
   "keito": [],
   "genre": "ramen",
   "cash_only_flag": null,
   "payment_qr_accepted": null,
   "stationless_flag": null,
   "status": "active"
  },
  {
   "rk_id": "rk_pub_00088",
   "name": "レストハウス理尾",
   "name_en": "Resutohausu Rio",
   "pref": "北海道",
   "pref_en": "Hokkaido",
   "city": "留萌郡小平町",
   "city_en": "Rumoi Gun Obira Cho",
   "lat": 44.000511,
   "lng": 141.666534,
   "keito": [],
   "genre": "ramen",
   "cash_only_flag": null,
   "payment_qr_accepted": null,
   "stationless_flag": null,
   "status": "active"
  },
  {
   "rk_id": "rk_pub_00089",
   "name": "麺や 雅 石狩本店",
   "name_en": "Men Ya Masa Ishikari Honten",
   "pref": "北海道",
   "pref_en": "Hokkaido",
   "city": "石狩市",
   "city_en": "Ishikari Shi",
   "lat": 43.171814,
   "lng": 141.314026,
   "keito": [],
   "genre": "ramen",
   "cash_only_flag": null,
   "payment_qr_accepted": null,
   "stationless_flag": null,
   "status": "active"
  },
  {
   "rk_id": "rk_pub_00090",
   "name": "味の大番",
   "name_en": "Aji No Oban",
   "pref": "北海道",
   "pref_en": "Hokkaido",
   "city": "稚内市",
   "city_en": "Wakkanai Shi",
   "lat": 45.409184,
   "lng": 141.673904,
   "keito": [],
   "genre": "ramen",
   "cash_only_flag": null,
   "payment_qr_accepted": null,
   "stationless_flag": null,
   "status": "active"
  },
  {
   "rk_id": "rk_pub_00091",
   "name": "ぽっぽ家",
   "name_en": "Poppoya",
   "pref": "北海道",
   "pref_en": "Hokkaido",
   "city": "紋別郡遠軽町",
   "city_en": "Mombetsu Gun Engaru Cho",
   "lat": 43.926655,
   "lng": 143.533997,
   "keito": [
    "tonkotsu"
   ],
   "genre": "ramen",
   "cash_only_flag": null,
   "payment_qr_accepted": null,
   "stationless_flag": null,
   "status": "active"
  },
  {
   "rk_id": "rk_pub_00092",
   "name": "新 宝来軒",
   "name_en": "Shin Horaiken",
   "pref": "北海道",
   "pref_en": "Hokkaido",
   "city": "芦別市",
   "city_en": "Ashibetsu Shi",
   "lat": 43.501011,
   "lng": 142.196976,
   "keito": [],
   "genre": "ramen",
   "cash_only_flag": null,
   "payment_qr_accepted": null,
   "stationless_flag": null,
   "status": "active"
  },
  {
   "rk_id": "rk_pub_00093",
   "name": "麺屋 中華 苫小牧店",
   "name_en": "Menya Chuka Tomakomai Ten",
   "pref": "北海道",
   "pref_en": "Hokkaido",
   "city": "苫小牧市",
   "city_en": "Tomakomai Shi",
   "lat": 42.658867,
   "lng": 141.619766,
   "keito": [],
   "genre": "ramen",
   "cash_only_flag": null,
   "payment_qr_accepted": null,
   "stationless_flag": null,
   "status": "active"
  },
  {
   "rk_id": "rk_pub_00094",
   "name": "ニドムクラッシックコース",
   "name_en": "Nidom Classic Course",
   "pref": "北海道",
   "pref_en": "Hokkaido",
   "city": "苫小牧市",
   "city_en": "Tomakomai Shi",
   "lat": 42.722973,
   "lng": 141.663345,
   "keito": [],
   "genre": "ramen",
   "cash_only_flag": null,
   "payment_qr_accepted": null,
   "stationless_flag": null,
   "status": "active"
  },
  {
   "rk_id": "rk_pub_00095",
   "name": "カフェテリア スティームボート",
   "name_en": "Cafeteria Steamboat",
   "pref": "北海道",
   "pref_en": "Hokkaido",
   "city": "虻田郡留寿都村",
   "city_en": "Abuta Gun Rusutsu Mura",
   "lat": 42.747467,
   "lng": 140.916733,
   "keito": [],
   "genre": "ramen",
   "cash_only_flag": null,
   "payment_qr_accepted": null,
   "stationless_flag": null,
   "status": "active"
  },
  {
   "rk_id": "rk_pub_00096",
   "name": "旭川ラーメン 熊の屋",
   "name_en": "Asahikawa Ramen Kumanoya",
   "pref": "北海道",
   "pref_en": "Hokkaido",
   "city": "釧路市",
   "city_en": "Kushiro Shi",
   "lat": 43.010475,
   "lng": 144.375397,
   "keito": [],
   "genre": "ramen",
   "cash_only_flag": null,
   "payment_qr_accepted": null,
   "stationless_flag": null,
   "status": "active"
  },
  {
   "rk_id": "rk_pub_00097",
   "name": "札幌らーめん 日和",
   "name_en": "Sapporo Ramen Hiyori",
   "pref": "北海道",
   "pref_en": "Hokkaido",
   "city": "釧路市",
   "city_en": "Kushiro Shi",
   "lat": 43.022896,
   "lng": 144.35582,
   "keito": [
    "miso"
   ],
   "genre": "ramen",
   "cash_only_flag": null,
   "payment_qr_accepted": null,
   "stationless_flag": null,
   "status": "active"
  },
  {
   "rk_id": "rk_pub_00098",
   "name": "志奈そば 田なか いすみ店",
   "name_en": "Shina Soba Tanaka Isumi Ten",
   "pref": "千葉県",
   "pref_en": "Chiba",
   "city": "いすみ市",
   "city_en": "Isumi Shi",
   "lat": 35.327839,
   "lng": 140.398499,
   "keito": [],
   "genre": "ramen",
   "cash_only_flag": null,
   "payment_qr_accepted": null,
   "stationless_flag": null,
   "status": "active"
  },
  {
   "rk_id": "rk_pub_00099",
   "name": "ラーメン ヨシベー 八千代店",
   "name_en": "Ramen Yoshibe Yachiyo Ten",
   "pref": "千葉県",
   "pref_en": "Chiba",
   "city": "八千代市",
   "city_en": "Yachiyo Shi",
   "lat": 35.722588,
   "lng": 140.087143,
   "keito": [],
   "genre": "ramen",
   "cash_only_flag": null,
   "payment_qr_accepted": null,
   "stationless_flag": null,
   "status": "active"
  },
  {
   "rk_id": "rk_pub_00100",
   "name": "緑が丘ラーメン 龍",
   "name_en": "Midorigaoka Ramen Ryu",
   "pref": "千葉県",
   "pref_en": "Chiba",
   "city": "八千代市",
   "city_en": "Yachiyo Shi",
   "lat": 35.729275,
   "lng": 140.073181,
   "keito": [],
   "genre": "ramen",
   "cash_only_flag": null,
   "payment_qr_accepted": null,
   "stationless_flag": null,
   "status": "active"
  },
  {
   "rk_id": "rk_pub_00101",
   "name": "勝浦つるんつるん温泉",
   "name_en": "Katsuura Tsuruntsurun Onsen",
   "pref": "千葉県",
   "pref_en": "Chiba",
   "city": "勝浦市",
   "city_en": "Katsura Shi",
   "lat": 35.204887,
   "lng": 140.269135,
   "keito": [],
   "genre": "ramen",
   "cash_only_flag": null,
   "payment_qr_accepted": null,
   "stationless_flag": null,
   "status": "active"
  },
  {
   "rk_id": "rk_pub_00102",
   "name": "喜多方ラーメン 坂内 蘇我店",
   "name_en": "Kitakata Ramen Bannai Soga Ten",
   "pref": "千葉県",
   "pref_en": "Chiba",
   "city": "千葉市中央区",
   "city_en": "Chiba Shi Chuo Ku",
   "lat": 35.585987,
   "lng": 140.124802,
   "keito": [
    "shoyu"
   ],
   "genre": "ramen",
   "cash_only_flag": null,
   "payment_qr_accepted": null,
   "stationless_flag": null,
   "status": "active"
  },
  {
   "rk_id": "rk_pub_00103",
   "name": "満亭",
   "name_en": "Mantei",
   "pref": "千葉県",
   "pref_en": "Chiba",
   "city": "千葉市中央区",
   "city_en": "Chiba Shi Chuo Ku",
   "lat": 35.597401,
   "lng": 140.113434,
   "keito": [],
   "genre": "ramen",
   "cash_only_flag": null,
   "payment_qr_accepted": null,
   "stationless_flag": null,
   "status": "active"
  },
  {
   "rk_id": "rk_pub_00104",
   "name": "麺屋いとう チーバくんグルメパーク",
   "name_en": "Menya Ito Chiba Kun Gurume Park",
   "pref": "千葉県",
   "pref_en": "Chiba",
   "city": "千葉市中央区",
   "city_en": "Chiba Shi Chuo Ku",
   "lat": 35.611118,
   "lng": 140.113571,
   "keito": [],
   "genre": "ramen",
   "cash_only_flag": null,
   "payment_qr_accepted": null,
   "stationless_flag": null,
   "status": "active"
  },
  {
   "rk_id": "rk_pub_00105",
   "name": "麺将 松風",
   "name_en": "Men Sho Matsukaze",
   "pref": "千葉県",
   "pref_en": "Chiba",
   "city": "千葉市稲毛区",
   "city_en": "Chiba Shi Inage Ku",
   "lat": 35.623711,
   "lng": 140.103333,
   "keito": [],
   "genre": "ramen",
   "cash_only_flag": null,
   "payment_qr_accepted": null,
   "stationless_flag": null,
   "status": "active"
  },
  {
   "rk_id": "rk_pub_00106",
   "name": "長崎ちゃんぽん リンガーハット 千葉海浜幕張店",
   "name_en": "Nagasaki Chanpon Ringer Hut Chiba Kaihinmakuhari Ten",
   "pref": "千葉県",
   "pref_en": "Chiba",
   "city": "千葉市美浜区",
   "city_en": "Chiba Shi Mihama Ku",
   "lat": 35.64983,
   "lng": 140.042603,
   "keito": [],
   "genre": "ramen",
   "cash_only_flag": false,
   "payment_qr_accepted": null,
   "stationless_flag": null,
   "status": "active"
  },
  {
   "rk_id": "rk_pub_00107",
   "name": "来来亭 千葉花見川店",
   "name_en": "Rairaitei Chiba Hanamigawa Ten",
   "pref": "千葉県",
   "pref_en": "Chiba",
   "city": "千葉市花見川区",
   "city_en": "Chiba Shi Hanamigawa Ku",
   "lat": 35.665943,
   "lng": 140.101044,
   "keito": [
    "shoyu"
   ],
   "genre": "ramen",
   "cash_only_flag": null,
   "payment_qr_accepted": null,
   "stationless_flag": null,
   "status": "active"
  },
  {
   "rk_id": "rk_pub_00108",
   "name": "サーラータイ",
   "name_en": "Saratai",
   "pref": "千葉県",
   "pref_en": "Chiba",
   "city": "千葉市若葉区",
   "city_en": "Chiba Shi Wakaba Ku",
   "lat": 35.639008,
   "lng": 140.152451,
   "keito": [],
   "genre": "ramen",
   "cash_only_flag": null,
   "payment_qr_accepted": null,
   "stationless_flag": null,
   "status": "active"
  },
  {
   "rk_id": "rk_pub_00109",
   "name": "みよし家",
   "name_en": "Miyoshiya",
   "pref": "千葉県",
   "pref_en": "Chiba",
   "city": "南房総市",
   "city_en": "Minamiboso Shi",
   "lat": 35.069901,
   "lng": 139.902252,
   "keito": [
    "tonkotsu"
   ],
   "genre": "ramen",
   "cash_only_flag": null,
   "payment_qr_accepted": null,
   "stationless_flag": null,
   "status": "active"
  },
  {
   "rk_id": "rk_pub_00110",
   "name": "中華そば 富士鹿",
   "name_en": "Chuka Soba Fuji Shika",
   "pref": "千葉県",
   "pref_en": "Chiba",
   "city": "印西市",
   "city_en": "Inzai Shi",
   "lat": 35.8032,
   "lng": 140.139221,
   "keito": [
    "shoyu"
   ],
   "genre": "ramen",
   "cash_only_flag": null,
   "payment_qr_accepted": null,
   "stationless_flag": null,
   "status": "active"
  },
  {
   "rk_id": "rk_pub_00111",
   "name": "串 壱徹",
   "name_en": "Kushi Ittetsu",
   "pref": "千葉県",
   "pref_en": "Chiba",
   "city": "君津市",
   "city_en": "Kimitsu Shi",
   "lat": 35.333447,
   "lng": 139.89418,
   "keito": [],
   "genre": "ramen",
   "cash_only_flag": null,
   "payment_qr_accepted": null,
   "stationless_flag": null,
   "status": "active"
  },
  {
   "rk_id": "rk_pub_00112",
   "name": "ラーメン豊七",
   "name_en": "Ramen Toshichi",
   "pref": "千葉県",
   "pref_en": "Chiba",
   "city": "大網白里市",
   "city_en": "Oamishirasato Shi",
   "lat": 35.493729,
   "lng": 140.420929,
   "keito": [],
   "genre": "ramen",
   "cash_only_flag": null,
   "payment_qr_accepted": null,
   "stationless_flag": null,
   "status": "active"
  },
  {
   "rk_id": "rk_pub_00113",
   "name": "からめんや Maru",
   "name_en": "Karamenya Maru",
   "pref": "千葉県",
   "pref_en": "Chiba",
   "city": "富津市",
   "city_en": "Futtsu Shi",
   "lat": 35.272774,
   "lng": 139.85878,
   "keito": [],
   "genre": "ramen",
   "cash_only_flag": null,
   "payment_qr_accepted": null,
   "stationless_flag": null,
   "status": "active"
  },
  {
   "rk_id": "rk_pub_00114",
   "name": "中華屋 喜らく",
   "name_en": "Chukaya Kiraku",
   "pref": "千葉県",
   "pref_en": "Chiba",
   "city": "山武郡九十九里町",
   "city_en": "Sambu Gun Kujukuri Machi",
   "lat": 35.516109,
   "lng": 140.43924,
   "keito": [],
   "genre": "ramen",
   "cash_only_flag": null,
   "payment_qr_accepted": null,
   "stationless_flag": null,
   "status": "active"
  },
  {
   "rk_id": "rk_pub_00115",
   "name": "どさん娘 市原店",
   "name_en": "Dosan Musume Ichihara Ten",
   "pref": "千葉県",
   "pref_en": "Chiba",
   "city": "市原市",
   "city_en": "Ichihara Shi",
   "lat": 35.534218,
   "lng": 140.111557,
   "keito": [],
   "genre": "ramen",
   "cash_only_flag": null,
   "payment_qr_accepted": null,
   "stationless_flag": null,
   "status": "active"
  },
  {
   "rk_id": "rk_pub_00116",
   "name": "横浜家系ラーメン 一腹家 市原店",
   "name_en": "Yokohama Iekei Ramen Ippukuya Ichihara Ten",
   "pref": "千葉県",
   "pref_en": "Chiba",
   "city": "市原市",
   "city_en": "Ichihara Shi",
   "lat": 35.514351,
   "lng": 140.066177,
   "keito": [
    "tonkotsu"
   ],
   "genre": "ramen",
   "cash_only_flag": null,
   "payment_qr_accepted": null,
   "stationless_flag": null,
   "status": "active"
  },
  {
   "rk_id": "rk_pub_00117",
   "name": "麺屋てつ",
   "name_en": "Menya Tetsu",
   "pref": "千葉県",
   "pref_en": "Chiba",
   "city": "市川市",
   "city_en": "Ichikawa Shi",
   "lat": 35.736904,
   "lng": 139.902725,
   "keito": [],
   "genre": "ramen",
   "cash_only_flag": null,
   "payment_qr_accepted": null,
   "stationless_flag": null,
   "status": "active"
  },
  {
   "rk_id": "rk_pub_00118",
   "name": "中華料理 旺華楼",
   "name_en": "Chuka Ryori Okaro",
   "pref": "千葉県",
   "pref_en": "Chiba",
   "city": "市川市",
   "city_en": "Ichikawa Shi",
   "lat": 35.719296,
   "lng": 139.928314,
   "keito": [],
   "genre": "chinese",
   "cash_only_flag": null,
   "payment_qr_accepted": null,
   "stationless_flag": null,
   "status": "active"
  },
  {
   "rk_id": "rk_pub_00119",
   "name": "長男、もんたいちお",
   "name_en": "Chonan Montaichio",
   "pref": "千葉県",
   "pref_en": "Chiba",
   "city": "市川市",
   "city_en": "Ichikawa Shi",
   "lat": 35.724094,
   "lng": 139.929062,
   "keito": [],
   "genre": "ramen",
   "cash_only_flag": null,
   "payment_qr_accepted": null,
   "stationless_flag": null,
   "status": "active"
  },
  {
   "rk_id": "rk_pub_00120",
   "name": "背脂煮干中華そば 二代目たかちゃんらーめん",
   "name_en": "Seabura Niboshi Chuka Soba Nidaime Takachan Ramen",
   "pref": "千葉県",
   "pref_en": "Chiba",
   "city": "市川市",
   "city_en": "Ichikawa Shi",
   "lat": 35.739212,
   "lng": 139.903198,
   "keito": [
    "shoyu"
   ],
   "genre": "ramen",
   "cash_only_flag": null,
   "payment_qr_accepted": null,
   "stationless_flag": null,
   "status": "active"
  },
  {
   "rk_id": "rk_pub_00121",
   "name": "博多一風堂 成田空港店",
   "name_en": "Hakata Ippudo Narita Kuko Ten",
   "pref": "千葉県",
   "pref_en": "Chiba",
   "city": "成田市",
   "city_en": "Narita Shi",
   "lat": 35.773689,
   "lng": 140.386032,
   "keito": [
    "tonkotsu"
   ],
   "genre": "ramen",
   "cash_only_flag": false,
   "payment_qr_accepted": null,
   "stationless_flag": null,
   "status": "active"
  },
  {
   "rk_id": "rk_pub_00122",
   "name": "中華三平",
   "name_en": "Chuka Sanpei",
   "pref": "千葉県",
   "pref_en": "Chiba",
   "city": "我孫子市",
   "city_en": "Abiko Shi",
   "lat": 35.87162,
   "lng": 140.007675,
   "keito": [],
   "genre": "ramen",
   "cash_only_flag": null,
   "payment_qr_accepted": null,
   "stationless_flag": null,
   "status": "active"
  },
  {
   "rk_id": "rk_pub_00123",
   "name": "麺処 ひかりや",
   "name_en": "Men Tokoro Hikariya",
   "pref": "千葉県",
   "pref_en": "Chiba",
   "city": "旭市",
   "city_en": "Asahi Shi",
   "lat": 35.716866,
   "lng": 140.621765,
   "keito": [],
   "genre": "ramen",
   "cash_only_flag": null,
   "payment_qr_accepted": null,
   "stationless_flag": null,
   "status": "active"
  },
  {
   "rk_id": "rk_pub_00124",
   "name": "京都北白川ラーメン 魁力屋 木更津店",
   "name_en": "Kyoto Kitashirakawa Ramen Kairikiya Kisarazu Ten",
   "pref": "千葉県",
   "pref_en": "Chiba",
   "city": "木更津市",
   "city_en": "Kisarazu Shi",
   "lat": 35.430481,
   "lng": 139.927551,
   "keito": [
    "shoyu"
   ],
   "genre": "ramen",
   "cash_only_flag": false,
   "payment_qr_accepted": null,
   "stationless_flag": null,
   "status": "active"
  },
  {
   "rk_id": "rk_pub_00125",
   "name": "兎に角 松戸店",
   "name_en": "Tonikaku Matsudo Ten",
   "pref": "千葉県",
   "pref_en": "Chiba",
   "city": "松戸市",
   "city_en": "Matsudo Shi",
   "lat": 35.785915,
   "lng": 139.90152,
   "keito": [],
   "genre": "ramen",
   "cash_only_flag": null,
   "payment_qr_accepted": null,
   "stationless_flag": null,
   "status": "active"
  },
  {
   "rk_id": "rk_pub_00126",
   "name": "ますや",
   "name_en": "Masuya",
   "pref": "千葉県",
   "pref_en": "Chiba",
   "city": "松戸市",
   "city_en": "Matsudo Shi",
   "lat": 35.789249,
   "lng": 139.922134,
   "keito": [],
   "genre": "ramen",
   "cash_only_flag": null,
   "payment_qr_accepted": null,
   "stationless_flag": null,
   "status": "active"
  },
  {
   "rk_id": "rk_pub_00127",
   "name": "日高屋 五香西口店",
   "name_en": "Hidakaya Goko Nishiguchi Ten",
   "pref": "千葉県",
   "pref_en": "Chiba",
   "city": "松戸市",
   "city_en": "Matsudo Shi",
   "lat": 35.796371,
   "lng": 139.96582,
   "keito": [
    "shoyu"
   ],
   "genre": "ramen",
   "cash_only_flag": false,
   "payment_qr_accepted": null,
   "stationless_flag": null,
   "status": "active"
  },
  {
   "rk_id": "rk_pub_00128",
   "name": "リンガーハット テラスモール松戸店",
   "name_en": "Ringer Hut Terasumoru Matsudo Ten",
   "pref": "千葉県",
   "pref_en": "Chiba",
   "city": "松戸市",
   "city_en": "Matsudo Shi",
   "lat": 35.817673,
   "lng": 139.932816,
   "keito": [],
   "genre": "ramen",
   "cash_only_flag": false,
   "payment_qr_accepted": null,
   "stationless_flag": null,
   "status": "active"
  },
  {
   "rk_id": "rk_pub_00129",
   "name": "麺屋 花形",
   "name_en": "Menya Hanagata",
   "pref": "千葉県",
   "pref_en": "Chiba",
   "city": "柏市",
   "city_en": "Kashiwa Shi",
   "lat": 35.843899,
   "lng": 139.97731,
   "keito": [],
   "genre": "ramen",
   "cash_only_flag": null,
   "payment_qr_accepted": null,
   "stationless_flag": null,
   "status": "active"
  },
  {
   "rk_id": "rk_pub_00130",
   "name": "中国料理 麗園",
   "name_en": "Chugokuryori Reien",
   "pref": "千葉県",
   "pref_en": "Chiba",
   "city": "柏市",
   "city_en": "Kashiwa Shi",
   "lat": 35.855839,
   "lng": 139.97374,
   "keito": [],
   "genre": "chinese",
   "cash_only_flag": null,
   "payment_qr_accepted": null,
   "stationless_flag": null,
   "status": "active"
  },
  {
   "rk_id": "rk_pub_00131",
   "name": "中華そば れもん",
   "name_en": "Chuka Soba Remon",
   "pref": "千葉県",
   "pref_en": "Chiba",
   "city": "柏市",
   "city_en": "Kashiwa Shi",
   "lat": 35.892864,
   "lng": 139.959549,
   "keito": [
    "shoyu"
   ],
   "genre": "ramen",
   "cash_only_flag": null,
   "payment_qr_accepted": null,
   "stationless_flag": null,
   "status": "active"
  },
  {
   "rk_id": "rk_pub_00132",
   "name": "横浜家系ラーメン 隆希家",
   "name_en": "Yokohama Iekei Ramen Ryukiya",
   "pref": "千葉県",
   "pref_en": "Chiba",
   "city": "柏市",
   "city_en": "Kashiwa Shi",
   "lat": 35.865318,
   "lng": 139.929871,
   "keito": [
    "tonkotsu"
   ],
   "genre": "ramen",
   "cash_only_flag": null,
   "payment_qr_accepted": null,
   "stationless_flag": null,
   "status": "active"
  },
  {
   "rk_id": "rk_pub_00133",
   "name": "リンガーハット イトーヨーカドー流山店",
   "name_en": "Ringer Hut Itoyokado Nagareyama Ten",
   "pref": "千葉県",
   "pref_en": "Chiba",
   "city": "流山市",
   "city_en": "Nagareyama Shi",
   "lat": 35.849094,
   "lng": 139.899445,
   "keito": [],
   "genre": "ramen",
   "cash_only_flag": false,
   "payment_qr_accepted": null,
   "stationless_flag": null,
   "status": "active"
  },
  {
   "rk_id": "rk_pub_00134",
   "name": "花閒",
   "name_en": "Kakan",
   "pref": "千葉県",
   "pref_en": "Chiba",
   "city": "浦安市",
   "city_en": "Urayasu Shi",
   "lat": 35.649757,
   "lng": 139.911453,
   "keito": [],
   "genre": "ramen",
   "cash_only_flag": null,
   "payment_qr_accepted": null,
   "stationless_flag": null,
   "status": "active"
  },
  {
   "rk_id": "rk_pub_00135",
   "name": "横濱家系ラーメン 吟家 実籾店",
   "name_en": "Yokohama Iekei Ramen Ginya Mimomi Ten",
   "pref": "千葉県",
   "pref_en": "Chiba",
   "city": "習志野市",
   "city_en": "Narashino Shi",
   "lat": 35.681576,
   "lng": 140.06926,
   "keito": [
    "tonkotsu"
   ],
   "genre": "ramen",
   "cash_only_flag": false,
   "payment_qr_accepted": null,
   "stationless_flag": null,
   "status": "active"
  },
  {
   "rk_id": "rk_pub_00136",
   "name": "大勝軒 北習志野店",
   "name_en": "Taishoken Kitanarashino Ten",
   "pref": "千葉県",
   "pref_en": "Chiba",
   "city": "船橋市",
   "city_en": "Funabashi Shi",
   "lat": 35.720997,
   "lng": 140.041946,
   "keito": [
    "tsukemen"
   ],
   "genre": "ramen",
   "cash_only_flag": null,
   "payment_qr_accepted": null,
   "stationless_flag": null,
   "status": "active"
  },
  {
   "rk_id": "rk_pub_00137",
   "name": "中華 上海",
   "name_en": "Chuka Shanghai",
   "pref": "千葉県",
   "pref_en": "Chiba",
   "city": "船橋市",
   "city_en": "Funabashi Shi",
   "lat": 35.730949,
   "lng": 140.02948,
   "keito": [],
   "genre": "ramen",
   "cash_only_flag": null,
   "payment_qr_accepted": null,
   "stationless_flag": null,
   "status": "active"
  },
  {
   "rk_id": "rk_pub_00138",
   "name": "中華そば 青葉 船橋店",
   "name_en": "Chuka Soba Aoba Funabashi Ten",
   "pref": "千葉県",
   "pref_en": "Chiba",
   "city": "船橋市",
   "city_en": "Funabashi Shi",
   "lat": 35.702137,
   "lng": 139.983231,
   "keito": [
    "shoyu"
   ],
   "genre": "ramen",
   "cash_only_flag": null,
   "payment_qr_accepted": null,
   "stationless_flag": null,
   "status": "active"
  },
  {
   "rk_id": "rk_pub_00139",
   "name": "韓豚屋 西船橋店",
   "name_en": "Hantonya Nishifunabashi Ten",
   "pref": "千葉県",
   "pref_en": "Chiba",
   "city": "船橋市",
   "city_en": "Funabashi Shi",
   "lat": 35.707939,
   "lng": 139.959732,
   "keito": [],
   "genre": "ramen",
   "cash_only_flag": null,
   "payment_qr_accepted": null,
   "stationless_flag": null,
   "status": "active"
  },
  {
   "rk_id": "rk_pub_00140",
   "name": "どうとんぼり神座 ららテラスTOKYO-BAY店",
   "name_en": "Dotonbori Kamukura Rara Terasu Tokyo Bay Ten",
   "pref": "千葉県",
   "pref_en": "Chiba",
   "city": "船橋市",
   "city_en": "Funabashi Shi",
   "lat": 35.682053,
   "lng": 139.994278,
   "keito": [],
   "genre": "ramen",
   "cash_only_flag": false,
   "payment_qr_accepted": null,
   "stationless_flag": null,
   "status": "active"
  },
  {
   "rk_id": "rk_pub_00141",
   "name": "京都北白川 ラーメン魁力屋 茂原店",
   "name_en": "Kyoto Kitashirakawa Ramen Kairikiya Mobara Ten",
   "pref": "千葉県",
   "pref_en": "Chiba",
   "city": "茂原市",
   "city_en": "Mobara Shi",
   "lat": 35.45414,
   "lng": 140.295593,
   "keito": [
    "shoyu"
   ],
   "genre": "ramen",
   "cash_only_flag": false,
   "payment_qr_accepted": null,
   "stationless_flag": null,
   "status": "active"
  },
  {
   "rk_id": "rk_pub_00142",
   "name": "天心楼",
   "name_en": "Tenshinro",
   "pref": "千葉県",
   "pref_en": "Chiba",
   "city": "野田市",
   "city_en": "Noda Shi",
   "lat": 36.045307,
   "lng": 139.812149,
   "keito": [],
   "genre": "ramen",
   "cash_only_flag": null,
   "payment_qr_accepted": null,
   "stationless_flag": null,
   "status": "active"
  },
  {
   "rk_id": "rk_pub_00143",
   "name": "中華ソバ 坂本",
   "name_en": "Chuka Soba Sakamoto",
   "pref": "千葉県",
   "pref_en": "Chiba",
   "city": "銚子市",
   "city_en": "Choshi Shi",
   "lat": 35.731236,
   "lng": 140.839127,
   "keito": [],
   "genre": "ramen",
   "cash_only_flag": null,
   "payment_qr_accepted": null,
   "stationless_flag": null,
   "status": "active"
  },
  {
   "rk_id": "rk_pub_00144",
   "name": "丸源ラーメン 新鎌ケ谷店",
   "name_en": "Marugen Ramen Shin Kama Ke Tani Ten",
   "pref": "千葉県",
   "pref_en": "Chiba",
   "city": "鎌ケ谷市",
   "city_en": "Kamagaya Shi",
   "lat": 35.773304,
   "lng": 140.000046,
   "keito": [
    "shoyu"
   ],
   "genre": "ramen",
   "cash_only_flag": false,
   "payment_qr_accepted": null,
   "stationless_flag": null,
   "status": "active"
  },
  {
   "rk_id": "rk_pub_00145",
   "name": "ムラクニ",
   "name_en": "Murakuni",
   "pref": "千葉県",
   "pref_en": "Chiba",
   "city": "館山市",
   "city_en": "Tateyama Shi",
   "lat": 35.026154,
   "lng": 139.876648,
   "keito": [],
   "genre": "ramen",
   "cash_only_flag": null,
   "payment_qr_accepted": null,
   "stationless_flag": null,
   "status": "active"
  },
  {
   "rk_id": "rk_pub_00146",
   "name": "麺家 香湯らーめん",
   "name_en": "Menya Koyu Ramen",
   "pref": "千葉県",
   "pref_en": "Chiba",
   "city": "香取市",
   "city_en": "Katori Shi",
   "lat": 35.853245,
   "lng": 140.607224,
   "keito": [],
   "genre": "ramen",
   "cash_only_flag": null,
   "payment_qr_accepted": null,
   "stationless_flag": null,
   "status": "active"
  },
  {
   "rk_id": "rk_pub_00147",
   "name": "元車庫前まる宮 本店",
   "name_en": "Moto Shakomae Marumiya Honten",
   "pref": "和歌山県",
   "pref_en": "Wakayama",
   "city": "和歌山市",
   "city_en": "Wakayama Shi",
   "lat": 34.165844,
   "lng": 135.18779,
   "keito": [],
   "genre": "ramen",
   "cash_only_flag": null,
   "payment_qr_accepted": null,
   "stationless_flag": null,
   "status": "active"
  },
  {
   "rk_id": "rk_pub_00148",
   "name": "丸源ラーメン 御膳松店",
   "name_en": "Marugen Ramen Gozenmatsu Ten",
   "pref": "和歌山県",
   "pref_en": "Wakayama",
   "city": "和歌山市",
   "city_en": "Wakayama Shi",
   "lat": 34.236572,
   "lng": 135.154007,
   "keito": [
    "shoyu"
   ],
   "genre": "ramen",
   "cash_only_flag": false,
   "payment_qr_accepted": null,
   "stationless_flag": null,
   "status": "active"
  },
  {
   "rk_id": "rk_pub_00149",
   "name": "夢の一歩 和歌山店",
   "name_en": "Yume No Ippo Wakayama Ten",
   "pref": "和歌山県",
   "pref_en": "Wakayama",
   "city": "和歌山市",
   "city_en": "Wakayama Shi",
   "lat": 34.233631,
   "lng": 135.217926,
   "keito": [],
   "genre": "ramen",
   "cash_only_flag": null,
   "payment_qr_accepted": null,
   "stationless_flag": null,
   "status": "active"
  },
  {
   "rk_id": "rk_pub_00150",
   "name": "麺処 むらなか",
   "name_en": "Mendokoro Muranaka",
   "pref": "和歌山県",
   "pref_en": "Wakayama",
   "city": "有田郡広川町",
   "city_en": "Arida Gun Hirogawa Cho",
   "lat": 33.998627,
   "lng": 135.149933,
   "keito": [],
   "genre": "ramen",
   "cash_only_flag": null,
   "payment_qr_accepted": null,
   "stationless_flag": null,
   "status": "active"
  },
  {
   "rk_id": "rk_pub_00151",
   "name": "中華そば 丸龍",
   "name_en": "Chuka Soba Maru Ryu",
   "pref": "和歌山県",
   "pref_en": "Wakayama",
   "city": "紀の川市",
   "city_en": "Kinokawa Shi",
   "lat": 34.281734,
   "lng": 135.353653,
   "keito": [
    "shoyu"
   ],
   "genre": "ramen",
   "cash_only_flag": null,
   "payment_qr_accepted": null,
   "stationless_flag": null,
   "status": "active"
  },
  {
   "rk_id": "rk_pub_00152",
   "name": "つけそば 担担麺 航龍",
   "name_en": "Tsukesoba Tantanmen Koryu",
   "pref": "埼玉県",
   "pref_en": "Saitama",
   "city": "さいたま市中央区",
   "city_en": "Saitama Shi Chuo Ku",
   "lat": 35.874153,
   "lng": 139.63208,
   "keito": [
    "spicy"
   ],
   "genre": "ramen",
   "cash_only_flag": null,
   "payment_qr_accepted": null,
   "stationless_flag": null,
   "status": "active"
  },
  {
   "rk_id": "rk_pub_00153",
   "name": "らーめん きよつき",
   "name_en": "Ramen Kiyotsuki",
   "pref": "埼玉県",
   "pref_en": "Saitama",
   "city": "さいたま市南区",
   "city_en": "Saitama Shi Minami Ku",
   "lat": 35.841537,
   "lng": 139.636688,
   "keito": [],
   "genre": "ramen",
   "cash_only_flag": null,
   "payment_qr_accepted": null,
   "stationless_flag": null,
   "status": "active"
  },
  {
   "rk_id": "rk_pub_00154",
   "name": "駅そば大宮",
   "name_en": "Eki Soba Omiya",
   "pref": "埼玉県",
   "pref_en": "Saitama",
   "city": "さいたま市大宮区",
   "city_en": "Saitama Shi Omiya Ku",
   "lat": 35.904289,
   "lng": 139.624069,
   "keito": [],
   "genre": "ramen",
   "cash_only_flag": null,
   "payment_qr_accepted": null,
   "stationless_flag": null,
   "status": "active"
  },
  {
   "rk_id": "rk_pub_00155",
   "name": "中華そば よしかわ 東日本あったか冬フェス（大宮そごう）",
   "name_en": "Chuka Soba Yoshikawa Higashinihon Attaka Fuyu Fes Omiya Sogo",
   "pref": "埼玉県",
   "pref_en": "Saitama",
   "city": "さいたま市大宮区",
   "city_en": "Saitama Shi Omiya Ku",
   "lat": 35.904758,
   "lng": 139.62207,
   "keito": [
    "shoyu"
   ],
   "genre": "ramen",
   "cash_only_flag": null,
   "payment_qr_accepted": null,
   "stationless_flag": null,
   "status": "active"
  },
  {
   "rk_id": "rk_pub_00156",
   "name": "泉食堂",
   "name_en": "Izumi Shokudo",
   "pref": "埼玉県",
   "pref_en": "Saitama",
   "city": "さいたま市岩槻区",
   "city_en": "Saitama Shi Iwatsuki Ku",
   "lat": 35.944489,
   "lng": 139.702194,
   "keito": [],
   "genre": "ramen",
   "cash_only_flag": null,
   "payment_qr_accepted": null,
   "stationless_flag": null,
   "status": "active"
  },
  {
   "rk_id": "rk_pub_00157",
   "name": "拉麺 名もなき店",
   "name_en": "Ramen Na mo Naki Mise",
   "pref": "埼玉県",
   "pref_en": "Saitama",
   "city": "さいたま市桜区",
   "city_en": "Saitama Shi Sakura Ku",
   "lat": 35.85825,
   "lng": 139.617691,
   "keito": [],
   "genre": "ramen",
   "cash_only_flag": null,
   "payment_qr_accepted": null,
   "stationless_flag": null,
   "status": "active"
  },
  {
   "rk_id": "rk_pub_00158",
   "name": "うさ担 浦和本店",
   "name_en": "Usa Tan Urawa Honten",
   "pref": "埼玉県",
   "pref_en": "Saitama",
   "city": "さいたま市浦和区",
   "city_en": "Saitama Shi Urawa Ku",
   "lat": 35.86076,
   "lng": 139.656876,
   "keito": [],
   "genre": "ramen",
   "cash_only_flag": null,
   "payment_qr_accepted": null,
   "stationless_flag": null,
   "status": "active"
  },
  {
   "rk_id": "rk_pub_00159",
   "name": "中国料理 喜仙‎",
   "name_en": "Chugokuryori Kisen",
   "pref": "埼玉県",
   "pref_en": "Saitama",
   "city": "さいたま市緑区",
   "city_en": "Saitama Shi Midori Ku",
   "lat": 35.87418,
   "lng": 139.702377,
   "keito": [],
   "genre": "chinese",
   "cash_only_flag": null,
   "payment_qr_accepted": null,
   "stationless_flag": null,
   "status": "active"
  },
  {
   "rk_id": "rk_pub_00160",
   "name": "バーミヤン 東大宮店",
   "name_en": "Bamiyan Higashiomiya Ten",
   "pref": "埼玉県",
   "pref_en": "Saitama",
   "city": "さいたま市見沼区",
   "city_en": "Saitama Shi Minuma Ku",
   "lat": 35.946327,
   "lng": 139.644287,
   "keito": [],
   "genre": "ramen",
   "cash_only_flag": null,
   "payment_qr_accepted": null,
   "stationless_flag": null,
   "status": "active"
  },
  {
   "rk_id": "rk_pub_00161",
   "name": "麺屋 蘭 上福岡店",
   "name_en": "Menya Ran Kamifukuoka Ten",
   "pref": "埼玉県",
   "pref_en": "Saitama",
   "city": "ふじみ野市",
   "city_en": "Fujimino Shi",
   "lat": 35.875767,
   "lng": 139.515488,
   "keito": [],
   "genre": "ramen",
   "cash_only_flag": null,
   "payment_qr_accepted": null,
   "stationless_flag": null,
   "status": "active"
  },
  {
   "rk_id": "rk_pub_00162",
   "name": "ポッポ 三郷店",
   "name_en": "Poppo Misato Ten",
   "pref": "埼玉県",
   "pref_en": "Saitama",
   "city": "三郷市",
   "city_en": "Misato Shi",
   "lat": 35.842663,
   "lng": 139.855316,
   "keito": [],
   "genre": "ramen",
   "cash_only_flag": null,
   "payment_qr_accepted": null,
   "stationless_flag": null,
   "status": "active"
  },
  {
   "rk_id": "rk_pub_00163",
   "name": "麺屋 なると 上尾店",
   "name_en": "Menya Naruto Ageo Ten",
   "pref": "埼玉県",
   "pref_en": "Saitama",
   "city": "上尾市",
   "city_en": "Ageo Shi",
   "lat": 35.976803,
   "lng": 139.592987,
   "keito": [],
   "genre": "ramen",
   "cash_only_flag": null,
   "payment_qr_accepted": null,
   "stationless_flag": null,
   "status": "active"
  },
  {
   "rk_id": "rk_pub_00164",
   "name": "煮干しラーメン山岡家 久喜店",
   "name_en": "Niboshi Ramen Yamaokaya Kuki Ten",
   "pref": "埼玉県",
   "pref_en": "Saitama",
   "city": "久喜市",
   "city_en": "Kuki Shi",
   "lat": 36.109734,
   "lng": 139.671417,
   "keito": [
    "tonkotsu"
   ],
   "genre": "ramen",
   "cash_only_flag": false,
   "payment_qr_accepted": null,
   "stationless_flag": null,
   "status": "active"
  },
  {
   "rk_id": "rk_pub_00165",
   "name": "リンガーハット イオン入間店",
   "name_en": "Ringer Hut Ion Iruma Ten",
   "pref": "埼玉県",
   "pref_en": "Saitama",
   "city": "入間市",
   "city_en": "Iruma Shi",
   "lat": 35.821873,
   "lng": 139.394867,
   "keito": [],
   "genre": "ramen",
   "cash_only_flag": false,
   "payment_qr_accepted": null,
   "stationless_flag": null,
   "status": "active"
  },
  {
   "rk_id": "rk_pub_00166",
   "name": "くるまやラーメン 八潮店",
   "name_en": "Kurumaya Ramen Yashio Ten",
   "pref": "埼玉県",
   "pref_en": "Saitama",
   "city": "八潮市",
   "city_en": "Yashio Shi",
   "lat": 35.817566,
   "lng": 139.838745,
   "keito": [
    "miso"
   ],
   "genre": "ramen",
   "cash_only_flag": null,
   "payment_qr_accepted": null,
   "stationless_flag": null,
   "status": "active"
  },
  {
   "rk_id": "rk_pub_00167",
   "name": "中華そば 香十",
   "name_en": "Chuka Soba Koju",
   "pref": "埼玉県",
   "pref_en": "Saitama",
   "city": "加須市",
   "city_en": "Kazo Shi",
   "lat": 36.132744,
   "lng": 139.601059,
   "keito": [
    "shoyu"
   ],
   "genre": "ramen",
   "cash_only_flag": null,
   "payment_qr_accepted": null,
   "stationless_flag": null,
   "status": "active"
  },
  {
   "rk_id": "rk_pub_00168",
   "name": "ラーメンまこと屋 埼玉伊奈店",
   "name_en": "Ramen Makotoya Saitama Ina Ten",
   "pref": "埼玉県",
   "pref_en": "Saitama",
   "city": "北足立郡伊奈町",
   "city_en": "Kitaadachi Gun Ina Machi",
   "lat": 35.976105,
   "lng": 139.639099,
   "keito": [],
   "genre": "ramen",
   "cash_only_flag": null,
   "payment_qr_accepted": null,
   "stationless_flag": null,
   "status": "active"
  },
  {
   "rk_id": "rk_pub_00169",
   "name": "本格的豚骨そば まりぼ",
   "name_en": "Honkakuteki Tonkotsu Soba Maribo",
   "pref": "埼玉県",
   "pref_en": "Saitama",
   "city": "坂戸市",
   "city_en": "Sakado Shi",
   "lat": 35.958466,
   "lng": 139.392075,
   "keito": [
    "tonkotsu"
   ],
   "genre": "ramen",
   "cash_only_flag": null,
   "payment_qr_accepted": null,
   "stationless_flag": null,
   "status": "active"
  },
  {
   "rk_id": "rk_pub_00170",
   "name": "寄居カントリークラブレストラン",
   "name_en": "Yorii Country Club Restaurant",
   "pref": "埼玉県",
   "pref_en": "Saitama",
   "city": "大里郡寄居町",
   "city_en": "Osato Gun Yorii Machi",
   "lat": 36.09338,
   "lng": 139.242905,
   "keito": [],
   "genre": "ramen",
   "cash_only_flag": null,
   "payment_qr_accepted": null,
   "stationless_flag": null,
   "status": "active"
  },
  {
   "rk_id": "rk_pub_00171",
   "name": "ラーメンHOUSE リュウビ",
   "name_en": "Ramen House Ryubi",
   "pref": "埼玉県",
   "pref_en": "Saitama",
   "city": "川口市",
   "city_en": "Kawaguchi Shi",
   "lat": 35.813713,
   "lng": 139.701492,
   "keito": [],
   "genre": "ramen",
   "cash_only_flag": null,
   "payment_qr_accepted": null,
   "stationless_flag": null,
   "status": "active"
  },
  {
   "rk_id": "rk_pub_00172",
   "name": "天竜",
   "name_en": "Tenryu",
   "pref": "埼玉県",
   "pref_en": "Saitama",
   "city": "川口市",
   "city_en": "Kawaguchi Shi",
   "lat": 35.813725,
   "lng": 139.701843,
   "keito": [],
   "genre": "ramen",
   "cash_only_flag": null,
   "payment_qr_accepted": null,
   "stationless_flag": null,
   "status": "active"
  },
  {
   "rk_id": "rk_pub_00173",
   "name": "竜渕",
   "name_en": "Ryuen",
   "pref": "埼玉県",
   "pref_en": "Saitama",
   "city": "川口市",
   "city_en": "Kawaguchi Shi",
   "lat": 35.823162,
   "lng": 139.763306,
   "keito": [],
   "genre": "ramen",
   "cash_only_flag": null,
   "payment_qr_accepted": null,
   "stationless_flag": null,
   "status": "active"
  },
  {
   "rk_id": "rk_pub_00174",
   "name": "清花餃子",
   "name_en": "Seika Gyoza",
   "pref": "埼玉県",
   "pref_en": "Saitama",
   "city": "川口市",
   "city_en": "Kawaguchi Shi",
   "lat": 35.814484,
   "lng": 139.703629,
   "keito": [],
   "genre": "chinese",
   "cash_only_flag": null,
   "payment_qr_accepted": null,
   "stationless_flag": null,
   "status": "active"
  },
  {
   "rk_id": "rk_pub_00175",
   "name": "宮本商店 川口新井宿店",
   "name_en": "Miyamoto Shoten Kawaguchi Araijuku Ten",
   "pref": "埼玉県",
   "pref_en": "Saitama",
   "city": "川口市",
   "city_en": "Kawaguchi Shi",
   "lat": 35.841217,
   "lng": 139.734344,
   "keito": [],
   "genre": "ramen",
   "cash_only_flag": null,
   "payment_qr_accepted": null,
   "stationless_flag": null,
   "status": "active"
  },
  {
   "rk_id": "rk_pub_00176",
   "name": "市の屋飯店",
   "name_en": "Ichinoya Hanten",
   "pref": "埼玉県",
   "pref_en": "Saitama",
   "city": "川越市",
   "city_en": "Kawagoe Shi",
   "lat": 35.914673,
   "lng": 139.483444,
   "keito": [],
   "genre": "chinese",
   "cash_only_flag": null,
   "payment_qr_accepted": null,
   "stationless_flag": null,
   "status": "active"
  },
  {
   "rk_id": "rk_pub_00177",
   "name": "寿製麺よしかわ 川越店",
   "name_en": "Kotobuki Seimen Yoshikawa Kawagoe Ten",
   "pref": "埼玉県",
   "pref_en": "Saitama",
   "city": "川越市",
   "city_en": "Kawagoe Shi",
   "lat": 35.87524,
   "lng": 139.475266,
   "keito": [],
   "genre": "ramen",
   "cash_only_flag": null,
   "payment_qr_accepted": null,
   "stationless_flag": null,
   "status": "active"
  },
  {
   "rk_id": "rk_pub_00178",
   "name": "バーミヤン 鶴ヶ島店",
   "name_en": "Bamiyan Tsurugashima-ten",
   "pref": "埼玉県",
   "pref_en": "Saitama",
   "city": "川越市",
   "city_en": "Kawagoe Shi",
   "lat": 35.93034,
   "lng": 139.419586,
   "keito": [],
   "genre": "ramen",
   "cash_only_flag": null,
   "payment_qr_accepted": null,
   "stationless_flag": null,
   "status": "active"
  },
  {
   "rk_id": "rk_pub_00179",
   "name": "痺れ系ラーメン 隣太郎",
   "name_en": "Shibire Kei Ramen Rintaro",
   "pref": "埼玉県",
   "pref_en": "Saitama",
   "city": "川越市",
   "city_en": "Kawagoe Shi",
   "lat": 35.912266,
   "lng": 139.482056,
   "keito": [],
   "genre": "ramen",
   "cash_only_flag": null,
   "payment_qr_accepted": null,
   "stationless_flag": null,
   "status": "active"
  },
  {
   "rk_id": "rk_pub_00180",
   "name": "ラーメンショップ幸手 金田亭",
   "name_en": "Ramen Shop Satte Kanetatei",
   "pref": "埼玉県",
   "pref_en": "Saitama",
   "city": "幸手市",
   "city_en": "Satte Shi",
   "lat": 36.070587,
   "lng": 139.723434,
   "keito": [
    "other"
   ],
   "genre": "ramen",
   "cash_only_flag": null,
   "payment_qr_accepted": null,
   "stationless_flag": null,
   "status": "active"
  },
  {
   "rk_id": "rk_pub_00181",
   "name": "餃子の王将 戸田公園五差路店",
   "name_en": "Gyoza No Osho Toda Koen Gosaro Ten",
   "pref": "埼玉県",
   "pref_en": "Saitama",
   "city": "戸田市",
   "city_en": "Toda Shi",
   "lat": 35.811039,
   "lng": 139.674149,
   "keito": [],
   "genre": "chinese",
   "cash_only_flag": null,
   "payment_qr_accepted": null,
   "stationless_flag": null,
   "status": "active"
  },
  {
   "rk_id": "rk_pub_00182",
   "name": "めん屋 匠神 新所沢店",
   "name_en": "Men Ya Takumigami Shintokorozawa Ten",
   "pref": "埼玉県",
   "pref_en": "Saitama",
   "city": "所沢市",
   "city_en": "Tokorozawa Shi",
   "lat": 35.807297,
   "lng": 139.455933,
   "keito": [],
   "genre": "ramen",
   "cash_only_flag": null,
   "payment_qr_accepted": null,
   "stationless_flag": null,
   "status": "active"
  },
  {
   "rk_id": "rk_pub_00183",
   "name": "蕎麦ダイニング佳心",
   "name_en": "Soba Dining Kashin",
   "pref": "埼玉県",
   "pref_en": "Saitama",
   "city": "所沢市",
   "city_en": "Tokorozawa Shi",
   "lat": 35.807987,
   "lng": 139.412155,
   "keito": [],
   "genre": "ramen",
   "cash_only_flag": null,
   "payment_qr_accepted": null,
   "stationless_flag": null,
   "status": "active"
  },
  {
   "rk_id": "rk_pub_00184",
   "name": "コバスタンド食堂",
   "name_en": "Koba Stand Shokudo",
   "pref": "埼玉県",
   "pref_en": "Saitama",
   "city": "所沢市",
   "city_en": "Tokorozawa Shi",
   "lat": 35.791477,
   "lng": 139.470306,
   "keito": [],
   "genre": "ramen",
   "cash_only_flag": null,
   "payment_qr_accepted": null,
   "stationless_flag": null,
   "status": "active"
  },
  {
   "rk_id": "rk_pub_00185",
   "name": "レストラン 花鳥風月",
   "name_en": "Resutoran Kachofugetsu",
   "pref": "埼玉県",
   "pref_en": "Saitama",
   "city": "日高市",
   "city_en": "Hidaka Shi",
   "lat": 35.891605,
   "lng": 139.394882,
   "keito": [],
   "genre": "ramen",
   "cash_only_flag": null,
   "payment_qr_accepted": null,
   "stationless_flag": null,
   "status": "active"
  },
  {
   "rk_id": "rk_pub_00186",
   "name": "喜多方老麺まるや 春日部臨時店",
   "name_en": "Kitakata Romen Maruya Kasukabe Rinji Ten",
   "pref": "埼玉県",
   "pref_en": "Saitama",
   "city": "春日部市",
   "city_en": "Kasukabe Shi",
   "lat": 35.981434,
   "lng": 139.757919,
   "keito": [
    "shoyu"
   ],
   "genre": "ramen",
   "cash_only_flag": null,
   "payment_qr_accepted": null,
   "stationless_flag": null,
   "status": "active"
  },
  {
   "rk_id": "rk_pub_00187",
   "name": "中華料理 昇龍",
   "name_en": "Chukaryori Shoryu",
   "pref": "埼玉県",
   "pref_en": "Saitama",
   "city": "春日部市",
   "city_en": "Kasukabe Shi",
   "lat": 35.986996,
   "lng": 139.762329,
   "keito": [],
   "genre": "chinese",
   "cash_only_flag": null,
   "payment_qr_accepted": null,
   "stationless_flag": null,
   "status": "active"
  },
  {
   "rk_id": "rk_pub_00188",
   "name": "いってつ食堂",
   "name_en": "Ittetsu Shokudo",
   "pref": "埼玉県",
   "pref_en": "Saitama",
   "city": "本庄市",
   "city_en": "Honjo Shi",
   "lat": 36.228977,
   "lng": 139.190536,
   "keito": [],
   "genre": "ramen",
   "cash_only_flag": null,
   "payment_qr_accepted": null,
   "stationless_flag": null,
   "status": "active"
  },
  {
   "rk_id": "rk_pub_00189",
   "name": "ちゃーしゅうや武蔵 ピオニウォーク東松山店フロア1F",
   "name_en": "Chashuya Musashi Pioni Walk Higashimatsuyama Ten Floor 1F",
   "pref": "埼玉県",
   "pref_en": "Saitama",
   "city": "東松山市",
   "city_en": "Higashimatsuyama Shi",
   "lat": 36.005379,
   "lng": 139.410278,
   "keito": [],
   "genre": "ramen",
   "cash_only_flag": null,
   "payment_qr_accepted": null,
   "stationless_flag": null,
   "status": "active"
  },
  {
   "rk_id": "rk_pub_00190",
   "name": "玉川食堂",
   "name_en": "Tamagawa Shokudo",
   "pref": "埼玉県",
   "pref_en": "Saitama",
   "city": "比企郡ときがわ町",
   "city_en": "Hiki Gun Tokigawa Machi",
   "lat": 36.015957,
   "lng": 139.286774,
   "keito": [],
   "genre": "ramen",
   "cash_only_flag": null,
   "payment_qr_accepted": null,
   "stationless_flag": null,
   "status": "active"
  },
  {
   "rk_id": "rk_pub_00191",
   "name": "畔鐘",
   "name_en": "Azekane",
   "pref": "埼玉県",
   "pref_en": "Saitama",
   "city": "深谷市",
   "city_en": "Fukaya Shi",
   "lat": 36.232761,
   "lng": 139.270966,
   "keito": [],
   "genre": "ramen",
   "cash_only_flag": null,
   "payment_qr_accepted": null,
   "stationless_flag": null,
   "status": "active"
  },
  {
   "rk_id": "rk_pub_00192",
   "name": "ラーメン永華",
   "name_en": "Ramen Eika",
   "pref": "埼玉県",
   "pref_en": "Saitama",
   "city": "熊谷市",
   "city_en": "Kumagaya Shi",
   "lat": 36.187878,
   "lng": 139.369354,
   "keito": [],
   "genre": "ramen",
   "cash_only_flag": null,
   "payment_qr_accepted": null,
   "stationless_flag": null,
   "status": "active"
  },
  {
   "rk_id": "rk_pub_00193",
   "name": "台湾料理 美味居",
   "name_en": "Taiwan Ryori Bimi Kyo",
   "pref": "埼玉県",
   "pref_en": "Saitama",
   "city": "熊谷市",
   "city_en": "Kumagaya Shi",
   "lat": 36.114037,
   "lng": 139.336929,
   "keito": [],
   "genre": "chinese",
   "cash_only_flag": null,
   "payment_qr_accepted": null,
   "stationless_flag": null,
   "status": "active"
  },
  {
   "rk_id": "rk_pub_00194",
   "name": "バーミヤン 狭山下広瀬店",
   "name_en": "Bamiyan Sayama Shita Hirose Ten",
   "pref": "埼玉県",
   "pref_en": "Saitama",
   "city": "狭山市",
   "city_en": "Sayama Shi",
   "lat": 35.872875,
   "lng": 139.386353,
   "keito": [],
   "genre": "ramen",
   "cash_only_flag": null,
   "payment_qr_accepted": null,
   "stationless_flag": null,
   "status": "active"
  },
  {
   "rk_id": "rk_pub_00195",
   "name": "台湾料理 吉祥 秩父店",
   "name_en": "Taiwan Ryori Kichijo Chichibu Ten",
   "pref": "埼玉県",
   "pref_en": "Saitama",
   "city": "秩父市",
   "city_en": "Chichibu Shi",
   "lat": 35.974079,
   "lng": 139.068192,
   "keito": [],
   "genre": "chinese",
   "cash_only_flag": null,
   "payment_qr_accepted": null,
   "stationless_flag": null,
   "status": "active"
  },
  {
   "rk_id": "rk_pub_00196",
   "name": "麺食処 一心",
   "name_en": "Menshokudokoro Isshin",
   "pref": "埼玉県",
   "pref_en": "Saitama",
   "city": "羽生市",
   "city_en": "Hanyu Shi",
   "lat": 36.149651,
   "lng": 139.555115,
   "keito": [],
   "genre": "ramen",
   "cash_only_flag": null,
   "payment_qr_accepted": null,
   "stationless_flag": null,
   "status": "active"
  },
  {
   "rk_id": "rk_pub_00197",
   "name": "めん道楽 砂場",
   "name_en": "Men Doraku Sunaba",
   "pref": "埼玉県",
   "pref_en": "Saitama",
   "city": "草加市",
   "city_en": "Soka Shi",
   "lat": 35.807819,
   "lng": 139.782303,
   "keito": [],
   "genre": "ramen",
   "cash_only_flag": null,
   "payment_qr_accepted": null,
   "stationless_flag": null,
   "status": "active"
  },
  {
   "rk_id": "rk_pub_00198",
   "name": "ラー麺 ずんどう屋 草加VARIE店",
   "name_en": "Zundouya",
   "pref": "埼玉県",
   "pref_en": "Saitama",
   "city": "草加市",
   "city_en": "Soka Shi",
   "lat": 35.828461,
   "lng": 139.803345,
   "keito": [],
   "genre": "ramen",
   "cash_only_flag": false,
   "payment_qr_accepted": null,
   "stationless_flag": null,
   "status": "active"
  },
  {
   "rk_id": "rk_pub_00199",
   "name": "丸信ラーメン 行田店",
   "name_en": "Marushin Ramen Gyoda Ten",
   "pref": "埼玉県",
   "pref_en": "Saitama",
   "city": "行田市",
   "city_en": "Gyoda Shi",
   "lat": 36.159496,
   "lng": 139.473984,
   "keito": [],
   "genre": "ramen",
   "cash_only_flag": null,
   "payment_qr_accepted": null,
   "stationless_flag": null,
   "status": "active"
  },
  {
   "rk_id": "rk_pub_00200",
   "name": "日高屋 南越谷店",
   "name_en": "Hidakaya Minamikoshigaya Ten",
   "pref": "埼玉県",
   "pref_en": "Saitama",
   "city": "越谷市",
   "city_en": "Koshigaya Shi",
   "lat": 35.876678,
   "lng": 139.790588,
   "keito": [
    "shoyu"
   ],
   "genre": "ramen",
   "cash_only_flag": false,
   "payment_qr_accepted": null,
   "stationless_flag": null,
   "status": "active"
  },
  {
   "rk_id": "rk_pub_00201",
   "name": "魁力屋 越谷店",
   "name_en": "Kairikiya Koshigaya Ten",
   "pref": "埼玉県",
   "pref_en": "Saitama",
   "city": "越谷市",
   "city_en": "Koshigaya Shi",
   "lat": 35.87867,
   "lng": 139.827484,
   "keito": [
    "shoyu"
   ],
   "genre": "ramen",
   "cash_only_flag": false,
   "payment_qr_accepted": null,
   "stationless_flag": null,
   "status": "active"
  },
  {
   "rk_id": "rk_pub_00202",
   "name": "味噌らーめん棗",
   "name_en": "Miso Ramen Natsume",
   "pref": "埼玉県",
   "pref_en": "Saitama",
   "city": "越谷市",
   "city_en": "Koshigaya Shi",
   "lat": 35.859196,
   "lng": 139.796143,
   "keito": [
    "miso"
   ],
   "genre": "ramen",
   "cash_only_flag": null,
   "payment_qr_accepted": null,
   "stationless_flag": null,
   "status": "active"
  },
  {
   "rk_id": "rk_pub_00203",
   "name": "中華料理 天龍",
   "name_en": "Chukaryori Tenryu",
   "pref": "埼玉県",
   "pref_en": "Saitama",
   "city": "鴻巣市",
   "city_en": "Konosu Shi",
   "lat": 36.059917,
   "lng": 139.507202,
   "keito": [],
   "genre": "chinese",
   "cash_only_flag": null,
   "payment_qr_accepted": null,
   "stationless_flag": null,
   "status": "active"
  },
  {
   "rk_id": "rk_pub_00204",
   "name": "宝来軒 産業道路店",
   "name_en": "Horaiken Sangyodoro Ten",
   "pref": "大分県",
   "pref_en": "Oita",
   "city": "中津市",
   "city_en": "Nakatsu Shi",
   "lat": 33.598606,
   "lng": 131.214371,
   "keito": [],
   "genre": "ramen",
   "cash_only_flag": null,
   "payment_qr_accepted": null,
   "stationless_flag": null,
   "status": "active"
  },
  {
   "rk_id": "rk_pub_00205",
   "name": "台湾料理 昇龍",
   "name_en": "Taiwan Ryori Shoryu",
   "pref": "大分県",
   "pref_en": "Oita",
   "city": "別府市",
   "city_en": "Beppu Shi",
   "lat": 33.290394,
   "lng": 131.502533,
   "keito": [],
   "genre": "chinese",
   "cash_only_flag": null,
   "payment_qr_accepted": null,
   "stationless_flag": null,
   "status": "active"
  },
  {
   "rk_id": "rk_pub_00206",
   "name": "ラーメン　おいでやす",
   "name_en": "Ramen Oideyasu",
   "pref": "大分県",
   "pref_en": "Oita",
   "city": "別府市",
   "city_en": "Beppu Shi",
   "lat": 33.29861,
   "lng": 131.49565,
   "keito": [],
   "genre": "ramen",
   "cash_only_flag": null,
   "payment_qr_accepted": null,
   "stationless_flag": null,
   "status": "active"
  },
  {
   "rk_id": "rk_pub_00207",
   "name": "一骨一面 千代町店",
   "name_en": "Ikkotsu Ichimen Chiyocho Ten",
   "pref": "大分県",
   "pref_en": "Oita",
   "city": "大分市",
   "city_en": "Oita Shi",
   "lat": 33.242443,
   "lng": 131.603836,
   "keito": [],
   "genre": "ramen",
   "cash_only_flag": null,
   "payment_qr_accepted": null,
   "stationless_flag": null,
   "status": "active"
  },
  {
   "rk_id": "rk_pub_00208",
   "name": "来来亭 下郡店",
   "name_en": "Rairaitei Shimogori Ten",
   "pref": "大分県",
   "pref_en": "Oita",
   "city": "大分市",
   "city_en": "Oita Shi",
   "lat": 33.224621,
   "lng": 131.626785,
   "keito": [
    "shoyu"
   ],
   "genre": "ramen",
   "cash_only_flag": null,
   "payment_qr_accepted": null,
   "stationless_flag": null,
   "status": "active"
  },
  {
   "rk_id": "rk_pub_00209",
   "name": "元祖博多ラーメン 勝福 日田店",
   "name_en": "Ganso Hakata Ramen Shofuku Hita Ten",
   "pref": "大分県",
   "pref_en": "Oita",
   "city": "日田市",
   "city_en": "Hita Shi",
   "lat": 33.324516,
   "lng": 130.911102,
   "keito": [
    "tonkotsu"
   ],
   "genre": "ramen",
   "cash_only_flag": null,
   "payment_qr_accepted": null,
   "stationless_flag": null,
   "status": "active"
  },
  {
   "rk_id": "rk_pub_00210",
   "name": "和食さと 水無瀬店",
   "name_en": "Washoku Sato Minase Ten",
   "pref": "大阪府",
   "pref_en": "Osaka",
   "city": "三島郡島本町",
   "city_en": "Mishima Gun Shimamoto Cho",
   "lat": 34.877541,
   "lng": 135.668243,
   "keito": [],
   "genre": "ramen",
   "cash_only_flag": null,
   "payment_qr_accepted": null,
   "stationless_flag": null,
   "status": "active"
  },
  {
   "rk_id": "rk_pub_00211",
   "name": "らぁ麺 とっとこ",
   "name_en": "Ramen Tottoko",
   "pref": "大阪府",
   "pref_en": "Osaka",
   "city": "吹田市",
   "city_en": "Suita Shi",
   "lat": 34.78492,
   "lng": 135.537384,
   "keito": [],
   "genre": "ramen",
   "cash_only_flag": null,
   "payment_qr_accepted": null,
   "stationless_flag": null,
   "status": "active"
  },
  {
   "rk_id": "rk_pub_00212",
   "name": "千里山ラプソディー",
   "name_en": "Senriyama Rhapsody",
   "pref": "大阪府",
   "pref_en": "Osaka",
   "city": "吹田市",
   "city_en": "Suita Shi",
   "lat": 34.778828,
   "lng": 135.503738,
   "keito": [],
   "genre": "ramen",
   "cash_only_flag": null,
   "payment_qr_accepted": null,
   "stationless_flag": null,
   "status": "active"
  },
  {
   "rk_id": "rk_pub_00213",
   "name": "らーめん処 味門",
   "name_en": "Ramen Dokoro Ajimon",
   "pref": "大阪府",
   "pref_en": "Osaka",
   "city": "堺市中区",
   "city_en": "Sakai Shi Naka Ku",
   "lat": 34.547531,
   "lng": 135.509415,
   "keito": [],
   "genre": "ramen",
   "cash_only_flag": null,
   "payment_qr_accepted": null,
   "stationless_flag": null,
   "status": "active"
  },
  {
   "rk_id": "rk_pub_00214",
   "name": "ラーメン魁力屋 堺海山町店",
   "name_en": "Ramen Kairikiya Sakai Umiyama Machi Ten",
   "pref": "大阪府",
   "pref_en": "Osaka",
   "city": "堺市堺区",
   "city_en": "Sakai Shi Sakai Ku",
   "lat": 34.589256,
   "lng": 135.475052,
   "keito": [
    "shoyu"
   ],
   "genre": "ramen",
   "cash_only_flag": false,
   "payment_qr_accepted": null,
   "stationless_flag": null,
   "status": "active"
  },
  {
   "rk_id": "rk_pub_00215",
   "name": "陳麻婆豆腐 麺飯館 ららぽーと堺店",
   "name_en": "Chin Mabodofu Menhankan Lalaport Sakai Ten",
   "pref": "大阪府",
   "pref_en": "Osaka",
   "city": "堺市美原区",
   "city_en": "Sakai Shi Mihara Ku",
   "lat": 34.542019,
   "lng": 135.55838,
   "keito": [],
   "genre": "ramen",
   "cash_only_flag": null,
   "payment_qr_accepted": null,
   "stationless_flag": null,
   "status": "active"
  },
  {
   "rk_id": "rk_pub_00216",
   "name": "上本町 麺乃家",
   "name_en": "Uehonmachi Mennoya",
   "pref": "大阪府",
   "pref_en": "Osaka",
   "city": "大阪市中央区",
   "city_en": "Osaka Shi Chuo Ku",
   "lat": 34.66864,
   "lng": 135.519577,
   "keito": [
    "tonkotsu"
   ],
   "genre": "ramen",
   "cash_only_flag": null,
   "payment_qr_accepted": null,
   "stationless_flag": null,
   "status": "active"
  },
  {
   "rk_id": "rk_pub_00217",
   "name": "つけ麺専門店 三田製麺所 なんば店",
   "name_en": "Tsuke Men Senmonten Mita Seimenjo Nanba Ten",
   "pref": "大阪府",
   "pref_en": "Osaka",
   "city": "大阪市中央区",
   "city_en": "Osaka Shi Chuo Ku",
   "lat": 34.666168,
   "lng": 135.503174,
   "keito": [
    "tsukemen"
   ],
   "genre": "ramen",
   "cash_only_flag": false,
   "payment_qr_accepted": null,
   "stationless_flag": null,
   "status": "active"
  },
  {
   "rk_id": "rk_pub_00218",
   "name": "岡本商店 谷町店",
   "name_en": "Okamoto Shoten Tanimachi-ten",
   "pref": "大阪府",
   "pref_en": "Osaka",
   "city": "大阪市中央区",
   "city_en": "Osaka Shi Chuo Ku",
   "lat": 34.687294,
   "lng": 135.517517,
   "keito": [],
   "genre": "ramen",
   "cash_only_flag": null,
   "payment_qr_accepted": null,
   "stationless_flag": null,
   "status": "active"
  },
  {
   "rk_id": "rk_pub_00219",
   "name": "カドヤ食堂 クリスタ長堀店",
   "name_en": "Kadoya Shokudo Crysta Nagahori Ten",
   "pref": "大阪府",
   "pref_en": "Osaka",
   "city": "大阪市中央区",
   "city_en": "Osaka Shi Chuo Ku",
   "lat": 34.676491,
   "lng": 135.504868,
   "keito": [],
   "genre": "ramen",
   "cash_only_flag": null,
   "payment_qr_accepted": null,
   "stationless_flag": null,
   "status": "active"
  },
  {
   "rk_id": "rk_pub_00220",
   "name": "一夢庵 麺",
   "name_en": "Ichimuan Men",
   "pref": "大阪府",
   "pref_en": "Osaka",
   "city": "大阪市中央区",
   "city_en": "Osaka Shi Chuo Ku",
   "lat": 34.671055,
   "lng": 135.505157,
   "keito": [],
   "genre": "ramen",
   "cash_only_flag": null,
   "payment_qr_accepted": null,
   "stationless_flag": null,
   "status": "active"
  },
  {
   "rk_id": "rk_pub_00221",
   "name": "豚ガラ中華そば おんだ",
   "name_en": "Buta Gara Chuka Soba Onda",
   "pref": "大阪府",
   "pref_en": "Osaka",
   "city": "大阪市中央区",
   "city_en": "Osaka Shi Chuo Ku",
   "lat": 34.686584,
   "lng": 135.516937,
   "keito": [
    "shoyu"
   ],
   "genre": "ramen",
   "cash_only_flag": null,
   "payment_qr_accepted": null,
   "stationless_flag": null,
   "status": "active"
  },
  {
   "rk_id": "rk_pub_00222",
   "name": "つじ田 心斎橋店",
   "name_en": "Tsujita Shinsaibashi Ten",
   "pref": "大阪府",
   "pref_en": "Osaka",
   "city": "大阪市中央区",
   "city_en": "Osaka Shi Chuo Ku",
   "lat": 34.677628,
   "lng": 135.501282,
   "keito": [],
   "genre": "ramen",
   "cash_only_flag": null,
   "payment_qr_accepted": null,
   "stationless_flag": null,
   "status": "active"
  },
  {
   "rk_id": "rk_pub_00223",
   "name": "麺屋 壱",
   "name_en": "Menya Ichi",
   "pref": "大阪府",
   "pref_en": "Osaka",
   "city": "大阪市住吉区",
   "city_en": "Osaka Shi Sumiyoshi Ku",
   "lat": 34.611568,
   "lng": 135.513321,
   "keito": [],
   "genre": "ramen",
   "cash_only_flag": null,
   "payment_qr_accepted": null,
   "stationless_flag": null,
   "status": "active"
  },
  {
   "rk_id": "rk_pub_00224",
   "name": "つけ麺処 つぼや 梅田店",
   "name_en": "Tsukemen Dokoro Tsuboya Umeda Ten",
   "pref": "大阪府",
   "pref_en": "Osaka",
   "city": "大阪市北区",
   "city_en": "Osaka Shi Kita Ku",
   "lat": 34.698498,
   "lng": 135.50177,
   "keito": [
    "tsukemen"
   ],
   "genre": "ramen",
   "cash_only_flag": null,
   "payment_qr_accepted": null,
   "stationless_flag": null,
   "status": "active"
  },
  {
   "rk_id": "rk_pub_00225",
   "name": "花舎",
   "name_en": "Hanasha",
   "pref": "大阪府",
   "pref_en": "Osaka",
   "city": "大阪市北区",
   "city_en": "Osaka Shi Kita Ku",
   "lat": 34.710911,
   "lng": 135.495102,
   "keito": [],
   "genre": "ramen",
   "cash_only_flag": null,
   "payment_qr_accepted": null,
   "stationless_flag": null,
   "status": "active"
  },
  {
   "rk_id": "rk_pub_00226",
   "name": "まいてりあ",
   "name_en": "Maiteria",
   "pref": "大阪府",
   "pref_en": "Osaka",
   "city": "大阪市北区",
   "city_en": "Osaka Shi Kita Ku",
   "lat": 34.697933,
   "lng": 135.490692,
   "keito": [],
   "genre": "ramen",
   "cash_only_flag": null,
   "payment_qr_accepted": null,
   "stationless_flag": null,
   "status": "active"
  },
  {
   "rk_id": "rk_pub_00227",
   "name": "麺や小とり東梅田",
   "name_en": "Men Ya Kotori Higashi Umeda",
   "pref": "大阪府",
   "pref_en": "Osaka",
   "city": "大阪市北区",
   "city_en": "Osaka Shi Kita Ku",
   "lat": 34.70113,
   "lng": 135.502899,
   "keito": [],
   "genre": "ramen",
   "cash_only_flag": null,
   "payment_qr_accepted": null,
   "stationless_flag": null,
   "status": "active"
  },
  {
   "rk_id": "rk_pub_00228",
   "name": "天満天神飯店",
   "name_en": "Tenma Tenjin Hanten",
   "pref": "大阪府",
   "pref_en": "Osaka",
   "city": "大阪市北区",
   "city_en": "Osaka Shi Kita Ku",
   "lat": 34.700516,
   "lng": 135.511505,
   "keito": [],
   "genre": "chinese",
   "cash_only_flag": null,
   "payment_qr_accepted": null,
   "stationless_flag": null,
   "status": "active"
  },
  {
   "rk_id": "rk_pub_00229",
   "name": "ラーメン男塾！！ 蒲生四丁目店",
   "name_en": "Ramen Otokojuku Gamo Yonchome Ten",
   "pref": "大阪府",
   "pref_en": "Osaka",
   "city": "大阪市城東区",
   "city_en": "Osaka Shi Joto Ku",
   "lat": 34.700802,
   "lng": 135.546448,
   "keito": [],
   "genre": "ramen",
   "cash_only_flag": null,
   "payment_qr_accepted": null,
   "stationless_flag": null,
   "status": "active"
  },
  {
   "rk_id": "rk_pub_00230",
   "name": "らぁめん こらぼるた",
   "name_en": "Ramen Koraboruta",
   "pref": "大阪府",
   "pref_en": "Osaka",
   "city": "大阪市天王寺区",
   "city_en": "Osaka Shi Tennoji Ku",
   "lat": 34.663063,
   "lng": 135.515259,
   "keito": [],
   "genre": "ramen",
   "cash_only_flag": null,
   "payment_qr_accepted": null,
   "stationless_flag": null,
   "status": "active"
  },
  {
   "rk_id": "rk_pub_00231",
   "name": "丸つけ麺",
   "name_en": "Maru Tsukemen",
   "pref": "大阪府",
   "pref_en": "Osaka",
   "city": "大阪市平野区",
   "city_en": "Osaka Shi Hirano Ku",
   "lat": 34.621071,
   "lng": 135.542206,
   "keito": [
    "tsukemen"
   ],
   "genre": "ramen",
   "cash_only_flag": null,
   "payment_qr_accepted": null,
   "stationless_flag": null,
   "status": "active"
  },
  {
   "rk_id": "rk_pub_00232",
   "name": "men+",
   "name_en": "men+",
   "pref": "大阪府",
   "pref_en": "Osaka",
   "city": "大阪市東住吉区",
   "city_en": "Osaka Shi Higashisumiyoshi Ku",
   "lat": 34.621574,
   "lng": 135.528717,
   "keito": [],
   "genre": "ramen",
   "cash_only_flag": null,
   "payment_qr_accepted": null,
   "stationless_flag": null,
   "status": "active"
  },
  {
   "rk_id": "rk_pub_00233",
   "name": "KÜCHE",
   "name_en": "KÜCHE",
   "pref": "大阪府",
   "pref_en": "Osaka",
   "city": "大阪市東淀川区",
   "city_en": "Osaka Shi Higashiyodogawa Ku",
   "lat": 34.747993,
   "lng": 135.535828,
   "keito": [],
   "genre": "ramen",
   "cash_only_flag": null,
   "payment_qr_accepted": null,
   "stationless_flag": null,
   "status": "active"
  },
  {
   "rk_id": "rk_pub_00234",
   "name": "麺屋 帆のる 大阪なんば店",
   "name_en": "Menya Ho Noru Osaka Nanba Ten",
   "pref": "大阪府",
   "pref_en": "Osaka",
   "city": "大阪市浪速区",
   "city_en": "Osaka Shi Naniwa Ku",
   "lat": 34.66246,
   "lng": 135.495621,
   "keito": [],
   "genre": "ramen",
   "cash_only_flag": null,
   "payment_qr_accepted": null,
   "stationless_flag": null,
   "status": "active"
  },
  {
   "rk_id": "rk_pub_00235",
   "name": "麺匠はなみち 東三国店",
   "name_en": "Mensho Hanamichi Higashi Mikuni Ten",
   "pref": "大阪府",
   "pref_en": "Osaka",
   "city": "大阪市淀川区",
   "city_en": "Osaka Shi Yodogawa Ku",
   "lat": 34.74131,
   "lng": 135.498154,
   "keito": [],
   "genre": "ramen",
   "cash_only_flag": null,
   "payment_qr_accepted": null,
   "stationless_flag": null,
   "status": "active"
  },
  {
   "rk_id": "rk_pub_00236",
   "name": "つけ麺 R&S 隆勝 -RYUSHO-",
   "name_en": "Tsukemen R&S Ryusho",
   "pref": "大阪府",
   "pref_en": "Osaka",
   "city": "大阪市淀川区",
   "city_en": "Osaka Shi Yodogawa Ku",
   "lat": 34.740322,
   "lng": 135.494537,
   "keito": [
    "tsukemen"
   ],
   "genre": "ramen",
   "cash_only_flag": null,
   "payment_qr_accepted": null,
   "stationless_flag": null,
   "status": "active"
  },
  {
   "rk_id": "rk_pub_00237",
   "name": "まぜそば隆勝",
   "name_en": "Mazesoba Takakatsu",
   "pref": "大阪府",
   "pref_en": "Osaka",
   "city": "大阪市淀川区",
   "city_en": "Osaka Shi Yodogawa Ku",
   "lat": 34.734833,
   "lng": 135.490295,
   "keito": [
    "other"
   ],
   "genre": "ramen",
   "cash_only_flag": null,
   "payment_qr_accepted": null,
   "stationless_flag": null,
   "status": "active"
  },
  {
   "rk_id": "rk_pub_00238",
   "name": "鶏に恋した日 寺田町店",
   "name_en": "Niwatori ni Koishita Hi Teradacho Ten",
   "pref": "大阪府",
   "pref_en": "Osaka",
   "city": "大阪市生野区",
   "city_en": "Osaka Shi Ikuno Ku",
   "lat": 34.648563,
   "lng": 135.524292,
   "keito": [],
   "genre": "ramen",
   "cash_only_flag": null,
   "payment_qr_accepted": null,
   "stationless_flag": null,
   "status": "active"
  },
  {
   "rk_id": "rk_pub_00239",
   "name": "がんばれ ホウライ",
   "name_en": "Ganbare Horai",
   "pref": "大阪府",
   "pref_en": "Osaka",
   "city": "大阪市西区",
   "city_en": "Osaka Shi Nishi Ku",
   "lat": 34.672009,
   "lng": 135.490417,
   "keito": [],
   "genre": "ramen",
   "cash_only_flag": null,
   "payment_qr_accepted": null,
   "stationless_flag": null,
   "status": "active"
  },
  {
   "rk_id": "rk_pub_00240",
   "name": "かしや",
   "name_en": "Kashiya",
   "pref": "大阪府",
   "pref_en": "Osaka",
   "city": "大阪市西成区",
   "city_en": "Osaka Shi Nishinari Ku",
   "lat": 34.626038,
   "lng": 135.491501,
   "keito": [],
   "genre": "ramen",
   "cash_only_flag": null,
   "payment_qr_accepted": null,
   "stationless_flag": null,
   "status": "active"
  },
  {
   "rk_id": "rk_pub_00241",
   "name": "格安王将 都島店",
   "name_en": "Kakuyasu Osho Miyakojima Ten",
   "pref": "大阪府",
   "pref_en": "Osaka",
   "city": "大阪市都島区",
   "city_en": "Osaka Shi Miyakojima Ku",
   "lat": 34.708862,
   "lng": 135.531448,
   "keito": [],
   "genre": "ramen",
   "cash_only_flag": null,
   "payment_qr_accepted": null,
   "stationless_flag": null,
   "status": "active"
  },
  {
   "rk_id": "rk_pub_00242",
   "name": "ラーメン まる五",
   "name_en": "Ramen Maru Go",
   "pref": "大阪府",
   "pref_en": "Osaka",
   "city": "大阪市阿倍野区",
   "city_en": "Osaka Shi Abeno Ku",
   "lat": 34.646828,
   "lng": 135.52269,
   "keito": [],
   "genre": "ramen",
   "cash_only_flag": null,
   "payment_qr_accepted": null,
   "stationless_flag": null,
   "status": "active"
  },
  {
   "rk_id": "rk_pub_00243",
   "name": "にんじん",
   "name_en": "Ninjin",
   "pref": "大阪府",
   "pref_en": "Osaka",
   "city": "守口市",
   "city_en": "Moriguchi Shi",
   "lat": 34.722824,
   "lng": 135.565186,
   "keito": [],
   "genre": "ramen",
   "cash_only_flag": null,
   "payment_qr_accepted": null,
   "stationless_flag": null,
   "status": "active"
  },
  {
   "rk_id": "rk_pub_00244",
   "name": "麺屋 一照",
   "name_en": "Menya Issho",
   "pref": "大阪府",
   "pref_en": "Osaka",
   "city": "寝屋川市",
   "city_en": "Neyagawa Shi",
   "lat": 34.765167,
   "lng": 135.618561,
   "keito": [],
   "genre": "ramen",
   "cash_only_flag": null,
   "payment_qr_accepted": null,
   "stationless_flag": null,
   "status": "active"
  },
  {
   "rk_id": "rk_pub_00245",
   "name": "中華料理 四川屋 一創",
   "name_en": "Chuka Ryori Shisenya Ichiso",
   "pref": "大阪府",
   "pref_en": "Osaka",
   "city": "摂津市",
   "city_en": "Settsu Shi",
   "lat": 34.777184,
   "lng": 135.548141,
   "keito": [],
   "genre": "chinese",
   "cash_only_flag": null,
   "payment_qr_accepted": null,
   "stationless_flag": null,
   "status": "active"
  },
  {
   "rk_id": "rk_pub_00246",
   "name": "河童ラーメン本舗 東大阪店",
   "name_en": "Kappa Ramen Honpo Higashiosaka Ten",
   "pref": "大阪府",
   "pref_en": "Osaka",
   "city": "東大阪市",
   "city_en": "Higashiosaka Shi",
   "lat": 34.673413,
   "lng": 135.590179,
   "keito": [],
   "genre": "ramen",
   "cash_only_flag": false,
   "payment_qr_accepted": null,
   "stationless_flag": null,
   "status": "active"
  },
  {
   "rk_id": "rk_pub_00247",
   "name": "麺処 茶茶",
   "name_en": "Mendokoro Chacha",
   "pref": "大阪府",
   "pref_en": "Osaka",
   "city": "東大阪市",
   "city_en": "Higashiosaka Shi",
   "lat": 34.654335,
   "lng": 135.624329,
   "keito": [],
   "genre": "ramen",
   "cash_only_flag": null,
   "payment_qr_accepted": null,
   "stationless_flag": null,
   "status": "active"
  },
  {
   "rk_id": "rk_pub_00248",
   "name": "釈迦力 雄",
   "name_en": "Shakariki Yuu",
   "pref": "大阪府",
   "pref_en": "Osaka",
   "city": "松原市",
   "city_en": "Matsubara Shi",
   "lat": 34.586845,
   "lng": 135.550491,
   "keito": [],
   "genre": "ramen",
   "cash_only_flag": null,
   "payment_qr_accepted": null,
   "stationless_flag": null,
   "status": "active"
  },
  {
   "rk_id": "rk_pub_00249",
   "name": "三豊麺 枚方店",
   "name_en": "Mitoyomen Hirakata Ten",
   "pref": "大阪府",
   "pref_en": "Osaka",
   "city": "枚方市",
   "city_en": "Hirakata Shi",
   "lat": 34.814342,
   "lng": 135.669815,
   "keito": [],
   "genre": "ramen",
   "cash_only_flag": false,
   "payment_qr_accepted": null,
   "stationless_flag": null,
   "status": "active"
  },
  {
   "rk_id": "rk_pub_00250",
   "name": "ラーメンASAHI",
   "name_en": "Ramen Asahi",
   "pref": "大阪府",
   "pref_en": "Osaka",
   "city": "泉佐野市",
   "city_en": "Izumisano Shi",
   "lat": 34.411228,
   "lng": 135.318695,
   "keito": [],
   "genre": "ramen",
   "cash_only_flag": null,
   "payment_qr_accepted": null,
   "stationless_flag": null,
   "status": "active"
  },
  {
   "rk_id": "rk_pub_00251",
   "name": "鯛らーめん 鯛めし 佐用",
   "name_en": "Tai Ramen Tai Meshi Sayo",
   "pref": "大阪府",
   "pref_en": "Osaka",
   "city": "箕面市",
   "city_en": "Mino Shi",
   "lat": 34.816154,
   "lng": 135.461929,
   "keito": [],
   "genre": "ramen",
   "cash_only_flag": null,
   "payment_qr_accepted": null,
   "stationless_flag": null,
   "status": "active"
  },
  {
   "rk_id": "rk_pub_00252",
   "name": "らーめん とら家",
   "name_en": "Ramen Toraya",
   "pref": "大阪府",
   "pref_en": "Osaka",
   "city": "茨木市",
   "city_en": "Ibaraki Shi",
   "lat": 34.826237,
   "lng": 135.584396,
   "keito": [
    "tonkotsu"
   ],
   "genre": "ramen",
   "cash_only_flag": null,
   "payment_qr_accepted": null,
   "stationless_flag": null,
   "status": "active"
  },
  {
   "rk_id": "rk_pub_00253",
   "name": "博多ラーメン げんこつ 豊中南店",
   "name_en": "Hakata Ramen Genkotsu Toyonaka Minami Ten",
   "pref": "大阪府",
   "pref_en": "Osaka",
   "city": "豊中市",
   "city_en": "Toyonaka Shi",
   "lat": 34.762238,
   "lng": 135.461838,
   "keito": [
    "tonkotsu"
   ],
   "genre": "ramen",
   "cash_only_flag": null,
   "payment_qr_accepted": null,
   "stationless_flag": null,
   "status": "active"
  },
  {
   "rk_id": "rk_pub_00254",
   "name": "旭川ラーメン",
   "name_en": "Asahikawa Ramen",
   "pref": "大阪府",
   "pref_en": "Osaka",
   "city": "貝塚市",
   "city_en": "Kaizuka Shi",
   "lat": 34.443424,
   "lng": 135.352234,
   "keito": [],
   "genre": "ramen",
   "cash_only_flag": null,
   "payment_qr_accepted": null,
   "stationless_flag": null,
   "status": "active"
  },