{
 "_note": "REAL 1,000-row sample from the Japan Ramen Active Master (62,173 active). IDs are public masks (internal keys withheld). name_en/pref_en/city_en let you query fully in English. keito is the coarse public enum (tonkotsu/miso/shoyu/shio/tsukemen/spicy/other). payment_qr_accepted / stationless are enriched in the live API only. No canary records.",
 "_attribution": "Store facts observed from public web ramen listings; licensing-verified records from Japanese municipality open data (© municipality open data, CC BY). Derived values (keito, romanization, station distance) © gachi-tokusuru.com.",
 "schema_version": "1.2.0",
 "sample_count": 1000,
 "master_count": 62173,
 "shops": [
  {
   "rk_id": "rk_pub_00001",
   "name": "らーめん たべ亭",
   "name_en": "Ramen Tabetei",
   "pref": "三重県",
   "pref_en": "Mie",
   "city": "いなべ市",
   "city_en": "Inabe Shi",
   "lat": 35.150902,
   "lng": 136.510727,
   "keito": [],
   "genre": "ramen",
   "cash_only_flag": null,
   "payment_qr_accepted": null,
   "stationless_flag": null,
   "status": "active"
  },
  {
   "rk_id": "rk_pub_00002",
   "name": "ル・シノワ 花栞",
   "name_en": "Le Chinois Hana Shiori",
   "pref": "三重県",
   "pref_en": "Mie",
   "city": "伊勢市",
   "city_en": "Ise Shi",
   "lat": 34.507648,
   "lng": 136.780991,
   "keito": [],
   "genre": "ramen",
   "cash_only_flag": null,
   "payment_qr_accepted": null,
   "stationless_flag": null,
   "status": "active"
  },
  {
   "rk_id": "rk_pub_00003",
   "name": "台湾ラーメン盛華",
   "name_en": "Taiwan Ramen Seika",
   "pref": "三重県",
   "pref_en": "Mie",
   "city": "員弁郡東員町",
   "city_en": "Inabe Gun Toin Machi",
   "lat": 35.081764,
   "lng": 136.603973,
   "keito": [],
   "genre": "ramen",
   "cash_only_flag": null,
   "payment_qr_accepted": null,
   "stationless_flag": null,
   "status": "active"
  },
  {
   "rk_id": "rk_pub_00004",
   "name": "麺屋 こころ 四日市店",
   "name_en": "Menya Kokoro Yokkaichi Ten",
   "pref": "三重県",
   "pref_en": "Mie",
   "city": "四日市",
   "city_en": "Yokkaichi",
   "lat": 34.966282,
   "lng": 136.621475,
   "keito": [],
   "genre": "ramen",
   "cash_only_flag": null,
   "payment_qr_accepted": null,
   "stationless_flag": null,
   "status": "active"
  },
  {
   "rk_id": "rk_pub_00005",
   "name": "辛麺屋　鯱輪四日市富田駅前店",
   "name_en": "Shin Men Ya Shachirin Yokkaichi Tomita Ekimae Ten",
   "pref": "三重県",
   "pref_en": "Mie",
   "city": "四日市",
   "city_en": "Yokkaichi",
   "lat": 35.006981,
   "lng": 136.650024,
   "keito": [],
   "genre": "ramen",
   "cash_only_flag": null,
   "payment_qr_accepted": null,
   "stationless_flag": null,
   "status": "active"
  },
  {
   "rk_id": "rk_pub_00006",
   "name": "中国菜館 明華",
   "name_en": "Chugoku Saikan Meika",
   "pref": "三重県",
   "pref_en": "Mie",
   "city": "松阪市",
   "city_en": "Matsusaka Shi",
   "lat": 34.550728,
   "lng": 136.519226,
   "keito": [],
   "genre": "ramen",
   "cash_only_flag": null,
   "payment_qr_accepted": null,
   "stationless_flag": null,
   "status": "active"
  },
  {
   "rk_id": "rk_pub_00007",
   "name": "ラーメン天風 長島店",
   "name_en": "Ramen Tenpu Nagashima Ten",
   "pref": "三重県",
   "pref_en": "Mie",
   "city": "桑名市",
   "city_en": "Kuwana Shi",
   "lat": 35.095234,
   "lng": 136.703842,
   "keito": [],
   "genre": "ramen",
   "cash_only_flag": null,
   "payment_qr_accepted": null,
   "stationless_flag": null,
   "status": "active"
  },
  {
   "rk_id": "rk_pub_00008",
   "name": "元祖中洲屋台 一竜",
   "name_en": "Ganso Nakasu Yatai Ichiryu",
   "pref": "三重県",
   "pref_en": "Mie",
   "city": "津市",
   "city_en": "Tsu Shi",
   "lat": 34.678322,
   "lng": 136.517288,
   "keito": [],
   "genre": "ramen",
   "cash_only_flag": null,
   "payment_qr_accepted": null,
   "stationless_flag": null,
   "status": "active"
  },
  {
   "rk_id": "rk_pub_00009",
   "name": "ベビースターダイニング",
   "name_en": "Baby Star Dining",
   "pref": "三重県",
   "pref_en": "Mie",
   "city": "津市",
   "city_en": "Tsu Shi",
   "lat": 34.684879,
   "lng": 136.421204,
   "keito": [],
   "genre": "ramen",
   "cash_only_flag": null,
   "payment_qr_accepted": null,
   "stationless_flag": null,
   "status": "active"
  },
  {
   "rk_id": "rk_pub_00010",
   "name": "中華そば大林",
   "name_en": "Chuka Soba Obayashi",
   "pref": "三重県",
   "pref_en": "Mie",
   "city": "鈴鹿市",
   "city_en": "Suzuka Shi",
   "lat": 34.855713,
   "lng": 136.540802,
   "keito": [
    "shoyu"
   ],
   "genre": "ramen",
   "cash_only_flag": null,
   "payment_qr_accepted": null,
   "stationless_flag": null,
   "status": "active"
  },
  {
   "rk_id": "rk_pub_00011",
   "name": "元祖第一旭 久御山店",
   "name_en": "Ganso Daiichi Asahi Kumiyama Ten",
   "pref": "京都府",
   "pref_en": "Kyoto",
   "city": "久世郡久御山町",
   "city_en": "Kuze Gun Kumiyama Machi",
   "lat": 34.874767,
   "lng": 135.754623,
   "keito": [],
   "genre": "ramen",
   "cash_only_flag": null,
   "payment_qr_accepted": null,
   "stationless_flag": null,
   "status": "active"
  },
  {
   "rk_id": "rk_pub_00012",
   "name": "チャーミングチャーハン 今出川店",
   "name_en": "Charming Chahan Imadegawa Ten",
   "pref": "京都府",
   "pref_en": "Kyoto",
   "city": "京都市上京区",
   "city_en": "Kyoto Shi Jokyo Ku",
   "lat": 35.029438,
   "lng": 135.740433,
   "keito": [],
   "genre": "ramen",
   "cash_only_flag": null,
   "payment_qr_accepted": null,
   "stationless_flag": null,
   "status": "active"
  },
  {
   "rk_id": "rk_pub_00013",
   "name": "天然温泉 花蛍の湯 ドーミーインPREMIUM京都駅前",
   "name_en": "Tennen Onsen Hana Hotaru No Yu Domiin Premium Kyotoekimae",
   "pref": "京都府",
   "pref_en": "Kyoto",
   "city": "京都市下京区",
   "city_en": "Kyoto Shi Shimogyo Ku",
   "lat": 34.987415,
   "lng": 135.761673,
   "keito": [],
   "genre": "ramen",
   "cash_only_flag": null,
   "payment_qr_accepted": null,
   "stationless_flag": null,
   "status": "active"
  },
  {
   "rk_id": "rk_pub_00014",
   "name": "柚子元 京都先斗町店",
   "name_en": "Yuzumoto Kyoto Pontocho Ten",
   "pref": "京都府",
   "pref_en": "Kyoto",
   "city": "京都市中京区",
   "city_en": "Kyoto Shi Chukyo Ku",
   "lat": 35.004963,
   "lng": 135.770828,
   "keito": [],
   "genre": "ramen",
   "cash_only_flag": null,
   "payment_qr_accepted": null,
   "stationless_flag": null,
   "status": "active"
  },
  {
   "rk_id": "rk_pub_00015",
   "name": "麺処 虵の目屋",
   "name_en": "Mendokoro Janomeya",
   "pref": "京都府",
   "pref_en": "Kyoto",
   "city": "京都市中京区",
   "city_en": "Kyoto Shi Chukyo Ku",
   "lat": 35.004189,
   "lng": 135.767471,
   "keito": [],
   "genre": "ramen",
   "cash_only_flag": null,
   "payment_qr_accepted": null,
   "stationless_flag": null,
   "status": "active"
  },
  {
   "rk_id": "rk_pub_00016",
   "name": "特製ラーメン 大中 伏見店",
   "name_en": "Tokusei Ramen Daichu Fushimi Ten",
   "pref": "京都府",
   "pref_en": "Kyoto",
   "city": "京都市伏見区",
   "city_en": "Kyoto Shi Fushimi Ku",
   "lat": 34.932819,
   "lng": 135.765747,
   "keito": [],
   "genre": "ramen",
   "cash_only_flag": null,
   "payment_qr_accepted": null,
   "stationless_flag": null,
   "status": "active"
  },
  {
   "rk_id": "rk_pub_00017",
   "name": "バーミヤン 京都新堀川店",
   "name_en": "Bamiyan Kyoto Shinborikawa Ten",
   "pref": "京都府",
   "pref_en": "Kyoto",
   "city": "京都市伏見区",
   "city_en": "Kyoto Shi Fushimi Ku",
   "lat": 34.94265,
   "lng": 135.750763,
   "keito": [],
   "genre": "ramen",
   "cash_only_flag": null,
   "payment_qr_accepted": null,
   "stationless_flag": null,
   "status": "active"
  },
  {
   "rk_id": "rk_pub_00018",
   "name": "ラーメン藤 京都本店",
   "name_en": "Ramen Fuji Kyoto Honten",
   "pref": "京都府",
   "pref_en": "Kyoto",
   "city": "京都市南区",
   "city_en": "Kyoto Shi Minami Ku",
   "lat": 34.970947,
   "lng": 135.760178,
   "keito": [],
   "genre": "ramen",
   "cash_only_flag": null,
   "payment_qr_accepted": null,
   "stationless_flag": null,
   "status": "active"
  },
  {
   "rk_id": "rk_pub_00019",
   "name": "かみのばし 大栄",
   "name_en": "Kaminobashi Daiei",
   "pref": "京都府",
   "pref_en": "Kyoto",
   "city": "京都市右京区",
   "city_en": "Kyoto Shi Ukyo Ku",
   "lat": 35.001064,
   "lng": 135.708618,
   "keito": [],
   "genre": "ramen",
   "cash_only_flag": null,
   "payment_qr_accepted": null,
   "stationless_flag": null,
   "status": "active"
  },
  {
   "rk_id": "rk_pub_00020",
   "name": "中華そば おにぎり ◯△",
   "name_en": "Chuka Soba Onigiri",
   "pref": "京都府",
   "pref_en": "Kyoto",
   "city": "京都市山科区",
   "city_en": "Kyoto Shi Yamashina Ku",
   "lat": 34.99007,
   "lng": 135.81633,
   "keito": [
    "shoyu"
   ],
   "genre": "ramen",
   "cash_only_flag": null,
   "payment_qr_accepted": null,
   "stationless_flag": null,
   "status": "active"
  },
  {
   "rk_id": "rk_pub_00021",
   "name": "麺屋 神楽",
   "name_en": "Menya Kagura",
   "pref": "京都府",
   "pref_en": "Kyoto",
   "city": "京都市左京区",
   "city_en": "Kyoto Shi Sakyo Ku",
   "lat": 35.028294,
   "lng": 135.788422,
   "keito": [],
   "genre": "ramen",
   "cash_only_flag": null,
   "payment_qr_accepted": null,
   "stationless_flag": null,
   "status": "active"
  },
  {
   "rk_id": "rk_pub_00022",
   "name": "廣東料理 平安",
   "name_en": "Kanton Ryori Heian",
   "pref": "京都府",
   "pref_en": "Kyoto",
   "city": "京都市東山区",
   "city_en": "Kyoto Shi Higashiyama Ku",
   "lat": 35.004295,
   "lng": 135.773697,
   "keito": [],
   "genre": "ramen",
   "cash_only_flag": null,
   "payment_qr_accepted": null,
   "stationless_flag": null,
   "status": "active"
  },
  {
   "rk_id": "rk_pub_00023",
   "name": "麺屋 たけ井 本店",
   "name_en": "Men'ya Takei Honten",
   "pref": "京都府",
   "pref_en": "Kyoto",
   "city": "城陽市",
   "city_en": "Joyo Shi",
   "lat": 34.83569,
   "lng": 135.791275,
   "keito": [],
   "genre": "ramen",
   "cash_only_flag": null,
   "payment_qr_accepted": null,
   "stationless_flag": null,
   "status": "active"
  },
  {
   "rk_id": "rk_pub_00024",
   "name": "とんこつラーメン 長浜一番",
   "name_en": "Tonkotsu Ramen Nagahama Ichiban",
   "pref": "京都府",
   "pref_en": "Kyoto",
   "city": "福知山市",
   "city_en": "Fukuchiyama Shi",
   "lat": 35.323223,
   "lng": 134.935516,
   "keito": [
    "tonkotsu"
   ],
   "genre": "ramen",
   "cash_only_flag": null,
   "payment_qr_accepted": null,
   "stationless_flag": null,
   "status": "active"
  },
  {
   "rk_id": "rk_pub_00025",
   "name": "餃子の王将 みやき店",
   "name_en": "Gyoza No Osho Miyaki Ten",
   "pref": "佐賀県",
   "pref_en": "Saga",
   "city": "三養基郡みやき町",
   "city_en": "Miyaki Gun Miyaki Machi",
   "lat": 33.328598,
   "lng": 130.469131,
   "keito": [],
   "genre": "chinese",
   "cash_only_flag": null,
   "payment_qr_accepted": null,
   "stationless_flag": null,
   "status": "active"
  },
  {
   "rk_id": "rk_pub_00026",
   "name": "明日香 大和店",
   "name_en": "Asuka Yamato Ten",
   "pref": "佐賀県",
   "pref_en": "Saga",
   "city": "佐賀市",
   "city_en": "Saga Shi",
   "lat": 33.310852,
   "lng": 130.276749,
   "keito": [],
   "genre": "ramen",
   "cash_only_flag": null,
   "payment_qr_accepted": null,
   "stationless_flag": null,
   "status": "active"
  },
  {
   "rk_id": "rk_pub_00027",
   "name": "らぁ麺 むらまさ 唐津本店",
   "name_en": "Ramen Muramasa Karatsu Honten",
   "pref": "佐賀県",
   "pref_en": "Saga",
   "city": "唐津市",
   "city_en": "Karatsu Shi",
   "lat": 33.44994,
   "lng": 129.957611,
   "keito": [],
   "genre": "ramen",
   "cash_only_flag": null,
   "payment_qr_accepted": null,
   "stationless_flag": null,
   "status": "active"
  },
  {
   "rk_id": "rk_pub_00028",
   "name": "食堂美都",
   "name_en": "Shokudo Mito",
   "pref": "佐賀県",
   "pref_en": "Saga",
   "city": "杵島郡白石町",
   "city_en": "Kine Shima Gun Shiroishi Machi",
   "lat": 33.182983,
   "lng": 130.141113,
   "keito": [],
   "genre": "ramen",
   "cash_only_flag": null,
   "payment_qr_accepted": null,
   "stationless_flag": null,
   "status": "active"
  },
  {
   "rk_id": "rk_pub_00029",
   "name": "麺場 田所商店 鳥栖店",
   "name_en": "Menba Tadokoro Shoten Tosu Ten",
   "pref": "佐賀県",
   "pref_en": "Saga",
   "city": "鳥栖市",
   "city_en": "Tosu Shi",
   "lat": 33.373123,
   "lng": 130.498169,
   "keito": [
    "miso"
   ],
   "genre": "ramen",
   "cash_only_flag": false,
   "payment_qr_accepted": null,
   "stationless_flag": null,
   "status": "active"
  },
  {
   "rk_id": "rk_pub_00030",
   "name": "ハルピン味噌ラーメン 大蔵 三田店",
   "name_en": "Harbin Miso Ramen Okura Mita Ten",
   "pref": "兵庫県",
   "pref_en": "Hyogo",
   "city": "三田市",
   "city_en": "Mita Shi",
   "lat": 34.882225,
   "lng": 135.219559,
   "keito": [
    "miso"
   ],
   "genre": "ramen",
   "cash_only_flag": null,
   "payment_qr_accepted": null,
   "stationless_flag": null,
   "status": "active"
  },
  {
   "rk_id": "rk_pub_00031",
   "name": "上月パーキングエリア 下り線 スナックコーナー",
   "name_en": "Kozuki Parking Area Kudari Sen Snack Corner",
   "pref": "兵庫県",
   "pref_en": "Hyogo",
   "city": "佐用郡佐用町",
   "city_en": "Sayo Gun Sayo Machi",
   "lat": 35.011436,
   "lng": 134.304352,
   "keito": [],
   "genre": "ramen",
   "cash_only_flag": null,
   "payment_qr_accepted": null,
   "stationless_flag": null,
   "status": "active"
  },
  {
   "rk_id": "rk_pub_00032",
   "name": "それいけ！ラーメンマン",
   "name_en": "Soreike Ramenman",
   "pref": "兵庫県",
   "pref_en": "Hyogo",
   "city": "加古川市",
   "city_en": "Kakogawa Shi",
   "lat": 34.738968,
   "lng": 134.872375,
   "keito": [],
   "genre": "ramen",
   "cash_only_flag": null,
   "payment_qr_accepted": null,
   "stationless_flag": null,
   "status": "active"
  },
  {
   "rk_id": "rk_pub_00033",
   "name": "第6回 B級ご当地グルメの祭典!B-1グランプリ in HIMEJI",
   "name_en": "Dai 6-kai B-kyu Gotochi Gurume no Saiten! B-1 Guranpuri in Himeji",
   "pref": "兵庫県",
   "pref_en": "Hyogo",
   "city": "姫路市",
   "city_en": "Himeji Shi",
   "lat": 34.83791,
   "lng": 134.693802,
   "keito": [],
   "genre": "ramen",
   "cash_only_flag": null,
   "payment_qr_accepted": null,
   "stationless_flag": null,
   "status": "active"
  },
  {
   "rk_id": "rk_pub_00034",
   "name": "中華レストラン 長城",
   "name_en": "Chuka Resutoran Chojo",
   "pref": "兵庫県",
   "pref_en": "Hyogo",
   "city": "姫路市",
   "city_en": "Himeji Shi",
   "lat": 34.866062,
   "lng": 134.728531,
   "keito": [],
   "genre": "ramen",
   "cash_only_flag": null,
   "payment_qr_accepted": null,
   "stationless_flag": null,
   "status": "active"
  },
  {
   "rk_id": "rk_pub_00035",
   "name": "長浜ラーメン 構店",
   "name_en": "Nagahama Ramen Kamae Ten",
   "pref": "兵庫県",
   "pref_en": "Hyogo",
   "city": "姫路市飾磨区",
   "city_en": "Himeji Shi Shikama Ku",
   "lat": 34.80526,
   "lng": 134.660614,
   "keito": [
    "tonkotsu"
   ],
   "genre": "ramen",
   "cash_only_flag": null,
   "payment_qr_accepted": null,
   "stationless_flag": null,
   "status": "active"
  },
  {
   "rk_id": "rk_pub_00036",
   "name": "博多ラーメンげんこつ 武庫之荘店",
   "name_en": "Hakata Ramen Genkotsu Mukonoso Ten",
   "pref": "兵庫県",
   "pref_en": "Hyogo",
   "city": "尼崎市",
   "city_en": "Amagasaki Shi",
   "lat": 34.744419,
   "lng": 135.395264,
   "keito": [
    "tonkotsu"
   ],
   "genre": "ramen",
   "cash_only_flag": null,
   "payment_qr_accepted": null,
   "stationless_flag": null,
   "status": "active"
  },
  {
   "rk_id": "rk_pub_00037",
   "name": "らーめん東雲亭",
   "name_en": "Ramen Shinonometei",
   "pref": "兵庫県",
   "pref_en": "Hyogo",
   "city": "尼崎市",
   "city_en": "Amagasaki Shi",
   "lat": 34.752022,
   "lng": 135.415863,
   "keito": [],
   "genre": "ramen",
   "cash_only_flag": null,
   "payment_qr_accepted": null,
   "stationless_flag": null,
   "status": "active"
  },
  {
   "rk_id": "rk_pub_00038",
   "name": "旨味厨房 中華や!!",
   "name_en": "Umami Chubo Chukaya",
   "pref": "兵庫県",
   "pref_en": "Hyogo",
   "city": "明石市",
   "city_en": "Akashi Shi",
   "lat": 34.64571,
   "lng": 134.996719,
   "keito": [],
   "genre": "ramen",
   "cash_only_flag": null,
   "payment_qr_accepted": null,
   "stationless_flag": null,
   "status": "active"
  },
  {
   "rk_id": "rk_pub_00039",
   "name": "中華料理 味仙 志筑店",
   "name_en": "Chukaryori Misen Shizuki Ten",
   "pref": "兵庫県",
   "pref_en": "Hyogo",
   "city": "淡路市",
   "city_en": "Awaji Shi",
   "lat": 34.436878,
   "lng": 134.897247,
   "keito": [],
   "genre": "chinese",
   "cash_only_flag": null,
   "payment_qr_accepted": null,
   "stationless_flag": null,
   "status": "active"
  },
  {
   "rk_id": "rk_pub_00040",
   "name": "五郎家 第41回南国鹿児島の物産と観光展",
   "name_en": "Goroya Dai 41 Kai Nangoku Kagoshima No Bussan To Kanko Ten",
   "pref": "兵庫県",
   "pref_en": "Hyogo",
   "city": "神戸市中央区",
   "city_en": "Kobe Shi Chuo Ku",
   "lat": 34.68866,
   "lng": 135.190674,
   "keito": [
    "tonkotsu"
   ],
   "genre": "ramen",
   "cash_only_flag": null,
   "payment_qr_accepted": null,
   "stationless_flag": null,
   "status": "active"
  },
  {
   "rk_id": "rk_pub_00041",
   "name": "中華そば 雄",
   "name_en": "Chuka Soba Yu",
   "pref": "兵庫県",
   "pref_en": "Hyogo",
   "city": "神戸市中央区",
   "city_en": "Kobe Shi Chuo Ku",
   "lat": 34.69878,
   "lng": 135.201736,
   "keito": [
    "shoyu"
   ],
   "genre": "ramen",
   "cash_only_flag": null,
   "payment_qr_accepted": null,
   "stationless_flag": null,
   "status": "active"
  },
  {
   "rk_id": "rk_pub_00042",
   "name": "小肥牛 南京町",
   "name_en": "Shohigyu Nankinmachi",
   "pref": "兵庫県",
   "pref_en": "Hyogo",
   "city": "神戸市中央区",
   "city_en": "Kobe Shi Chuo Ku",
   "lat": 34.688133,
   "lng": 135.188461,
   "keito": [],
   "genre": "ramen",
   "cash_only_flag": null,
   "payment_qr_accepted": null,
   "stationless_flag": null,
   "status": "active"
  },
  {
   "rk_id": "rk_pub_00043",
   "name": "人類みな麺類 異人館ヌードル邸",
   "name_en": "Jinrui Mina Menrui Ijinkan Noodle Tei",
   "pref": "兵庫県",
   "pref_en": "Hyogo",
   "city": "神戸市中央区",
   "city_en": "Kobe Shi Chuo Ku",
   "lat": 34.693996,
   "lng": 135.193253,
   "keito": [],
   "genre": "ramen",
   "cash_only_flag": null,
   "payment_qr_accepted": null,
   "stationless_flag": null,
   "status": "active"
  },
  {
   "rk_id": "rk_pub_00044",
   "name": "燕記",
   "name_en": "Enki",
   "pref": "兵庫県",
   "pref_en": "Hyogo",
   "city": "神戸市兵庫区",
   "city_en": "Kobe Shi Hyogo Ku",
   "lat": 34.675903,
   "lng": 135.170135,
   "keito": [],
   "genre": "ramen",
   "cash_only_flag": null,
   "payment_qr_accepted": null,
   "stationless_flag": null,
   "status": "active"
  },
  {
   "rk_id": "rk_pub_00045",
   "name": "らぁめん たろう 摂津本山店",
   "name_en": "Ramen Taro Settsu Honzan Ten",
   "pref": "兵庫県",
   "pref_en": "Hyogo",
   "city": "神戸市東灘区",
   "city_en": "Kobe Shi Higashinada Ku",
   "lat": 34.724167,
   "lng": 135.279114,
   "keito": [],
   "genre": "ramen",
   "cash_only_flag": null,
   "payment_qr_accepted": null,
   "stationless_flag": null,
   "status": "active"
  },
  {
   "rk_id": "rk_pub_00046",
   "name": "担担麺専門店 DAN DAN NOODLES. ENISHI",
   "name_en": "Tantan Men Senmonten Dan Dan Noodles Enishi",
   "pref": "兵庫県",
   "pref_en": "Hyogo",
   "city": "神戸市灘区",
   "city_en": "Kobe Shi Nada Ku",
   "lat": 34.704468,
   "lng": 135.216827,
   "keito": [
    "spicy"
   ],
   "genre": "ramen",
   "cash_only_flag": null,
   "payment_qr_accepted": null,
   "stationless_flag": null,
   "status": "active"
  },
  {
   "rk_id": "rk_pub_00047",
   "name": "ラーメン まこと屋 イオン長田南ショッピングセンター店",
   "name_en": "Ramen Makotoya Aeon Nagataminami Shopping Center Ten",
   "pref": "兵庫県",
   "pref_en": "Hyogo",
   "city": "神戸市長田区",
   "city_en": "Kobe Shi Nagata Ku",
   "lat": 34.655384,
   "lng": 135.158615,
   "keito": [],
   "genre": "ramen",
   "cash_only_flag": null,
   "payment_qr_accepted": null,
   "stationless_flag": null,
   "status": "active"
  },
  {
   "rk_id": "rk_pub_00048",
   "name": "ほうれんそう",
   "name_en": "Horenso",
   "pref": "兵庫県",
   "pref_en": "Hyogo",
   "city": "西宮市",
   "city_en": "Nishinomiya Shi",
   "lat": 34.838791,
   "lng": 135.238846,
   "keito": [],
   "genre": "ramen",
   "cash_only_flag": null,
   "payment_qr_accepted": null,
   "stationless_flag": null,
   "status": "active"
  },
  {
   "rk_id": "rk_pub_00049",
   "name": "味包",
   "name_en": "Aji Tsutsumi",
   "pref": "兵庫県",
   "pref_en": "Hyogo",
   "city": "西宮市",
   "city_en": "Nishinomiya Shi",
   "lat": 34.736553,
   "lng": 135.373474,
   "keito": [],
   "genre": "ramen",
   "cash_only_flag": null,
   "payment_qr_accepted": null,
   "stationless_flag": null,
   "status": "active"
  },
  {
   "rk_id": "rk_pub_00050",
   "name": "RAMEN MARCO",
   "name_en": "RAMEN MARCO",
   "pref": "兵庫県",
   "pref_en": "Hyogo",
   "city": "豊岡市",
   "city_en": "Toyoka Shi",
   "lat": 35.543629,
   "lng": 134.817368,
   "keito": [],
   "genre": "ramen",
   "cash_only_flag": null,
   "payment_qr_accepted": null,
   "stationless_flag": null,
   "status": "active"
  },
  {
   "rk_id": "rk_pub_00051",
   "name": "麺や 和泉",
   "name_en": "Men Ya Izumi",
   "pref": "北海道",
   "pref_en": "Hokkaido",
   "city": "上川郡当麻町",
   "city_en": "Kamikawa Gun Toma Machi",
   "lat": 43.826073,
   "lng": 142.513504,
   "keito": [],
   "genre": "ramen",
   "cash_only_flag": null,
   "payment_qr_accepted": null,
   "stationless_flag": null,
   "status": "active"
  },
  {
   "rk_id": "rk_pub_00052",
   "name": "ラーメン山岡家 伊達店",
   "name_en": "Ramen Yamaokaya Date Ten",
   "pref": "北海道",
   "pref_en": "Hokkaido",
   "city": "伊達市",
   "city_en": "Date Shi",
   "lat": 42.469101,
   "lng": 140.87442,
   "keito": [
    "tonkotsu"
   ],
   "genre": "ramen",
   "cash_only_flag": false,
   "payment_qr_accepted": null,
   "stationless_flag": null,
   "status": "active"
  },
  {
   "rk_id": "rk_pub_00053",
   "name": "らーめん葵",
   "name_en": "Ramen Aoi",
   "pref": "北海道",
   "pref_en": "Hokkaido",
   "city": "函館市",
   "city_en": "Hakodate Shi",
   "lat": 41.819649,
   "lng": 140.751633,
   "keito": [],
   "genre": "ramen",
   "cash_only_flag": null,
   "payment_qr_accepted": null,
   "stationless_flag": null,
   "status": "active"
  },
  {
   "rk_id": "rk_pub_00054",
   "name": "函館麺匠 極",
   "name_en": "Hakodate Mensho Kiwami",
   "pref": "北海道",
   "pref_en": "Hokkaido",
   "city": "函館市",
   "city_en": "Hakodate Shi",
   "lat": 41.820179,
   "lng": 140.751038,
   "keito": [],
   "genre": "ramen",
   "cash_only_flag": null,
   "payment_qr_accepted": null,
   "stationless_flag": null,
   "status": "active"
  },
  {
   "rk_id": "rk_pub_00055",
   "name": "中和廊",
   "name_en": "Chuwa Ro",
   "pref": "北海道",
   "pref_en": "Hokkaido",
   "city": "函館市",
   "city_en": "Hakodate Shi",
   "lat": 41.80862,
   "lng": 140.786469,
   "keito": [],
   "genre": "ramen",
   "cash_only_flag": null,
   "payment_qr_accepted": null,
   "stationless_flag": null,
   "status": "active"
  },
  {
   "rk_id": "rk_pub_00056",
   "name": "大正庵",
   "name_en": "Taishoan",
   "pref": "北海道",
   "pref_en": "Hokkaido",
   "city": "北斗市",
   "city_en": "Hokuto Shi",
   "lat": 41.814426,
   "lng": 140.714996,
   "keito": [],
   "genre": "ramen",
   "cash_only_flag": null,
   "payment_qr_accepted": null,
   "stationless_flag": null,
   "status": "active"
  },
  {
   "rk_id": "rk_pub_00057",
   "name": "ラーメン かまじい",
   "name_en": "Ramen Kamaji",
   "pref": "北海道",
   "pref_en": "Hokkaido",
   "city": "北見市",
   "city_en": "Kitami Shi",
   "lat": 43.805851,
   "lng": 143.841705,
   "keito": [],
   "genre": "ramen",
   "cash_only_flag": null,
   "payment_qr_accepted": null,
   "stationless_flag": null,
   "status": "active"
  },
  {
   "rk_id": "rk_pub_00058",
   "name": "支笏湖レイクサイドキッチン トントン",
   "name_en": "Shikotsuko Lakeside Kitchen Tonton",
   "pref": "北海道",
   "pref_en": "Hokkaido",
   "city": "千歳市",
   "city_en": "Chitose Shi",
   "lat": 42.778595,
   "lng": 141.397797,
   "keito": [],
   "genre": "ramen",
   "cash_only_flag": null,
   "payment_qr_accepted": null,
   "stationless_flag": null,
   "status": "active"
  },
  {
   "rk_id": "rk_pub_00059",
   "name": "麺好 長沼屋",
   "name_en": "Menko Naganumaya",
   "pref": "北海道",
   "pref_en": "Hokkaido",
   "city": "夕張郡長沼町",
   "city_en": "Yubari Gun Naganumamachi",
   "lat": 43.009022,
   "lng": 141.688934,
   "keito": [],
   "genre": "ramen",
   "cash_only_flag": null,
   "payment_qr_accepted": null,
   "stationless_flag": null,
   "status": "active"
  },
  {
   "rk_id": "rk_pub_00060",
   "name": "集い処 仲盛",
   "name_en": "Tsudoi Dokoro Nakamori",
   "pref": "北海道",
   "pref_en": "Hokkaido",
   "city": "富良野市",
   "city_en": "Furano Shi",
   "lat": 43.345253,
   "lng": 142.388397,
   "keito": [],
   "genre": "ramen",
   "cash_only_flag": null,
   "payment_qr_accepted": null,
   "stationless_flag": null,
   "status": "active"
  },
  {
   "rk_id": "rk_pub_00061",
   "name": "小樽美食坊大連食堂",
   "name_en": "Otaru Bishokubo Dairen Shokudo",
   "pref": "北海道",
   "pref_en": "Hokkaido",
   "city": "小樽市",
   "city_en": "Otaru Shi",
   "lat": 43.196903,
   "lng": 141.002472,
   "keito": [],
   "genre": "ramen",
   "cash_only_flag": null,
   "payment_qr_accepted": null,
   "stationless_flag": null,
   "status": "active"
  },
  {
   "rk_id": "rk_pub_00062",
   "name": "めん屋 双喜",
   "name_en": "Menya Soki",
   "pref": "北海道",
   "pref_en": "Hokkaido",
   "city": "帯広市",
   "city_en": "Obihiro Shi",
   "lat": 42.903584,
   "lng": 143.160934,
   "keito": [],
   "genre": "ramen",
   "cash_only_flag": null,
   "payment_qr_accepted": null,
   "stationless_flag": null,
   "status": "active"
  },
  {
   "rk_id": "rk_pub_00063",
   "name": "らーめん巖窟王 白樺店",
   "name_en": "Ramen Gankutsuo Shirakaba Ten",
   "pref": "北海道",
   "pref_en": "Hokkaido",
   "city": "帯広市",
   "city_en": "Obihiro Shi",
   "lat": 42.920036,
   "lng": 143.160126,
   "keito": [],
   "genre": "ramen",
   "cash_only_flag": null,
   "payment_qr_accepted": null,
   "stationless_flag": null,
   "status": "active"
  },
  {
   "rk_id": "rk_pub_00064",
   "name": "ラーメンの百番 えりも店",
   "name_en": "Ramen No Hyakuban Erimo Ten",
   "pref": "北海道",
   "pref_en": "Hokkaido",
   "city": "幌泉郡えりも町",
   "city_en": "Horoizumi Gun Erimo Machi",
   "lat": 42.011967,
   "lng": 143.165924,
   "keito": [],
   "genre": "ramen",
   "cash_only_flag": null,
   "payment_qr_accepted": null,
   "stationless_flag": null,
   "status": "active"
  },
  {
   "rk_id": "rk_pub_00065",
   "name": "らーめんや天金 ラーメン村店",
   "name_en": "Ramenya Tenkin Ramen Mura Ten",
   "pref": "北海道",
   "pref_en": "Hokkaido",
   "city": "旭川市",
   "city_en": "Asahikawa Shi",
   "lat": 43.781467,
   "lng": 142.412704,
   "keito": [],
   "genre": "ramen",
   "cash_only_flag": null,
   "payment_qr_accepted": null,
   "stationless_flag": null,
   "status": "active"
  },
  {
   "rk_id": "rk_pub_00066",
   "name": "館",
   "name_en": "Kan",
   "pref": "北海道",
   "pref_en": "Hokkaido",
   "city": "旭川市",
   "city_en": "Asahikawa Shi",
   "lat": 43.774693,
   "lng": 142.352554,
   "keito": [],
   "genre": "ramen",
   "cash_only_flag": null,
   "payment_qr_accepted": null,
   "stationless_flag": null,
   "status": "active"
  },
  {
   "rk_id": "rk_pub_00067",
   "name": "お食事処 天笑 A.s.h店",
   "name_en": "Oshokujidokoro Tensho A.s.h-ten",
   "pref": "北海道",
   "pref_en": "Hokkaido",
   "city": "旭川市",
   "city_en": "Asahikawa Shi",
   "lat": 43.766083,
   "lng": 142.358582,
   "keito": [],
   "genre": "ramen",
   "cash_only_flag": null,
   "payment_qr_accepted": null,
   "stationless_flag": null,
   "status": "active"
  },
  {
   "rk_id": "rk_pub_00068",
   "name": "味の三平 豊岡店",
   "name_en": "Aji No Sanpei Toyooka Ten",
   "pref": "北海道",
   "pref_en": "Hokkaido",
   "city": "旭川市",
   "city_en": "Asahikawa Shi",
   "lat": 43.758026,
   "lng": 142.387009,
   "keito": [],
   "genre": "ramen",
   "cash_only_flag": null,
   "payment_qr_accepted": null,
   "stationless_flag": null,
   "status": "active"
  },
  {
   "rk_id": "rk_pub_00069",
   "name": "ら～麺 いそはま",
   "name_en": "Ra Men Isohama",
   "pref": "北海道",
   "pref_en": "Hokkaido",
   "city": "旭川市",
   "city_en": "Asahikawa Shi",
   "lat": 43.755745,
   "lng": 142.416138,
   "keito": [],
   "genre": "ramen",
   "cash_only_flag": null,
   "payment_qr_accepted": null,
   "stationless_flag": null,
   "status": "active"
  },
  {
   "rk_id": "rk_pub_00070",
   "name": "らーめん 麺のひな詩",
   "name_en": "Ramen Men no Hinashi",
   "pref": "北海道",
   "pref_en": "Hokkaido",
   "city": "札幌市中央区",
   "city_en": "Sapporo Shi Chuo Ku",
   "lat": 43.066254,
   "lng": 141.360428,
   "keito": [],
   "genre": "ramen",
   "cash_only_flag": null,
   "payment_qr_accepted": null,
   "stationless_flag": null,
   "status": "active"
  },
  {
   "rk_id": "rk_pub_00071",
   "name": "横浜家系らーめん 三元 すすきの店",
   "name_en": "Yokohama Iekei Ramen Sangen Susukino Ten",
   "pref": "北海道",
   "pref_en": "Hokkaido",
   "city": "札幌市中央区",
   "city_en": "Sapporo Shi Chuo Ku",
   "lat": 43.054379,
   "lng": 141.351227,
   "keito": [
    "tonkotsu"
   ],
   "genre": "ramen",
   "cash_only_flag": null,
   "payment_qr_accepted": null,
   "stationless_flag": null,
   "status": "active"
  },
  {
   "rk_id": "rk_pub_00072",
   "name": "町中華たかはし",
   "name_en": "Machi Chuka Takahashi",
   "pref": "北海道",
   "pref_en": "Hokkaido",
   "city": "札幌市中央区",
   "city_en": "Sapporo Shi Chuo Ku",
   "lat": 43.067177,
   "lng": 141.325409,
   "keito": [],
   "genre": "ramen",
   "cash_only_flag": null,
   "payment_qr_accepted": null,
   "stationless_flag": null,
   "status": "active"
  },
  {
   "rk_id": "rk_pub_00073",
   "name": "麺処まるは BEYOND 大通り店",
   "name_en": "Mendokoro Maruha Beyond Odori Ten",
   "pref": "北海道",
   "pref_en": "Hokkaido",
   "city": "札幌市中央区",
   "city_en": "Sapporo Shi Chuo Ku",
   "lat": 43.062199,
   "lng": 141.346054,
   "keito": [],
   "genre": "ramen",
   "cash_only_flag": null,
   "payment_qr_accepted": null,
   "stationless_flag": null,
   "status": "active"
  },
  {
   "rk_id": "rk_pub_00074",
   "name": "どさんこ",
   "name_en": "Dosanko",
   "pref": "北海道",
   "pref_en": "Hokkaido",
   "city": "札幌市中央区",
   "city_en": "Sapporo Shi Chuo Ku",
   "lat": 43.060295,
   "lng": 141.365784,
   "keito": [],
   "genre": "ramen",
   "cash_only_flag": null,
   "payment_qr_accepted": null,
   "stationless_flag": null,
   "status": "active"
  },
  {
   "rk_id": "rk_pub_00075",
   "name": "翔ちゃん家",
   "name_en": "Shochanya",
   "pref": "北海道",
   "pref_en": "Hokkaido",
   "city": "札幌市北区",
   "city_en": "Sapporo Shi Kita Ku",
   "lat": 43.147316,
   "lng": 141.359406,
   "keito": [
    "tonkotsu"
   ],
   "genre": "ramen",
   "cash_only_flag": null,
   "payment_qr_accepted": null,
   "stationless_flag": null,
   "status": "active"
  },
  {
   "rk_id": "rk_pub_00076",
   "name": "ラーメンさんぱち 石山店",
   "name_en": "Ramen Sanpachi Ishiyama Ten",
   "pref": "北海道",
   "pref_en": "Hokkaido",
   "city": "札幌市南区",
   "city_en": "Sapporo Shi Minami Ku",
   "lat": 42.963749,
   "lng": 141.32457,
   "keito": [],
   "genre": "ramen",
   "cash_only_flag": true,
   "payment_qr_accepted": null,
   "stationless_flag": null,
   "status": "active"
  },
  {
   "rk_id": "rk_pub_00077",
   "name": "みよしの 厚別東店",
   "name_en": "Miyoshino Atsubetsu Higashi Ten",
   "pref": "北海道",
   "pref_en": "Hokkaido",
   "city": "札幌市厚別区",
   "city_en": "Sapporo Shi Atsubetsu Ku",
   "lat": 43.049797,
   "lng": 141.482498,
   "keito": [],
   "genre": "ramen",
   "cash_only_flag": null,
   "payment_qr_accepted": null,
   "stationless_flag": null,
   "status": "active"
  },
  {
   "rk_id": "rk_pub_00078",
   "name": "らーめん 初代 新発寒店",
   "name_en": "Ramen Shodai Shinhassamu Ten",
   "pref": "北海道",
   "pref_en": "Hokkaido",
   "city": "札幌市手稲区",
   "city_en": "Sapporo Shi Teine Ku",
   "lat": 43.110088,
   "lng": 141.276855,
   "keito": [],
   "genre": "ramen",
   "cash_only_flag": null,
   "payment_qr_accepted": null,
   "stationless_flag": null,
   "status": "active"
  },
  {
   "rk_id": "rk_pub_00079",
   "name": "らーめん北彩 元町店",
   "name_en": "Ramen Kitasai Motomachi Ten",
   "pref": "北海道",
   "pref_en": "Hokkaido",
   "city": "札幌市東区",
   "city_en": "Sapporo Shi Higashi Ku",
   "lat": 43.085121,
   "lng": 141.374008,
   "keito": [],
   "genre": "ramen",
   "cash_only_flag": null,
   "payment_qr_accepted": null,
   "stationless_flag": null,
   "status": "active"
  },
  {
   "rk_id": "rk_pub_00080",
   "name": "昌龍",
   "name_en": "Shoryu",
   "pref": "北海道",
   "pref_en": "Hokkaido",
   "city": "札幌市清田区",
   "city_en": "Sapporo Shi Kiyoda Ku",
   "lat": 42.985367,
   "lng": 141.473465,
   "keito": [],
   "genre": "ramen",
   "cash_only_flag": null,
   "payment_qr_accepted": null,
   "stationless_flag": null,
   "status": "active"
  },
  {
   "rk_id": "rk_pub_00081",
   "name": "ばりきや 菊水本店",
   "name_en": "Barikiya Kikusui Honten",
   "pref": "北海道",
   "pref_en": "Hokkaido",
   "city": "札幌市白石区",
   "city_en": "Sapporo Shi Shiroishi Ku",
   "lat": 43.06345,
   "lng": 141.382156,
   "keito": [],
   "genre": "ramen",
   "cash_only_flag": null,
   "payment_qr_accepted": null,
   "stationless_flag": null,
   "status": "active"
  },
  {
   "rk_id": "rk_pub_00082",
   "name": "ラーメン櫻島 本店",
   "name_en": "Ramen Sakurajima Honten",
   "pref": "北海道",
   "pref_en": "Hokkaido",
   "city": "札幌市西区",
   "city_en": "Sapporo Shi Nishi Ku",
   "lat": 43.072147,
   "lng": 141.278442,
   "keito": [],
   "genre": "ramen",
   "cash_only_flag": null,
   "payment_qr_accepted": null,
   "stationless_flag": null,
   "status": "active"
  },
  {
   "rk_id": "rk_pub_00083",
   "name": "発寒魂心家",
   "name_en": "Hassamu Konshinya",
   "pref": "北海道",
   "pref_en": "Hokkaido",
   "city": "札幌市西区",
   "city_en": "Sapporo Shi Nishi Ku",
   "lat": 43.098808,
   "lng": 141.294052,
   "keito": [
    "tonkotsu"
   ],
   "genre": "ramen",
   "cash_only_flag": null,
   "payment_qr_accepted": null,
   "stationless_flag": null,
   "status": "active"
  },
  {
   "rk_id": "rk_pub_00084",
   "name": "中華料理 パンダ 月寒店",
   "name_en": "Chukaryori Panda Tsukisamu Ten",
   "pref": "北海道",
   "pref_en": "Hokkaido",
   "city": "札幌市豊平区",
   "city_en": "Sapporo Shi Toyohira Ku",
   "lat": 43.010418,
   "lng": 141.422836,
   "keito": [],
   "genre": "chinese",
   "cash_only_flag": null,
   "payment_qr_accepted": null,
   "stationless_flag": null,
   "status": "active"
  },
  {
   "rk_id": "rk_pub_00085",
   "name": "う美蔵",
   "name_en": "Umikura",
   "pref": "北海道",
   "pref_en": "Hokkaido",
   "city": "枝幸郡枝幸町",
   "city_en": "Esashi Gun Esashi Machi",
   "lat": 44.96003,
   "lng": 142.575958,
   "keito": [],
   "genre": "ramen",
   "cash_only_flag": null,
   "payment_qr_accepted": null,
   "stationless_flag": null,
   "status": "active"
  },
  {
   "rk_id": "rk_pub_00086",
   "name": "味の時計台 江別野幌店",
   "name_en": "Ajino Tokeidai",
   "pref": "北海道",
   "pref_en": "Hokkaido",
   "city": "江別市",
   "city_en": "Ebetsu Shi",
   "lat": 43.0933,
   "lng": 141.523331,
   "keito": [
    "miso"
   ],
   "genre": "ramen",
   "cash_only_flag": false,
   "payment_qr_accepted": null,
   "stationless_flag": null,
   "status": "active"
  },
  {
   "rk_id": "rk_pub_00087",
   "name": "ラーメン 八雲",
   "name_en": "Ramen Yakumo",
   "pref": "北海道",
   "pref_en": "Hokkaido",
   "city": "浦河郡浦河町",
   "city_en": "Urakawa Gun Urakawa Machi",
   "lat": 42.17622,
   "lng": 142.763321,
   "keito": [],
   "genre": "ramen",
   "cash_only_flag": null,
   "payment_qr_accepted": null,
   "stationless_flag": null,
   "status": "active"
  },
  {
   "rk_id": "rk_pub_00088",
   "name": "つるつる屋",
   "name_en": "Tsurutsuraya",
   "pref": "北海道",
   "pref_en": "Hokkaido",
   "city": "登別市",
   "city_en": "Noboribetsu Shi",
   "lat": 42.37162,
   "lng": 141.058411,
   "keito": [],
   "genre": "ramen",
   "cash_only_flag": null,
   "payment_qr_accepted": null,
   "stationless_flag": null,
   "status": "active"
  },
  {
   "rk_id": "rk_pub_00089",
   "name": "味の五六八",
   "name_en": "Aji No Goroya",
   "pref": "北海道",
   "pref_en": "Hokkaido",
   "city": "石狩市",
   "city_en": "Ishikari Shi",
   "lat": 43.137844,
   "lng": 141.287567,
   "keito": [],
   "genre": "ramen",
   "cash_only_flag": null,
   "payment_qr_accepted": null,
   "stationless_flag": null,
   "status": "active"
  },
  {
   "rk_id": "rk_pub_00090",
   "name": "みなとや",
   "name_en": "Minatoya",
   "pref": "北海道",
   "pref_en": "Hokkaido",
   "city": "稚内市",
   "city_en": "Wakkanai Shi",
   "lat": 45.446617,
   "lng": 141.645859,
   "keito": [],
   "genre": "ramen",
   "cash_only_flag": null,
   "payment_qr_accepted": null,
   "stationless_flag": null,
   "status": "active"
  },
  {
   "rk_id": "rk_pub_00091",
   "name": "遠軽軒",
   "name_en": "Engaruken",
   "pref": "北海道",
   "pref_en": "Hokkaido",
   "city": "紋別郡遠軽町",
   "city_en": "Monbetsu Gun Enkaru Machi",
   "lat": 44.062401,
   "lng": 143.525116,
   "keito": [],
   "genre": "ramen",
   "cash_only_flag": null,
   "payment_qr_accepted": null,
   "stationless_flag": null,
   "status": "active"
  },
  {
   "rk_id": "rk_pub_00092",
   "name": "院内食堂",
   "name_en": "Innai Shokudo",
   "pref": "北海道",
   "pref_en": "Hokkaido",
   "city": "芦別市",
   "city_en": "Ashi Betsu Shi",
   "lat": 43.518589,
   "lng": 142.194122,
   "keito": [],
   "genre": "ramen",
   "cash_only_flag": null,
   "payment_qr_accepted": null,
   "stationless_flag": null,
   "status": "active"
  },
  {
   "rk_id": "rk_pub_00093",
   "name": "まるいち食堂",
   "name_en": "Maruichi Shokudo",
   "pref": "北海道",
   "pref_en": "Hokkaido",
   "city": "苫小牧市",
   "city_en": "Tomakomai Shi",
   "lat": 42.630344,
   "lng": 141.617996,
   "keito": [],
   "genre": "ramen",
   "cash_only_flag": null,
   "payment_qr_accepted": null,
   "stationless_flag": null,
   "status": "active"
  },
  {
   "rk_id": "rk_pub_00094",
   "name": "ラーメン 次郎長 森町本店",
   "name_en": "Ramen Jirocho Moricho Honten",
   "pref": "北海道",
   "pref_en": "Hokkaido",
   "city": "茅部郡森町",
   "city_en": "Kayabe Gun Moricho",
   "lat": 42.106426,
   "lng": 140.580902,
   "keito": [],
   "genre": "ramen",
   "cash_only_flag": null,
   "payment_qr_accepted": null,
   "stationless_flag": null,
   "status": "active"
  },
  {
   "rk_id": "rk_pub_00095",
   "name": "ニセコラーメン ポテラ",
   "name_en": "Niseko Ramen Potera",
   "pref": "北海道",
   "pref_en": "Hokkaido",
   "city": "虻田郡真狩村",
   "city_en": "Abuta Gun Makkari Mura",
   "lat": 42.763523,
   "lng": 140.787155,
   "keito": [],
   "genre": "ramen",
   "cash_only_flag": null,
   "payment_qr_accepted": null,
   "stationless_flag": null,
   "status": "active"
  },
  {
   "rk_id": "rk_pub_00096",
   "name": "海皇 愛国本店",
   "name_en": "Kaio Aikoku Honten",
   "pref": "北海道",
   "pref_en": "Hokkaido",
   "city": "釧路市",
   "city_en": "Kushiro Shi",
   "lat": 43.00692,
   "lng": 144.39093,
   "keito": [],
   "genre": "ramen",
   "cash_only_flag": null,
   "payment_qr_accepted": null,
   "stationless_flag": null,
   "status": "active"
  },
  {
   "rk_id": "rk_pub_00097",
   "name": "ら・フェスタ2023",
   "name_en": "La Festa 2023",
   "pref": "北海道",
   "pref_en": "Hokkaido",
   "city": "釧路市",
   "city_en": "Kushiro Shi",
   "lat": 43.026386,
   "lng": 144.359985,
   "keito": [],
   "genre": "ramen",
   "cash_only_flag": null,
   "payment_qr_accepted": null,
   "stationless_flag": null,
   "status": "active"
  },
  {
   "rk_id": "rk_pub_00098",
   "name": "ABCいすみゴルフコースレストラン",
   "name_en": "ABC Isumi Golf Course Restaurant",
   "pref": "千葉県",
   "pref_en": "Chiba",
   "city": "いすみ市",
   "city_en": "Isumi Shi",
   "lat": 35.275059,
   "lng": 140.314545,
   "keito": [],
   "genre": "ramen",
   "cash_only_flag": null,
   "payment_qr_accepted": null,
   "stationless_flag": null,
   "status": "active"
  },
  {
   "rk_id": "rk_pub_00099",
   "name": "ラーメン明日香 八千代台店",
   "name_en": "Ramen Asuka Yachiyodai Ten",
   "pref": "千葉県",
   "pref_en": "Chiba",
   "city": "八千代市",
   "city_en": "Yachiyo Shi",
   "lat": 35.699856,
   "lng": 140.091949,
   "keito": [],
   "genre": "ramen",
   "cash_only_flag": null,
   "payment_qr_accepted": null,
   "stationless_flag": null,
   "status": "active"
  },
  {
   "rk_id": "rk_pub_00100",
   "name": "カインズキッチン 八街店",
   "name_en": "Cainz Kitchen Yachimata Ten",
   "pref": "千葉県",
   "pref_en": "Chiba",
   "city": "八街市",
   "city_en": "Yachimata Shi",
   "lat": 35.652882,
   "lng": 140.264404,
   "keito": [],
   "genre": "ramen",
   "cash_only_flag": null,
   "payment_qr_accepted": null,
   "stationless_flag": null,
   "status": "active"
  },
  {
   "rk_id": "rk_pub_00101",
   "name": "大衆割烹 味翔",
   "name_en": "Taishu Kappo Aji Shu",
   "pref": "千葉県",
   "pref_en": "Chiba",
   "city": "勝浦市",
   "city_en": "Katsura Shi",
   "lat": 35.161591,
   "lng": 140.268188,
   "keito": [],
   "genre": "ramen",
   "cash_only_flag": null,
   "payment_qr_accepted": null,
   "stationless_flag": null,
   "status": "active"
  },
  {
   "rk_id": "rk_pub_00102",
   "name": "ラーメン三矢小",
   "name_en": "Ramen Mitsuyako",
   "pref": "千葉県",
   "pref_en": "Chiba",
   "city": "千葉市中央区",
   "city_en": "Chiba Shi Chuo Ku",
   "lat": 35.611309,
   "lng": 140.142776,
   "keito": [],
   "genre": "ramen",
   "cash_only_flag": null,
   "payment_qr_accepted": null,
   "stationless_flag": null,
   "status": "active"
  },
  {
   "rk_id": "rk_pub_00103",
   "name": "セブンシーズ",
   "name_en": "Seven Seas",
   "pref": "千葉県",
   "pref_en": "Chiba",
   "city": "千葉市中央区",
   "city_en": "Chiba Shi Chuo Ku",
   "lat": 35.603745,
   "lng": 140.103836,
   "keito": [],
   "genre": "ramen",
   "cash_only_flag": null,
   "payment_qr_accepted": null,
   "stationless_flag": null,
   "status": "active"
  },
  {
   "rk_id": "rk_pub_00104",
   "name": "ときわ苑",
   "name_en": "Tokiwaen",
   "pref": "千葉県",
   "pref_en": "Chiba",
   "city": "千葉市中央区",
   "city_en": "Chiba Shi Chuo Ku",
   "lat": 35.608299,
   "lng": 140.138184,
   "keito": [],
   "genre": "ramen",
   "cash_only_flag": null,
   "payment_qr_accepted": null,
   "stationless_flag": null,
   "status": "active"
  },
  {
   "rk_id": "rk_pub_00105",
   "name": "ラーメン ヨシトミ",
   "name_en": "Ramen Yoshitomi",
   "pref": "千葉県",
   "pref_en": "Chiba",
   "city": "千葉市稲毛区",
   "city_en": "Chiba Shi Inage Ku",
   "lat": 35.638916,
   "lng": 140.093155,
   "keito": [],
   "genre": "ramen",
   "cash_only_flag": null,
   "payment_qr_accepted": null,
   "stationless_flag": null,
   "status": "active"
  },
  {
   "rk_id": "rk_pub_00106",
   "name": "野郎ラーメン 海浜幕張店",
   "name_en": "Yaro Ramen Kaihinmakuhari Ten",
   "pref": "千葉県",
   "pref_en": "Chiba",
   "city": "千葉市美浜区",
   "city_en": "Chiba Shi Mihama Ku",
   "lat": 35.647892,
   "lng": 140.040405,
   "keito": [],
   "genre": "ramen",
   "cash_only_flag": null,
   "payment_qr_accepted": null,
   "stationless_flag": null,
   "status": "active"
  },
  {
   "rk_id": "rk_pub_00107",
   "name": "長崎ちゃんぽんリンガーハット パサール幕張上り店",
   "name_en": "Nagasaki Champon Ringer Hut Pasar Makuhari Nobori Ten",
   "pref": "千葉県",
   "pref_en": "Chiba",
   "city": "千葉市花見川区",
   "city_en": "Chiba Shi Hanamigawa Ku",
   "lat": 35.669376,
   "lng": 140.053482,
   "keito": [],
   "genre": "ramen",
   "cash_only_flag": false,
   "payment_qr_accepted": null,
   "stationless_flag": null,
   "status": "active"
  },
  {
   "rk_id": "rk_pub_00108",
   "name": "野呂PA（上）スナックコーナー",
   "name_en": "Noro PA (Kami) Sunakku Kona",
   "pref": "千葉県",
   "pref_en": "Chiba",
   "city": "千葉市若葉区",
   "city_en": "Chiba Shi Wakaba Ku",
   "lat": 35.57637,
   "lng": 140.234756,
   "keito": [],
   "genre": "ramen",
   "cash_only_flag": null,
   "payment_qr_accepted": null,
   "stationless_flag": null,
   "status": "active"
  },
  {
   "rk_id": "rk_pub_00109",
   "name": "生そば 菊水",
   "name_en": "Kisoba Kikusui",
   "pref": "千葉県",
   "pref_en": "Chiba",
   "city": "印旛郡栄町",
   "city_en": "Inba Gun Sakaemachi",
   "lat": 35.828156,
   "lng": 140.251205,
   "keito": [],
   "genre": "ramen",
   "cash_only_flag": null,
   "payment_qr_accepted": null,
   "stationless_flag": null,
   "status": "active"
  },
  {
   "rk_id": "rk_pub_00110",
   "name": "台湾料理 師記",
   "name_en": "Taiwan Ryori Shiki",
   "pref": "千葉県",
   "pref_en": "Chiba",
   "city": "印西市",
   "city_en": "Inzai Shi",
   "lat": 35.806114,
   "lng": 140.147369,
   "keito": [],
   "genre": "chinese",
   "cash_only_flag": null,
   "payment_qr_accepted": null,
   "stationless_flag": null,
   "status": "active"
  },
  {
   "rk_id": "rk_pub_00111",
   "name": "スエヒロ飯店",
   "name_en": "Suehiro Hanten",
   "pref": "千葉県",
   "pref_en": "Chiba",
   "city": "君津市",
   "city_en": "Kimitsu Shi",
   "lat": 35.33987,
   "lng": 139.867111,
   "keito": [],
   "genre": "chinese",
   "cash_only_flag": null,
   "payment_qr_accepted": null,
   "stationless_flag": null,
   "status": "active"
  },
  {
   "rk_id": "rk_pub_00112",
   "name": "来来",
   "name_en": "Rairai",
   "pref": "千葉県",
   "pref_en": "Chiba",
   "city": "夷隅郡大多喜町",
   "city_en": "Isumi Gun Otaki Machi",
   "lat": 35.289413,
   "lng": 140.245804,
   "keito": [],
   "genre": "ramen",
   "cash_only_flag": null,
   "payment_qr_accepted": null,
   "stationless_flag": null,
   "status": "active"
  },
  {
   "rk_id": "rk_pub_00113",
   "name": "ラーメンショップ ネモト",
   "name_en": "Ramen Shop Nemoto",
   "pref": "千葉県",
   "pref_en": "Chiba",
   "city": "富里市",
   "city_en": "Tomisato Shi",
   "lat": 35.74382,
   "lng": 140.349304,
   "keito": [
    "other"
   ],
   "genre": "ramen",
   "cash_only_flag": null,
   "payment_qr_accepted": null,
   "stationless_flag": null,
   "status": "active"
  },
  {
   "rk_id": "rk_pub_00114",
   "name": "浜茶屋 向島",
   "name_en": "Hamachaya Mukojima",
   "pref": "千葉県",
   "pref_en": "Chiba",
   "city": "山武郡九十九里町",
   "city_en": "Sanbu Gun Kujukuri Machi",
   "lat": 35.507912,
   "lng": 140.431946,
   "keito": [],
   "genre": "ramen",
   "cash_only_flag": null,
   "payment_qr_accepted": null,
   "stationless_flag": null,
   "status": "active"
  },
  {
   "rk_id": "rk_pub_00115",
   "name": "酒彩肴房 たまり場",
   "name_en": "Sushu Sakana Bo Tamariba",
   "pref": "千葉県",
   "pref_en": "Chiba",
   "city": "市原市",
   "city_en": "Ichihara Shi",
   "lat": 35.499039,
   "lng": 140.112946,
   "keito": [],
   "genre": "ramen",
   "cash_only_flag": null,
   "payment_qr_accepted": null,
   "stationless_flag": null,
   "status": "active"
  },
  {
   "rk_id": "rk_pub_00116",
   "name": "お食事処 田中屋",
   "name_en": "Oshokuji-dokoro Tanakaya",
   "pref": "千葉県",
   "pref_en": "Chiba",
   "city": "市原市",
   "city_en": "Ichihara Shi",
   "lat": 35.481201,
   "lng": 140.04245,
   "keito": [],
   "genre": "ramen",
   "cash_only_flag": null,
   "payment_qr_accepted": null,
   "stationless_flag": null,
   "status": "active"
  },
  {
   "rk_id": "rk_pub_00117",
   "name": "手作り餃子ラーメン まる長",
   "name_en": "Tezukuri Gyoza Ramen Marucho",
   "pref": "千葉県",
   "pref_en": "Chiba",
   "city": "市川市",
   "city_en": "Ichikawa Shi",
   "lat": 35.669254,
   "lng": 139.907516,
   "keito": [],
   "genre": "ramen",
   "cash_only_flag": null,
   "payment_qr_accepted": null,
   "stationless_flag": null,
   "status": "active"
  },
  {
   "rk_id": "rk_pub_00118",
   "name": "市川PA（首都高速湾岸線西行き)",
   "name_en": "Ichikawa PA (Shutokosoku Wangansen Nishiyuki)",
   "pref": "千葉県",
   "pref_en": "Chiba",
   "city": "市川市",
   "city_en": "Ichikawa Shi",
   "lat": 35.676826,
   "lng": 139.932205,
   "keito": [],
   "genre": "ramen",
   "cash_only_flag": null,
   "payment_qr_accepted": null,
   "stationless_flag": null,
   "status": "active"
  },
  {
   "rk_id": "rk_pub_00119",
   "name": "バーミヤン 南行徳駅前店",
   "name_en": "Bamiyan Minamigyotoku Ekimae Ten",
   "pref": "千葉県",
   "pref_en": "Chiba",
   "city": "市川市",
   "city_en": "Ichikawa Shi",
   "lat": 35.673389,
   "lng": 139.903427,
   "keito": [],
   "genre": "ramen",
   "cash_only_flag": null,
   "payment_qr_accepted": null,
   "stationless_flag": null,
   "status": "active"
  },
  {
   "rk_id": "rk_pub_00120",
   "name": "中華 昇龍",
   "name_en": "Chuka Shoryu",
   "pref": "千葉県",
   "pref_en": "Chiba",
   "city": "市川市",
   "city_en": "Ichikawa Shi",
   "lat": 35.680027,
   "lng": 139.917862,
   "keito": [],
   "genre": "ramen",
   "cash_only_flag": null,
   "payment_qr_accepted": null,
   "stationless_flag": null,
   "status": "active"
  },
  {
   "rk_id": "rk_pub_00121",
   "name": "とみさわ食堂",
   "name_en": "Tomisawa Shokudo",
   "pref": "千葉県",
   "pref_en": "Chiba",
   "city": "成田市",
   "city_en": "Narita Shi",
   "lat": 35.865383,
   "lng": 140.338852,
   "keito": [],
   "genre": "ramen",
   "cash_only_flag": null,
   "payment_qr_accepted": null,
   "stationless_flag": null,
   "status": "active"
  },
  {
   "rk_id": "rk_pub_00122",
   "name": "アジア料理 Lemon Grass",
   "name_en": "Ajia Ryori Lemon Grass",
   "pref": "千葉県",
   "pref_en": "Chiba",
   "city": "我孫子市",
   "city_en": "Abiko Shi",
   "lat": 35.874294,
   "lng": 140.009903,
   "keito": [],
   "genre": "ramen",
   "cash_only_flag": null,
   "payment_qr_accepted": null,
   "stationless_flag": null,
   "status": "active"
  },
  {
   "rk_id": "rk_pub_00123",
   "name": "東陽らーめん",
   "name_en": "Toyo Ramen",
   "pref": "千葉県",
   "pref_en": "Chiba",
   "city": "旭市",
   "city_en": "Asahi Shi",
   "lat": 35.720795,
   "lng": 140.605637,
   "keito": [],
   "genre": "ramen",
   "cash_only_flag": null,
   "payment_qr_accepted": null,
   "stationless_flag": null,
   "status": "active"
  },
  {
   "rk_id": "rk_pub_00124",
   "name": "らーめん 福助屋",
   "name_en": "Ramen Fukusukeya",
   "pref": "千葉県",
   "pref_en": "Chiba",
   "city": "木更津市",
   "city_en": "Kisarazu Shi",
   "lat": 35.368168,
   "lng": 139.95578,
   "keito": [],
   "genre": "ramen",
   "cash_only_flag": null,
   "payment_qr_accepted": null,
   "stationless_flag": null,
   "status": "active"
  },
  {
   "rk_id": "rk_pub_00125",
   "name": "ラーメン 現代",
   "name_en": "Ramen Gendai",
   "pref": "千葉県",
   "pref_en": "Chiba",
   "city": "松戸市",
   "city_en": "Matsudo Shi",
   "lat": 35.826916,
   "lng": 139.924561,
   "keito": [],
   "genre": "ramen",
   "cash_only_flag": null,
   "payment_qr_accepted": null,
   "stationless_flag": null,
   "status": "active"
  },
  {
   "rk_id": "rk_pub_00126",
   "name": "玉米家",
   "name_en": "Gyokumaiya",
   "pref": "千葉県",
   "pref_en": "Chiba",
   "city": "松戸市",
   "city_en": "Matsudo Shi",
   "lat": 35.796883,
   "lng": 139.910431,
   "keito": [
    "tonkotsu"
   ],
   "genre": "ramen",
   "cash_only_flag": null,
   "payment_qr_accepted": null,
   "stationless_flag": null,
   "status": "active"
  },
  {
   "rk_id": "rk_pub_00127",
   "name": "とんとん餃子 華苑飯店",
   "name_en": "Tonton Gyoza Kaen Hanten",
   "pref": "千葉県",
   "pref_en": "Chiba",
   "city": "松戸市",
   "city_en": "Matsudo Shi",
   "lat": 35.827183,
   "lng": 139.92038,
   "keito": [],
   "genre": "chinese",
   "cash_only_flag": null,
   "payment_qr_accepted": null,
   "stationless_flag": null,
   "status": "active"
  },
  {
   "rk_id": "rk_pub_00128",
   "name": "上むら",
   "name_en": "Uemura",
   "pref": "千葉県",
   "pref_en": "Chiba",
   "city": "松戸市",
   "city_en": "Matsudo Shi",
   "lat": 35.80925,
   "lng": 139.921753,
   "keito": [],
   "genre": "ramen",
   "cash_only_flag": null,
   "payment_qr_accepted": null,
   "stationless_flag": null,
   "status": "active"
  },
  {
   "rk_id": "rk_pub_00129",
   "name": "にかいや",
   "name_en": "Nikaiya",
   "pref": "千葉県",
   "pref_en": "Chiba",
   "city": "柏市",
   "city_en": "Kashiwa Shi",
   "lat": 35.815304,
   "lng": 139.964813,
   "keito": [],
   "genre": "ramen",
   "cash_only_flag": null,
   "payment_qr_accepted": null,
   "stationless_flag": null,
   "status": "active"
  },
  {
   "rk_id": "rk_pub_00130",
   "name": "日高屋 北柏駅南口店",
   "name_en": "Hidakaya Kitakashiwa Eki Minamiguchi Ten",
   "pref": "千葉県",
   "pref_en": "Chiba",
   "city": "柏市",
   "city_en": "Kashiwa Shi",
   "lat": 35.875084,
   "lng": 139.987381,
   "keito": [
    "shoyu"
   ],
   "genre": "ramen",
   "cash_only_flag": false,
   "payment_qr_accepted": null,
   "stationless_flag": null,
   "status": "active"
  },
  {
   "rk_id": "rk_pub_00131",
   "name": "バーミヤン 柏増尾台店",
   "name_en": "Bamiyan Kashiwa Masuodai Ten",
   "pref": "千葉県",
   "pref_en": "Chiba",
   "city": "柏市",
   "city_en": "Kashiwa Shi",
   "lat": 35.82782,
   "lng": 139.973923,
   "keito": [],
   "genre": "ramen",
   "cash_only_flag": null,
   "payment_qr_accepted": null,
   "stationless_flag": null,
   "status": "active"
  },
  {
   "rk_id": "rk_pub_00132",
   "name": "鉄板ラーメン大衆居酒屋 ひでよし",
   "name_en": "Teppan Ramen Taishu Izakaya Hideyoshi",
   "pref": "千葉県",
   "pref_en": "Chiba",
   "city": "柏市",
   "city_en": "Kashiwa Shi",
   "lat": 35.859768,
   "lng": 139.975235,
   "keito": [],
   "genre": "ramen",
   "cash_only_flag": null,
   "payment_qr_accepted": null,
   "stationless_flag": null,
   "status": "active"
  },
  {
   "rk_id": "rk_pub_00133",
   "name": "鼎泰豐 流山おおたかの森S・C店",
   "name_en": "Din Tai Fung Nagareyama Otakanomori S C Ten",
   "pref": "千葉県",
   "pref_en": "Chiba",
   "city": "流山市",
   "city_en": "Nagareyama Shi",
   "lat": 35.889675,
   "lng": 139.912048,
   "keito": [],
   "genre": "ramen",
   "cash_only_flag": null,
   "payment_qr_accepted": null,
   "stationless_flag": null,
   "status": "active"
  },
  {
   "rk_id": "rk_pub_00134",
   "name": "餃子職人の店 青山餃子房 浦安店",
   "name_en": "Gyoza Shokunin No Mise Aoyama Gyozabo Urayasu Ten",
   "pref": "千葉県",
   "pref_en": "Chiba",
   "city": "浦安市",
   "city_en": "Urayasu Shi",
   "lat": 35.661316,
   "lng": 139.898544,
   "keito": [],
   "genre": "chinese",
   "cash_only_flag": null,
   "payment_qr_accepted": null,
   "stationless_flag": null,
   "status": "active"
  },
  {
   "rk_id": "rk_pub_00135",
   "name": "ラーメンハウス TONTON",
   "name_en": "Ramen House Tonton",
   "pref": "千葉県",
   "pref_en": "Chiba",
   "city": "習志野市",
   "city_en": "Narashino Shi",
   "lat": 35.675797,
   "lng": 140.02272,
   "keito": [],
   "genre": "ramen",
   "cash_only_flag": null,
   "payment_qr_accepted": null,
   "stationless_flag": null,
   "status": "active"
  },
  {
   "rk_id": "rk_pub_00136",
   "name": "ラーメンショップ 大神保店",
   "name_en": "Ramen Shop Ogamibo Ten",
   "pref": "千葉県",
   "pref_en": "Chiba",
   "city": "船橋市",
   "city_en": "Funabashi Shi",
   "lat": 35.768436,
   "lng": 140.063156,
   "keito": [
    "other"
   ],
   "genre": "ramen",
   "cash_only_flag": null,
   "payment_qr_accepted": null,
   "stationless_flag": null,
   "status": "active"
  },
  {
   "rk_id": "rk_pub_00137",
   "name": "幸楽苑 船橋市場通店",
   "name_en": "Kourakuen Funabashi Ichibadori Ten",
   "pref": "千葉県",
   "pref_en": "Chiba",
   "city": "船橋市",
   "city_en": "Funabashi Shi",
   "lat": 35.707687,
   "lng": 139.986633,
   "keito": [
    "shoyu"
   ],
   "genre": "ramen",
   "cash_only_flag": false,
   "payment_qr_accepted": null,
   "stationless_flag": null,
   "status": "active"
  },
  {
   "rk_id": "rk_pub_00138",
   "name": "菜の花そば ペリエ西船橋店",
   "name_en": "Na No Hana Soba Perie Nishifunabashi Ten",
   "pref": "千葉県",
   "pref_en": "Chiba",
   "city": "船橋市",
   "city_en": "Funabashi Shi",
   "lat": 35.708256,
   "lng": 139.957825,
   "keito": [],
   "genre": "ramen",
   "cash_only_flag": null,
   "payment_qr_accepted": null,
   "stationless_flag": null,
   "status": "active"
  },
  {
   "rk_id": "rk_pub_00139",
   "name": "香港料理 萬来",
   "name_en": "Honkon Ryori Banrai",
   "pref": "千葉県",
   "pref_en": "Chiba",
   "city": "船橋市",
   "city_en": "Funabashi Shi",
   "lat": 35.721127,
   "lng": 139.990005,
   "keito": [],
   "genre": "ramen",
   "cash_only_flag": null,
   "payment_qr_accepted": null,
   "stationless_flag": null,
   "status": "active"
  },
  {
   "rk_id": "rk_pub_00140",
   "name": "麺と酒 一",
   "name_en": "Men To Sake Ichi",
   "pref": "千葉県",
   "pref_en": "Chiba",
   "city": "船橋市",
   "city_en": "Funabashi Shi",
   "lat": 35.714993,
   "lng": 139.942688,
   "keito": [],
   "genre": "ramen",
   "cash_only_flag": null,
   "payment_qr_accepted": null,
   "stationless_flag": null,
   "status": "active"
  },
  {
   "rk_id": "rk_pub_00141",
   "name": "長栄飯店",
   "name_en": "Choei Hanten",
   "pref": "千葉県",
   "pref_en": "Chiba",
   "city": "茂原市",
   "city_en": "Mobara Shi",
   "lat": 35.475605,
   "lng": 140.305038,
   "keito": [],
   "genre": "chinese",
   "cash_only_flag": null,
   "payment_qr_accepted": null,
   "stationless_flag": null,
   "status": "active"
  },
  {
   "rk_id": "rk_pub_00142",
   "name": "らーめん原喜",
   "name_en": "Ramen Genki",
   "pref": "千葉県",
   "pref_en": "Chiba",
   "city": "野田市",
   "city_en": "Noda Shi",
   "lat": 35.920635,
   "lng": 139.901077,
   "keito": [],
   "genre": "ramen",
   "cash_only_flag": null,
   "payment_qr_accepted": null,
   "stationless_flag": null,
   "status": "active"
  },
  {
   "rk_id": "rk_pub_00143",
   "name": "犬若食堂",
   "name_en": "Inuwaka Shokudo",
   "pref": "千葉県",
   "pref_en": "Chiba",
   "city": "銚子市",
   "city_en": "Choshi Shi",
   "lat": 35.698341,
   "lng": 140.847687,
   "keito": [],
   "genre": "ramen",
   "cash_only_flag": null,
   "payment_qr_accepted": null,
   "stationless_flag": null,
   "status": "active"
  },
  {
   "rk_id": "rk_pub_00144",
   "name": "東新軒",
   "name_en": "Toshinken",
   "pref": "千葉県",
   "pref_en": "Chiba",
   "city": "鎌ケ谷市",
   "city_en": "Kama Ke Tani Shi",
   "lat": 35.770802,
   "lng": 139.988602,
   "keito": [],
   "genre": "ramen",
   "cash_only_flag": null,
   "payment_qr_accepted": null,
   "stationless_flag": null,
   "status": "active"
  },
  {
   "rk_id": "rk_pub_00145",
   "name": "ROOM",
   "name_en": "ROOM",
   "pref": "千葉県",
   "pref_en": "Chiba",
   "city": "館山市",
   "city_en": "Tateyama Shi",
   "lat": 34.990574,
   "lng": 139.886093,
   "keito": [],
   "genre": "ramen",
   "cash_only_flag": null,
   "payment_qr_accepted": null,
   "stationless_flag": null,
   "status": "active"
  },
  {
   "rk_id": "rk_pub_00146",
   "name": "レニー食堂",
   "name_en": "Lenny Shokudo",
   "pref": "千葉県",
   "pref_en": "Chiba",
   "city": "香取市",
   "city_en": "Katori Shi",
   "lat": 35.897488,
   "lng": 140.49469,
   "keito": [],
   "genre": "ramen",
   "cash_only_flag": null,
   "payment_qr_accepted": null,
   "stationless_flag": null,
   "status": "active"
  },
  {
   "rk_id": "rk_pub_00147",
   "name": "○木中華そば店",
   "name_en": "Maruki Chuka Soba Ten",
   "pref": "和歌山県",
   "pref_en": "Wakayama",
   "city": "和歌山市",
   "city_en": "Wakayama Shi",
   "lat": 34.188816,
   "lng": 135.165756,
   "keito": [
    "shoyu"
   ],
   "genre": "ramen",
   "cash_only_flag": null,
   "payment_qr_accepted": null,
   "stationless_flag": null,
   "status": "active"
  },
  {
   "rk_id": "rk_pub_00148",
   "name": "餃子の王将 和歌山駅前店",
   "name_en": "Gyoza No Osho Wakayama Ekimae Ten",
   "pref": "和歌山県",
   "pref_en": "Wakayama",
   "city": "和歌山市",
   "city_en": "Wakayama Shi",
   "lat": 34.231174,
   "lng": 135.190399,
   "keito": [],
   "genre": "chinese",
   "cash_only_flag": null,
   "payment_qr_accepted": null,
   "stationless_flag": null,
   "status": "active"
  },
  {
   "rk_id": "rk_pub_00149",
   "name": "笑龍 アロチ店",
   "name_en": "Sho Ryu Arochi Ten",
   "pref": "和歌山県",
   "pref_en": "Wakayama",
   "city": "和歌山市",
   "city_en": "Wakayama Shi",
   "lat": 34.231178,
   "lng": 135.183823,
   "keito": [],
   "genre": "ramen",
   "cash_only_flag": null,
   "payment_qr_accepted": null,
   "stationless_flag": null,
   "status": "active"
  },
  {
   "rk_id": "rk_pub_00150",
   "name": "フジツネらーめん 濃厚太麺倶楽部 有田川店",
   "name_en": "Fujitsune Ramen Noko Futomen Kurabu Aridagawa Ten",
   "pref": "和歌山県",
   "pref_en": "Wakayama",
   "city": "有田郡有田川町",
   "city_en": "Arida Gun Aridagawa Machi",
   "lat": 34.059078,
   "lng": 135.196838,
   "keito": [],
   "genre": "ramen",
   "cash_only_flag": null,
   "payment_qr_accepted": null,
   "stationless_flag": null,
   "status": "active"
  },
  {
   "rk_id": "rk_pub_00151",
   "name": "中華料理 浩",
   "name_en": "Chukaryori Hiroshi",
   "pref": "和歌山県",
   "pref_en": "Wakayama",
   "city": "紀の川市",
   "city_en": "Ki No Kawa Shi",
   "lat": 34.216377,
   "lng": 135.299652,
   "keito": [],
   "genre": "chinese",
   "cash_only_flag": null,
   "payment_qr_accepted": null,
   "stationless_flag": null,
   "status": "active"
  },
  {
   "rk_id": "rk_pub_00152",
   "name": "カフェギャラリー 南風",
   "name_en": "Cafe Gallery Nanpu",
   "pref": "埼玉県",
   "pref_en": "Saitama",
   "city": "さいたま市中央区",
   "city_en": "Saitama Shi Chuo Ku",
   "lat": 35.885159,
   "lng": 139.620193,
   "keito": [],
   "genre": "ramen",
   "cash_only_flag": null,
   "payment_qr_accepted": null,
   "stationless_flag": null,
   "status": "active"
  },
  {
   "rk_id": "rk_pub_00153",
   "name": "中国彩飯 多茂吉",
   "name_en": "Chugoku Saihan Tamokichi",
   "pref": "埼玉県",
   "pref_en": "Saitama",
   "city": "さいたま市南区",
   "city_en": "Saitama Shi Minami Ku",
   "lat": 35.85181,
   "lng": 139.694748,
   "keito": [],
   "genre": "ramen",
   "cash_only_flag": null,
   "payment_qr_accepted": null,
   "stationless_flag": null,
   "status": "active"
  },
  {
   "rk_id": "rk_pub_00154",
   "name": "蒙古タンメン 中本 大宮店",
   "name_en": "Moko Tanmen Nakamoto Omiya Ten",
   "pref": "埼玉県",
   "pref_en": "Saitama",
   "city": "さいたま市大宮区",
   "city_en": "Saitama Shi Omiya Ku",
   "lat": 35.905384,
   "lng": 139.626022,
   "keito": [
    "miso"
   ],
   "genre": "ramen",
   "cash_only_flag": true,
   "payment_qr_accepted": null,
   "stationless_flag": null,
   "status": "active"
  },
  {
   "rk_id": "rk_pub_00155",
   "name": "仁庵",
   "name_en": "Jinan",
   "pref": "埼玉県",
   "pref_en": "Saitama",
   "city": "さいたま市大宮区",
   "city_en": "Saitama Shi Omiya Ku",
   "lat": 35.920807,
   "lng": 139.615295,
   "keito": [],
   "genre": "ramen",
   "cash_only_flag": null,
   "payment_qr_accepted": null,
   "stationless_flag": null,
   "status": "active"
  },
  {
   "rk_id": "rk_pub_00156",
   "name": "げんきラーメン",
   "name_en": "Genki Ramen",
   "pref": "埼玉県",
   "pref_en": "Saitama",
   "city": "さいたま市岩槻区",
   "city_en": "Saitama Shi Iwatsuki Ku",
   "lat": 35.929188,
   "lng": 139.724045,
   "keito": [],
   "genre": "ramen",
   "cash_only_flag": null,
   "payment_qr_accepted": null,
   "stationless_flag": null,
   "status": "active"
  },
  {
   "rk_id": "rk_pub_00157",
   "name": "百歩ラーメン 北浦和店",
   "name_en": "Hyappo Ramen Kitaurawa Ten",
   "pref": "埼玉県",
   "pref_en": "Saitama",
   "city": "さいたま市浦和区",
   "city_en": "Saitama Shi Urawa Ku",
   "lat": 35.869354,
   "lng": 139.64566,
   "keito": [],
   "genre": "ramen",
   "cash_only_flag": null,
   "payment_qr_accepted": null,
   "stationless_flag": null,
   "status": "active"
  },
  {
   "rk_id": "rk_pub_00158",
   "name": "娘娘 浦和仲町店",
   "name_en": "Jojo Urawa Nakacho Ten",
   "pref": "埼玉県",
   "pref_en": "Saitama",
   "city": "さいたま市浦和区",
   "city_en": "Saitama Shi Urawa Ku",
   "lat": 35.859589,
   "lng": 139.65239,
   "keito": [],
   "genre": "ramen",
   "cash_only_flag": null,
   "payment_qr_accepted": null,
   "stationless_flag": null,
   "status": "active"
  },
  {
   "rk_id": "rk_pub_00159",
   "name": "次念序 イオンモール浦和美園店",
   "name_en": "Jinenjo Ion Mall Urawa Misono Ten",
   "pref": "埼玉県",
   "pref_en": "Saitama",
   "city": "さいたま市緑区",
   "city_en": "Saitama Shi Midori Ku",
   "lat": 35.882477,
   "lng": 139.731079,
   "keito": [],
   "genre": "ramen",
   "cash_only_flag": null,
   "payment_qr_accepted": null,
   "stationless_flag": null,
   "status": "active"
  },
  {
   "rk_id": "rk_pub_00160",
   "name": "吉草 東新井店",
   "name_en": "Kisso Higashiarai Ten",
   "pref": "埼玉県",
   "pref_en": "Saitama",
   "city": "さいたま市見沼区",
   "city_en": "Saitama Shi Minuma Ku",
   "lat": 35.913727,
   "lng": 139.66861,
   "keito": [],
   "genre": "ramen",
   "cash_only_flag": null,
   "payment_qr_accepted": null,
   "stationless_flag": null,
   "status": "active"
  },
  {
   "rk_id": "rk_pub_00161",
   "name": "ラーメンまこと屋 ふじみ野店",
   "name_en": "Ramen Makotoya Fujimino Ten",
   "pref": "埼玉県",
   "pref_en": "Saitama",
   "city": "ふじみ野市",
   "city_en": "Fujimi Noichi",
   "lat": 35.859207,
   "lng": 139.512863,
   "keito": [],
   "genre": "ramen",
   "cash_only_flag": null,
   "payment_qr_accepted": null,
   "stationless_flag": null,
   "status": "active"
  },
  {
   "rk_id": "rk_pub_00162",
   "name": "横浜ラーメン あばん 上尾西口駅前店",
   "name_en": "Yokohama Ramen Aban Ageo Nishiguchi Ekimae Ten",
   "pref": "埼玉県",
   "pref_en": "Saitama",
   "city": "上尾市",
   "city_en": "Ageo Shi",
   "lat": 35.97298,
   "lng": 139.586136,
   "keito": [],
   "genre": "ramen",
   "cash_only_flag": null,
   "payment_qr_accepted": null,
   "stationless_flag": null,
   "status": "active"
  },
  {
   "rk_id": "rk_pub_00163",
   "name": "横浜中華 華星",
   "name_en": "Yokohama Chuka Kasei",
   "pref": "埼玉県",
   "pref_en": "Saitama",
   "city": "上尾市",
   "city_en": "Ageo Shi",
   "lat": 35.959564,
   "lng": 139.569489,
   "keito": [],
   "genre": "ramen",
   "cash_only_flag": null,
   "payment_qr_accepted": null,
   "stationless_flag": null,
   "status": "active"
  },
  {
   "rk_id": "rk_pub_00164",
   "name": "中華料理 大将",
   "name_en": "Chukaryori Taisho",
   "pref": "埼玉県",
   "pref_en": "Saitama",
   "city": "児玉郡上里町",
   "city_en": "Kodama Gun Uesato Machi",
   "lat": 36.234131,
   "lng": 139.12146,
   "keito": [],
   "genre": "chinese",
   "cash_only_flag": null,
   "payment_qr_accepted": null,
   "stationless_flag": null,
   "status": "active"
  },
  {
   "rk_id": "rk_pub_00165",
   "name": "丸源ラーメン 入間インター店",
   "name_en": "Marugen Ramen Iruma Inter Ten",
   "pref": "埼玉県",
   "pref_en": "Saitama",
   "city": "入間市",
   "city_en": "Iruma Shi",
   "lat": 35.821316,
   "lng": 139.375839,
   "keito": [
    "shoyu"
   ],
   "genre": "ramen",
   "cash_only_flag": false,
   "payment_qr_accepted": null,
   "stationless_flag": null,
   "status": "active"
  },
  {
   "rk_id": "rk_pub_00166",
   "name": "中華料理 昇龍",
   "name_en": "Chukaryori Shoryu",
   "pref": "埼玉県",
   "pref_en": "Saitama",
   "city": "八潮市",
   "city_en": "Yashio Shi",
   "lat": 35.82309,
   "lng": 139.835892,
   "keito": [],
   "genre": "chinese",
   "cash_only_flag": null,
   "payment_qr_accepted": null,
   "stationless_flag": null,
   "status": "active"
  },
  {
   "rk_id": "rk_pub_00167",
   "name": "たけ美食堂",
   "name_en": "Takemi Shokudo",
   "pref": "埼玉県",
   "pref_en": "Saitama",
   "city": "加須市",
   "city_en": "Kazo Shi",
   "lat": 36.143452,
   "lng": 139.690643,
   "keito": [],
   "genre": "ramen",
   "cash_only_flag": null,
   "payment_qr_accepted": null,
   "stationless_flag": null,
   "status": "active"
  },
  {
   "rk_id": "rk_pub_00168",
   "name": "支那そば 織ちゃん",
   "name_en": "Shina Soba Ori Chan",
   "pref": "埼玉県",
   "pref_en": "Saitama",
   "city": "南埼玉郡宮代町",
   "city_en": "Minamisaitama Gun Miyashiro Machi",
   "lat": 36.021397,
   "lng": 139.723557,
   "keito": [
    "shoyu"
   ],
   "genre": "ramen",
   "cash_only_flag": null,
   "payment_qr_accepted": null,
   "stationless_flag": null,
   "status": "active"
  },
  {
   "rk_id": "rk_pub_00169",
   "name": "ラーメンショップ 片柳店",
   "name_en": "Ramen Shop Katayanagi Ten",
   "pref": "埼玉県",
   "pref_en": "Saitama",
   "city": "坂戸市",
   "city_en": "Sakato Shi",
   "lat": 35.976795,
   "lng": 139.405457,
   "keito": [
    "other"
   ],
   "genre": "ramen",
   "cash_only_flag": null,
   "payment_qr_accepted": null,
   "stationless_flag": null,
   "status": "active"
  },
  {
   "rk_id": "rk_pub_00170",
   "name": "麺道場 総本店",
   "name_en": "Men Dojo Sohonten",
   "pref": "埼玉県",
   "pref_en": "Saitama",
   "city": "富士見市",
   "city_en": "Fujimi Shi",
   "lat": 35.857803,
   "lng": 139.537979,
   "keito": [],
   "genre": "ramen",
   "cash_only_flag": null,
   "payment_qr_accepted": null,
   "stationless_flag": null,
   "status": "active"
  },
  {
   "rk_id": "rk_pub_00171",
   "name": "極旨醤油らーめん 一刻魁堂 川口ララガーデン店",
   "name_en": "Gokuuma Shoyu Ramen Ikkoku Kaido Kawaguchi Lala Garden Ten",
   "pref": "埼玉県",
   "pref_en": "Saitama",
   "city": "川口市",
   "city_en": "Kawaguchi Shi",
   "lat": 35.806213,
   "lng": 139.699142,
   "keito": [
    "shoyu"
   ],
   "genre": "ramen",
   "cash_only_flag": null,
   "payment_qr_accepted": null,
   "stationless_flag": null,
   "status": "active"
  },
  {
   "rk_id": "rk_pub_00172",
   "name": "鴻運楼",
   "name_en": "Kounro",
   "pref": "埼玉県",
   "pref_en": "Saitama",
   "city": "川口市",
   "city_en": "Kawaguchi Shi",
   "lat": 35.814476,
   "lng": 139.704025,
   "keito": [],
   "genre": "ramen",
   "cash_only_flag": null,
   "payment_qr_accepted": null,
   "stationless_flag": null,
   "status": "active"
  },
  {
   "rk_id": "rk_pub_00173",
   "name": "文忠",
   "name_en": "Fumitada",
   "pref": "埼玉県",
   "pref_en": "Saitama",
   "city": "川口市",
   "city_en": "Kawaguchi Shi",
   "lat": 35.814003,
   "lng": 139.701645,
   "keito": [],
   "genre": "ramen",
   "cash_only_flag": null,
   "payment_qr_accepted": null,
   "stationless_flag": null,
   "status": "active"
  },
  {
   "rk_id": "rk_pub_00174",
   "name": "GLIN THAI 川口駅店",
   "name_en": "Glin Thai Kawaguchi Eki Ten",
   "pref": "埼玉県",
   "pref_en": "Saitama",
   "city": "川口市",
   "city_en": "Kawaguchi Shi",
   "lat": 35.806351,
   "lng": 139.71962,
   "keito": [],
   "genre": "ramen",
   "cash_only_flag": null,
   "payment_qr_accepted": null,
   "stationless_flag": null,
   "status": "active"
  },
  {
   "rk_id": "rk_pub_00175",
   "name": "ラーメン青木亭 川口店",
   "name_en": "Ramen Aoki Tei Kawaguchi Ten",
   "pref": "埼玉県",
   "pref_en": "Saitama",
   "city": "川口市",
   "city_en": "Kawaguchi Shi",
   "lat": 35.796432,
   "lng": 139.745407,
   "keito": [],
   "genre": "ramen",
   "cash_only_flag": null,
   "payment_qr_accepted": null,
   "stationless_flag": null,
   "status": "active"
  },
  {
   "rk_id": "rk_pub_00176",
   "name": "中国名菜チャイナ15",
   "name_en": "Chugoku Meisai China 15",
   "pref": "埼玉県",
   "pref_en": "Saitama",
   "city": "川越市",
   "city_en": "Kawagoe Shi",
   "lat": 35.882111,
   "lng": 139.49678,
   "keito": [],
   "genre": "ramen",
   "cash_only_flag": null,
   "payment_qr_accepted": null,
   "stationless_flag": null,
   "status": "active"
  },
  {
   "rk_id": "rk_pub_00177",
   "name": "ひやしつけめんフリーザ",
   "name_en": "Hiyashi Tsukemen Freezer",
   "pref": "埼玉県",
   "pref_en": "Saitama",
   "city": "川越市",
   "city_en": "Kawagoe Shi",
   "lat": 35.921448,
   "lng": 139.483643,
   "keito": [
    "tsukemen"
   ],
   "genre": "ramen",
   "cash_only_flag": null,
   "payment_qr_accepted": null,
   "stationless_flag": null,
   "status": "active"
  },
  {
   "rk_id": "rk_pub_00178",
   "name": "SR7埼玉 秋の全国うまいもの市",
   "name_en": "SR7 Saitama Aki No Zenkoku Umaimono Ichi",
   "pref": "埼玉県",
   "pref_en": "Saitama",
   "city": "川越市",
   "city_en": "Kawagoe Shi",
   "lat": 35.912521,
   "lng": 139.48233,
   "keito": [],
   "genre": "ramen",
   "cash_only_flag": null,
   "payment_qr_accepted": null,
   "stationless_flag": null,
   "status": "active"
  },
  {
   "rk_id": "rk_pub_00179",
   "name": "伝統熊本豚骨 伝 総本店 九州・沖縄物産展",
   "name_en": "Dento Kumamoto Tonkotsu Den Sohonten Kyushu Okinawa Bussanten",
   "pref": "埼玉県",
   "pref_en": "Saitama",
   "city": "川越市",
   "city_en": "Kawagoe Shi",
   "lat": 35.912521,
   "lng": 139.48233,
   "keito": [
    "tonkotsu"
   ],
   "genre": "ramen",
   "cash_only_flag": null,
   "payment_qr_accepted": null,
   "stationless_flag": null,
   "status": "active"
  },
  {
   "rk_id": "rk_pub_00180",
   "name": "椿 ラーメンショップ 木立店",
   "name_en": "Ramen Shop",
   "pref": "埼玉県",
   "pref_en": "Saitama",
   "city": "幸手市",
   "city_en": "Satte Shi",
   "lat": 36.07658,
   "lng": 139.748322,
   "keito": [
    "other"
   ],
   "genre": "ramen",
   "cash_only_flag": null,
   "payment_qr_accepted": null,
   "stationless_flag": null,
   "status": "active"
  },
  {
   "rk_id": "rk_pub_00181",
   "name": "カラオケ ビッグエコー 戸田駅前店",
   "name_en": "Karaoke Big Echo Toda Ekimae Ten",
   "pref": "埼玉県",
   "pref_en": "Saitama",
   "city": "戸田市",
   "city_en": "Toda Shi",
   "lat": 35.816711,
   "lng": 139.669373,
   "keito": [],
   "genre": "ramen",
   "cash_only_flag": null,
   "payment_qr_accepted": null,
   "stationless_flag": null,
   "status": "active"
  },
  {
   "rk_id": "rk_pub_00182",
   "name": "ぎょうざの満洲 所沢東口店",
   "name_en": "Gyozano Manshu Tokorozawa Higashiguchi Ten",
   "pref": "埼玉県",
   "pref_en": "Saitama",
   "city": "所沢市",
   "city_en": "Tokorozawa Shi",
   "lat": 35.788177,
   "lng": 139.476135,
   "keito": [],
   "genre": "ramen",
   "cash_only_flag": null,
   "payment_qr_accepted": null,
   "stationless_flag": null,
   "status": "active"
  },
  {
   "rk_id": "rk_pub_00183",
   "name": "博多らーめん ひまわり",
   "name_en": "Hakata Ramen Himawari",
   "pref": "埼玉県",
   "pref_en": "Saitama",
   "city": "所沢市",
   "city_en": "Tokorozawa Shi",
   "lat": 35.80471,
   "lng": 139.511185,
   "keito": [
    "tonkotsu"
   ],
   "genre": "ramen",
   "cash_only_flag": null,
   "payment_qr_accepted": null,
   "stationless_flag": null,
   "status": "active"
  },
  {
   "rk_id": "rk_pub_00184",
   "name": "ぜんや",
   "name_en": "Zenya",
   "pref": "埼玉県",
   "pref_en": "Saitama",
   "city": "新座市",
   "city_en": "Niza Shi",
   "lat": 35.798725,
   "lng": 139.556625,
   "keito": [],
   "genre": "ramen",
   "cash_only_flag": null,
   "payment_qr_accepted": null,
   "stationless_flag": null,
   "status": "active"
  },
  {
   "rk_id": "rk_pub_00185",
   "name": "麺屋 真心",
   "name_en": "Menya Magokoro",
   "pref": "埼玉県",
   "pref_en": "Saitama",
   "city": "日高市",
   "city_en": "Hidaka Shi",
   "lat": 35.908688,
   "lng": 139.378372,
   "keito": [],
   "genre": "ramen",
   "cash_only_flag": null,
   "payment_qr_accepted": null,
   "stationless_flag": null,
   "status": "active"
  },
  {
   "rk_id": "rk_pub_00186",
   "name": "ぎょうざの満洲 春日部東口店",
   "name_en": "Gyoza No Manshu Kasukabe Higashiguchi Ten",
   "pref": "埼玉県",
   "pref_en": "Saitama",
   "city": "春日部市",
   "city_en": "Kasukabe Shi",
   "lat": 35.981438,
   "lng": 139.753006,
   "keito": [],
   "genre": "ramen",
   "cash_only_flag": null,
   "payment_qr_accepted": null,
   "stationless_flag": null,
   "status": "active"
  },
  {
   "rk_id": "rk_pub_00187",
   "name": "福寅",
   "name_en": "Fukutora",
   "pref": "埼玉県",
   "pref_en": "Saitama",
   "city": "朝霞市",
   "city_en": "Asaka Shi",
   "lat": 35.78907,
   "lng": 139.593002,
   "keito": [],
   "genre": "ramen",
   "cash_only_flag": null,
   "payment_qr_accepted": null,
   "stationless_flag": null,
   "status": "active"
  },
  {
   "rk_id": "rk_pub_00188",
   "name": "おおぎやラーメン 児玉店",
   "name_en": "Oogiya Ramen",
   "pref": "埼玉県",
   "pref_en": "Saitama",
   "city": "本庄市",
   "city_en": "Honjo Shi",
   "lat": 36.189686,
   "lng": 139.14534,
   "keito": [],
   "genre": "ramen",
   "cash_only_flag": true,
   "payment_qr_accepted": null,
   "stationless_flag": null,
   "status": "active"
  },
  {
   "rk_id": "rk_pub_00189",
   "name": "くるまやラーメン 東松山店",
   "name_en": "Kurumaya Ramen",
   "pref": "埼玉県",
   "pref_en": "Saitama",
   "city": "東松山市",
   "city_en": "Higashimatsuyama Shi",
   "lat": 36.026707,
   "lng": 139.405838,
   "keito": [
    "miso"
   ],
   "genre": "ramen",
   "cash_only_flag": null,
   "payment_qr_accepted": null,
   "stationless_flag": null,
   "status": "active"
  },
  {
   "rk_id": "rk_pub_00190",
   "name": "台湾料理 天香味",
   "name_en": "Taiwan Ryori Tenkomi",
   "pref": "埼玉県",
   "pref_en": "Saitama",
   "city": "比企郡吉見町",
   "city_en": "Hiki Gun Yoshimi Machi",
   "lat": 36.021572,
   "lng": 139.469711,
   "keito": [],
   "genre": "chinese",
   "cash_only_flag": null,
   "payment_qr_accepted": null,
   "stationless_flag": null,
   "status": "active"
  },
  {
   "rk_id": "rk_pub_00191",
   "name": "客隆軒",
   "name_en": "Kyakuryuken",
   "pref": "埼玉県",
   "pref_en": "Saitama",
   "city": "深谷市",
   "city_en": "Fukaya Shi",
   "lat": 36.124756,
   "lng": 139.232742,
   "keito": [],
   "genre": "ramen",
   "cash_only_flag": null,
   "payment_qr_accepted": null,
   "stationless_flag": null,
   "status": "active"
  },
  {
   "rk_id": "rk_pub_00192",
   "name": "らーめん三峰 熊谷店",
   "name_en": "Ramen Mitsumine Kumagaya Ten",
   "pref": "埼玉県",
   "pref_en": "Saitama",
   "city": "熊谷市",
   "city_en": "Kumagaya Shi",
   "lat": 36.18985,
   "lng": 139.367325,
   "keito": [],
   "genre": "ramen",
   "cash_only_flag": null,
   "payment_qr_accepted": null,
   "stationless_flag": null,
   "status": "active"
  },
  {
   "rk_id": "rk_pub_00193",
   "name": "蒙古タンメン中本 熊谷店",
   "name_en": "Moko Tanmen Nakamoto",
   "pref": "埼玉県",
   "pref_en": "Saitama",
   "city": "熊谷市",
   "city_en": "Kumagaya Shi",
   "lat": 36.171879,
   "lng": 139.371262,
   "keito": [
    "miso"
   ],
   "genre": "ramen",
   "cash_only_flag": true,
   "payment_qr_accepted": null,
   "stationless_flag": null,
   "status": "active"
  },
  {
   "rk_id": "rk_pub_00194",
   "name": "優勝軒 狭山店",
   "name_en": "Yusho Ken Sayama Ten",
   "pref": "埼玉県",
   "pref_en": "Saitama",
   "city": "狭山市",
   "city_en": "Sayama Shi",
   "lat": 35.850159,
   "lng": 139.39595,
   "keito": [],
   "genre": "ramen",
   "cash_only_flag": null,
   "payment_qr_accepted": null,
   "stationless_flag": null,
   "status": "active"
  },
  {
   "rk_id": "rk_pub_00195",
   "name": "拉麺山月",
   "name_en": "Ramen Sangetsu",
   "pref": "埼玉県",
   "pref_en": "Saitama",
   "city": "秩父市",
   "city_en": "Chichibu Shi",
   "lat": 35.993298,
   "lng": 139.086777,
   "keito": [],
   "genre": "ramen",
   "cash_only_flag": null,
   "payment_qr_accepted": null,
   "stationless_flag": null,
   "status": "active"
  },
  {
   "rk_id": "rk_pub_00196",
   "name": "中華料理 三宝",
   "name_en": "Chukaryori Sanpo",
   "pref": "埼玉県",
   "pref_en": "Saitama",
   "city": "羽生市",
   "city_en": "Hanyu Shi",
   "lat": 36.172375,
   "lng": 139.533829,
   "keito": [],
   "genre": "chinese",
   "cash_only_flag": null,
   "payment_qr_accepted": null,
   "stationless_flag": null,
   "status": "active"
  },
  {
   "rk_id": "rk_pub_00197",
   "name": "麺Dining Number Nine 09",
   "name_en": "Men Dining Number Nine 09",
   "pref": "埼玉県",
   "pref_en": "Saitama",
   "city": "草加市",
   "city_en": "Soka Shi",
   "lat": 35.826473,
   "lng": 139.805252,
   "keito": [],
   "genre": "ramen",
   "cash_only_flag": null,
   "payment_qr_accepted": null,
   "stationless_flag": null,
   "status": "active"
  },
  {
   "rk_id": "rk_pub_00198",
   "name": "白蘭酒家",
   "name_en": "Hakuran Shuka",
   "pref": "埼玉県",
   "pref_en": "Saitama",
   "city": "草加市",
   "city_en": "Soka Shi",
   "lat": 35.826454,
   "lng": 139.807266,
   "keito": [
    "tonkotsu"
   ],
   "genre": "ramen",
   "cash_only_flag": null,
   "payment_qr_accepted": null,
   "stationless_flag": null,
   "status": "active"
  },
  {
   "rk_id": "rk_pub_00199",
   "name": "めんはうす 健",
   "name_en": "Menhouse Ken",
   "pref": "埼玉県",
   "pref_en": "Saitama",
   "city": "行田市",
   "city_en": "Gyoda Shi",
   "lat": 36.131519,
   "lng": 139.457458,
   "keito": [],
   "genre": "ramen",
   "cash_only_flag": null,
   "payment_qr_accepted": null,
   "stationless_flag": null,
   "status": "active"
  },
  {
   "rk_id": "rk_pub_00200",
   "name": "らー麺 つやつや",
   "name_en": "Ramen Tsuyatsuya",
   "pref": "埼玉県",
   "pref_en": "Saitama",
   "city": "越谷市",
   "city_en": "Koshigaya Shi",
   "lat": 35.874172,
   "lng": 139.801071,
   "keito": [],
   "genre": "ramen",
   "cash_only_flag": null,
   "payment_qr_accepted": null,
   "stationless_flag": null,
   "status": "active"
  },
  {
   "rk_id": "rk_pub_00201",
   "name": "チョークディー",
   "name_en": "Chokudi",
   "pref": "埼玉県",
   "pref_en": "Saitama",
   "city": "越谷市",
   "city_en": "Koshigaya Shi",
   "lat": 35.90308,
   "lng": 139.781631,
   "keito": [],
   "genre": "ramen",
   "cash_only_flag": null,
   "payment_qr_accepted": null,
   "stationless_flag": null,
   "status": "active"
  },
  {
   "rk_id": "rk_pub_00202",
   "name": "麺処ごまや 越谷レイクタウン店",
   "name_en": "Mendokoro Gomaya Koshigaya Lake Town Ten",
   "pref": "埼玉県",
   "pref_en": "Saitama",
   "city": "越谷市",
   "city_en": "Koshigaya Shi",
   "lat": 35.885181,
   "lng": 139.817902,
   "keito": [],
   "genre": "ramen",
   "cash_only_flag": null,
   "payment_qr_accepted": null,
   "stationless_flag": null,
   "status": "active"
  },
  {
   "rk_id": "rk_pub_00203",
   "name": "あさひ飯店",
   "name_en": "Asahi Hanten",
   "pref": "埼玉県",
   "pref_en": "Saitama",
   "city": "鴻巣市",
   "city_en": "Konosu Shi",
   "lat": 36.091789,
   "lng": 139.476151,
   "keito": [],
   "genre": "chinese",
   "cash_only_flag": null,
   "payment_qr_accepted": null,
   "stationless_flag": null,
   "status": "active"
  },
  {
   "rk_id": "rk_pub_00204",
   "name": "めん六や 大分中津店",
   "name_en": "Menrokuya Oita Nakatsu Ten",
   "pref": "大分県",
   "pref_en": "Oita",
   "city": "中津市",
   "city_en": "Nakatsu Shi",
   "lat": 33.589588,
   "lng": 131.200287,
   "keito": [],
   "genre": "ramen",
   "cash_only_flag": null,
   "payment_qr_accepted": null,
   "stationless_flag": null,
   "status": "active"
  },
  {
   "rk_id": "rk_pub_00205",
   "name": "昭和ラーメン ぶらっと",
   "name_en": "Showa Ramen Buratto",
   "pref": "大分県",
   "pref_en": "Oita",
   "city": "別府市",
   "city_en": "Beppu Shi",
   "lat": 33.278717,
   "lng": 131.504471,
   "keito": [],
   "genre": "ramen",
   "cash_only_flag": null,
   "payment_qr_accepted": null,
   "stationless_flag": null,
   "status": "active"
  },
  {
   "rk_id": "rk_pub_00206",
   "name": "麺処 錦",
   "name_en": "Mendokoro Nishiki",
   "pref": "大分県",
   "pref_en": "Oita",
   "city": "国東市",
   "city_en": "Kunisaki Shi",
   "lat": 33.5503,
   "lng": 131.71127,
   "keito": [],
   "genre": "ramen",
   "cash_only_flag": null,
   "payment_qr_accepted": null,
   "stationless_flag": null,
   "status": "active"
  },
  {
   "rk_id": "rk_pub_00207",
   "name": "味噌乃家 森町バイパス店",
   "name_en": "Miso Noya Moricho Baipasu Ten",
   "pref": "大分県",
   "pref_en": "Oita",
   "city": "大分市",
   "city_en": "Oita Shi",
   "lat": 33.235222,
   "lng": 131.682114,
   "keito": [
    "miso",
    "tonkotsu"
   ],
   "genre": "ramen",
   "cash_only_flag": null,
   "payment_qr_accepted": null,
   "stationless_flag": null,
   "status": "active"
  },
  {
   "rk_id": "rk_pub_00208",
   "name": "中華料理 鼎",
   "name_en": "Chukaryori Kanae",
   "pref": "大分県",
   "pref_en": "Oita",
   "city": "大分市",
   "city_en": "Oita Shi",
   "lat": 33.236336,
   "lng": 131.609802,
   "keito": [],
   "genre": "chinese",
   "cash_only_flag": null,
   "payment_qr_accepted": null,
   "stationless_flag": null,
   "status": "active"
  },
  {
   "rk_id": "rk_pub_00209",
   "name": "日田焼きそば 味の珍さん",
   "name_en": "Hita Yakisoba Aji no Chinsan",
   "pref": "大分県",
   "pref_en": "Oita",
   "city": "日田市",
   "city_en": "Hita Shi",
   "lat": 33.320427,
   "lng": 130.934692,
   "keito": [],
   "genre": "ramen",
   "cash_only_flag": null,
   "payment_qr_accepted": null,
   "stationless_flag": null,
   "status": "active"
  },
  {
   "rk_id": "rk_pub_00210",
   "name": "らーめん 浪越",
   "name_en": "Ramen Namikoshi",
   "pref": "大阪府",
   "pref_en": "Osaka",
   "city": "交野市",
   "city_en": "Katano Shi",
   "lat": 34.793812,
   "lng": 135.691864,
   "keito": [],
   "genre": "ramen",
   "cash_only_flag": null,
   "payment_qr_accepted": null,
   "stationless_flag": null,
   "status": "active"
  },
  {
   "rk_id": "rk_pub_00211",
   "name": "長崎ちゃんぽん リンガーハット イズミヤ千里丘店",
   "name_en": "Nagasaki Champon Ringer Hut Izumiya Senrioka Ten",
   "pref": "大阪府",
   "pref_en": "Osaka",
   "city": "吹田市",
   "city_en": "Suita Shi",
   "lat": 34.788815,
   "lng": 135.538727,
   "keito": [],
   "genre": "ramen",
   "cash_only_flag": false,
   "payment_qr_accepted": null,
   "stationless_flag": null,
   "status": "active"
  },
  {
   "rk_id": "rk_pub_00212",
   "name": "ラーメン魁力屋 千里丘店",
   "name_en": "Kairikiya",
   "pref": "大阪府",
   "pref_en": "Osaka",
   "city": "吹田市",
   "city_en": "Suita Shi",
   "lat": 34.794056,
   "lng": 135.551849,
   "keito": [
    "shoyu"
   ],
   "genre": "ramen",
   "cash_only_flag": false,
   "payment_qr_accepted": null,
   "stationless_flag": null,
   "status": "active"
  },
  {
   "rk_id": "rk_pub_00213",
   "name": "さばらーめん さばね 大阪堺店",
   "name_en": "Sabaramen Sabane Osaka Sakai Ten",
   "pref": "大阪府",
   "pref_en": "Osaka",
   "city": "堺市中区",
   "city_en": "Sakai Shi Naka Ku",
   "lat": 34.528969,
   "lng": 135.495316,
   "keito": [],
   "genre": "ramen",
   "cash_only_flag": null,
   "payment_qr_accepted": null,
   "stationless_flag": null,
   "status": "active"
  },
  {
   "rk_id": "rk_pub_00214",
   "name": "にんにくラーメン 一力",
   "name_en": "Ninniku Ramen Ichiriki",
   "pref": "大阪府",
   "pref_en": "Osaka",
   "city": "堺市堺区",
   "city_en": "Sakai Shi Sakai Ku",
   "lat": 34.566658,
   "lng": 135.494705,
   "keito": [],
   "genre": "ramen",
   "cash_only_flag": null,
   "payment_qr_accepted": null,
   "stationless_flag": null,
   "status": "active"
  },
  {
   "rk_id": "rk_pub_00215",
   "name": "ラーメン横綱 鳳店",
   "name_en": "Ramen Yokozuna",
   "pref": "大阪府",
   "pref_en": "Osaka",
   "city": "堺市西区",
   "city_en": "Sakai Shi Nishi Ku",
   "lat": 34.53096,
   "lng": 135.452774,
   "keito": [],
   "genre": "ramen",
   "cash_only_flag": null,
   "payment_qr_accepted": null,
   "stationless_flag": null,
   "status": "active"
  },
  {
   "rk_id": "rk_pub_00216",
   "name": "小洞天",
   "name_en": "Shodoten",
   "pref": "大阪府",
   "pref_en": "Osaka",
   "city": "大阪市中央区",
   "city_en": "Osaka Shi Chuo Ku",
   "lat": 34.668011,
   "lng": 135.504425,
   "keito": [],
   "genre": "ramen",
   "cash_only_flag": null,
   "payment_qr_accepted": null,
   "stationless_flag": null,
   "status": "active"
  },
  {
   "rk_id": "rk_pub_00217",
   "name": "大阪王将 道頓堀本店",
   "name_en": "Osakaosho Dotonbori Honten",
   "pref": "大阪府",
   "pref_en": "Osaka",
   "city": "大阪市中央区",
   "city_en": "Osaka Shi Chuo Ku",
   "lat": 34.668797,
   "lng": 135.50206,
   "keito": [],
   "genre": "ramen",
   "cash_only_flag": null,
   "payment_qr_accepted": null,
   "stationless_flag": null,
   "status": "active"
  },
  {
   "rk_id": "rk_pub_00218",
   "name": "麺とかき氷 ドギャン 谷四店",
   "name_en": "Men to Kakigori Dogyan Tanishi-ten",
   "pref": "大阪府",
   "pref_en": "Osaka",
   "city": "大阪市中央区",
   "city_en": "Osaka Shi Chuo Ku",
   "lat": 34.678902,
   "lng": 135.516861,
   "keito": [],
   "genre": "ramen",
   "cash_only_flag": null,
   "payment_qr_accepted": null,
   "stationless_flag": null,
   "status": "active"
  },
  {
   "rk_id": "rk_pub_00219",
   "name": "フラン軒",
   "name_en": "Furanken",
   "pref": "大阪府",
   "pref_en": "Osaka",
   "city": "大阪市中央区",
   "city_en": "Osaka Shi Chuo Ku",
   "lat": 34.680164,
   "lng": 135.501434,
   "keito": [],
   "genre": "ramen",
   "cash_only_flag": null,
   "payment_qr_accepted": null,
   "stationless_flag": null,
   "status": "active"
  },
  {
   "rk_id": "rk_pub_00220",
   "name": "功夫ラーメン",
   "name_en": "Kung Fu Ramen",
   "pref": "大阪府",
   "pref_en": "Osaka",
   "city": "大阪市中央区",
   "city_en": "Osaka Shi Chuo Ku",
   "lat": 34.679623,
   "lng": 135.501419,
   "keito": [],
   "genre": "ramen",
   "cash_only_flag": null,
   "payment_qr_accepted": null,
   "stationless_flag": null,
   "status": "active"
  },
  {
   "rk_id": "rk_pub_00221",
   "name": "ゑび真",
   "name_en": "Ebishin",
   "pref": "大阪府",
   "pref_en": "Osaka",
   "city": "大阪市中央区",
   "city_en": "Osaka Shi Chuo Ku",
   "lat": 34.670311,
   "lng": 135.499023,
   "keito": [],
   "genre": "ramen",
   "cash_only_flag": null,
   "payment_qr_accepted": null,
   "stationless_flag": null,
   "status": "active"
  },
  {
   "rk_id": "rk_pub_00222",
   "name": "ニューヨークのラーメン屋 アメリカ村本店",
   "name_en": "New York No Ramen Ya America Mura Honten",
   "pref": "大阪府",
   "pref_en": "Osaka",
   "city": "大阪市中央区",
   "city_en": "Osaka Shi Chuo Ku",
   "lat": 34.672554,
   "lng": 135.49826,
   "keito": [],
   "genre": "ramen",
   "cash_only_flag": null,
   "payment_qr_accepted": null,
   "stationless_flag": null,
   "status": "active"
  },
  {
   "rk_id": "rk_pub_00223",
   "name": "燕ちゃんラーメン 住吉店",
   "name_en": "Tsubame Chan Ramen Sumiyoshi Ten",
   "pref": "大阪府",
   "pref_en": "Osaka",
   "city": "大阪市住吉区",
   "city_en": "Osaka Shi Sumiyoshi Ku",
   "lat": 34.606377,
   "lng": 135.498199,
   "keito": [],
   "genre": "ramen",
   "cash_only_flag": null,
   "payment_qr_accepted": null,
   "stationless_flag": null,
   "status": "active"
  },
  {
   "rk_id": "rk_pub_00224",
   "name": "都由 堂島店",
   "name_en": "Toyu Dojimaten",
   "pref": "大阪府",
   "pref_en": "Osaka",
   "city": "大阪市北区",
   "city_en": "Osaka Shi Kita Ku",
   "lat": 34.696594,
   "lng": 135.497665,
   "keito": [],
   "genre": "ramen",
   "cash_only_flag": null,
   "payment_qr_accepted": null,
   "stationless_flag": null,
   "status": "active"
  },
  {
   "rk_id": "rk_pub_00225",
   "name": "らーめん戦国時代",
   "name_en": "Ramen Sengokujidai",
   "pref": "大阪府",
   "pref_en": "Osaka",
   "city": "大阪市北区",
   "city_en": "Osaka Shi Kita Ku",
   "lat": 34.700424,
   "lng": 135.494614,
   "keito": [],
   "genre": "ramen",
   "cash_only_flag": null,
   "payment_qr_accepted": null,
   "stationless_flag": null,
   "status": "active"
  },
  {
   "rk_id": "rk_pub_00226",
   "name": "チャイニーズビストロ 蘭亭 茶屋町店",
   "name_en": "Chinese Bistro Rantei Chayamachi Ten",
   "pref": "大阪府",
   "pref_en": "Osaka",
   "city": "大阪市北区",
   "city_en": "Osaka Shi Kita Ku",
   "lat": 34.708309,
   "lng": 135.497833,
   "keito": [],
   "genre": "ramen",
   "cash_only_flag": null,
   "payment_qr_accepted": null,
   "stationless_flag": null,
   "status": "active"
  },
  {
   "rk_id": "rk_pub_00227",
   "name": "メンヤ ニュークラシック 中津店",
   "name_en": "Menya New Classic Nakatsu Ten",
   "pref": "大阪府",
   "pref_en": "Osaka",
   "city": "大阪市北区",
   "city_en": "Osaka Shi Kita Ku",
   "lat": 34.709942,
   "lng": 135.495926,
   "keito": [],
   "genre": "ramen",
   "cash_only_flag": null,
   "payment_qr_accepted": null,
   "stationless_flag": null,
   "status": "active"
  },
  {
   "rk_id": "rk_pub_00228",
   "name": "大阪中華サワダ飯店",
   "name_en": "Osaka Chuka Sawada Hanten",
   "pref": "大阪府",
   "pref_en": "Osaka",
   "city": "大阪市北区",
   "city_en": "Osaka Shi Kita Ku",
   "lat": 34.702095,
   "lng": 135.500168,
   "keito": [],
   "genre": "chinese",
   "cash_only_flag": null,
   "payment_qr_accepted": null,
   "stationless_flag": null,
   "status": "active"
  },
  {
   "rk_id": "rk_pub_00229",
   "name": "餃子の王将 鴫野店",
   "name_en": "Gyoza No Osho Shigino Ten",
   "pref": "大阪府",
   "pref_en": "Osaka",
   "city": "大阪市城東区",
   "city_en": "Osaka Shi Joto Ku",
   "lat": 34.690868,
   "lng": 135.546051,
   "keito": [],
   "genre": "chinese",
   "cash_only_flag": null,
   "payment_qr_accepted": null,
   "stationless_flag": null,
   "status": "active"
  },
  {
   "rk_id": "rk_pub_00230",
   "name": "中華そば トライ",
   "name_en": "Chuka Soba Try",
   "pref": "大阪府",
   "pref_en": "Osaka",
   "city": "大阪市天王寺区",
   "city_en": "Osaka Shi Tennoji Ku",
   "lat": 34.651829,
   "lng": 135.513916,
   "keito": [
    "shoyu"
   ],
   "genre": "ramen",
   "cash_only_flag": null,
   "payment_qr_accepted": null,
   "stationless_flag": null,
   "status": "active"
  },
  {
   "rk_id": "rk_pub_00231",
   "name": "2ちゃん牛ラーメン",
   "name_en": "2 Chan Gyu Ramen",
   "pref": "大阪府",
   "pref_en": "Osaka",
   "city": "大阪市平野区",
   "city_en": "Osaka Shi Heiya Ku",
   "lat": 34.637821,
   "lng": 135.554184,
   "keito": [],
   "genre": "ramen",
   "cash_only_flag": null,
   "payment_qr_accepted": null,
   "stationless_flag": null,
   "status": "active"
  },
  {
   "rk_id": "rk_pub_00232",
   "name": "中華そば 住吉",
   "name_en": "Chuka Soba Sumiyoshi",
   "pref": "大阪府",
   "pref_en": "Osaka",
   "city": "大阪市東成区",
   "city_en": "Osaka Shi Higashinari Ku",
   "lat": 34.669186,
   "lng": 135.561722,
   "keito": [
    "shoyu"
   ],
   "genre": "ramen",
   "cash_only_flag": null,
   "payment_qr_accepted": null,
   "stationless_flag": null,
   "status": "active"
  },
  {
   "rk_id": "rk_pub_00233",
   "name": "青波",
   "name_en": "Aonami",
   "pref": "大阪府",
   "pref_en": "Osaka",
   "city": "大阪市東淀川区",
   "city_en": "Osaka Shi Higashiyodogawa Ku",
   "lat": 34.744102,
   "lng": 135.533463,
   "keito": [],
   "genre": "ramen",
   "cash_only_flag": null,
   "payment_qr_accepted": null,
   "stationless_flag": null,
   "status": "active"
  },
  {
   "rk_id": "rk_pub_00234",
   "name": "なにわ新風 日本橋総本店",
   "name_en": "Naniwa Shinpu Nihonbashi Sohonten",
   "pref": "大阪府",
   "pref_en": "Osaka",
   "city": "大阪市浪速区",
   "city_en": "Osaka Shi Naniwa Ku",
   "lat": 34.655079,
   "lng": 135.505692,
   "keito": [],
   "genre": "ramen",
   "cash_only_flag": null,
   "payment_qr_accepted": null,
   "stationless_flag": null,
   "status": "active"
  },
  {
   "rk_id": "rk_pub_00235",
   "name": "力餅食堂 三津屋商店街店",
   "name_en": "Chikaramochi Shokudo Mitsuya Shotengai Ten",
   "pref": "大阪府",
   "pref_en": "Osaka",
   "city": "大阪市淀川区",
   "city_en": "Osaka Shi Yodogawa Ku",
   "lat": 34.727932,
   "lng": 135.472351,
   "keito": [],
   "genre": "ramen",
   "cash_only_flag": null,
   "payment_qr_accepted": null,
   "stationless_flag": null,
   "status": "active"
  },
  {
   "rk_id": "rk_pub_00236",
   "name": "星知ラズ 塚本店",
   "name_en": "Hoshi Shirazu Tsukamoto Ten",
   "pref": "大阪府",
   "pref_en": "Osaka",
   "city": "大阪市淀川区",
   "city_en": "Osaka Shi Yodogawa Ku",
   "lat": 34.713184,
   "lng": 135.469162,
   "keito": [],
   "genre": "ramen",
   "cash_only_flag": null,
   "payment_qr_accepted": null,
   "stationless_flag": null,
   "status": "active"
  },
  {
   "rk_id": "rk_pub_00237",
   "name": "元祖 札幌や 市岡店",
   "name_en": "Ganso Sapporo Ya Ichioka Ten",
   "pref": "大阪府",
   "pref_en": "Osaka",
   "city": "大阪市港区",
   "city_en": "Osaka Shi Minato Ku",
   "lat": 34.664845,
   "lng": 135.462601,
   "keito": [
    "miso"
   ],
   "genre": "ramen",
   "cash_only_flag": null,
   "payment_qr_accepted": null,
   "stationless_flag": null,
   "status": "active"
  },
  {
   "rk_id": "rk_pub_00238",
   "name": "九月ラーメン",
   "name_en": "Kugatsu Ramen",
   "pref": "大阪府",
   "pref_en": "Osaka",
   "city": "大阪市生野区",
   "city_en": "Osaka Shi Ikuno Ku",
   "lat": 34.662052,
   "lng": 135.547089,
   "keito": [],
   "genre": "ramen",
   "cash_only_flag": null,
   "payment_qr_accepted": null,
   "stationless_flag": null,
   "status": "active"
  },
  {
   "rk_id": "rk_pub_00239",
   "name": "つるまる 肥後橋店",
   "name_en": "Tsurumaru Higobashi Ten",
   "pref": "大阪府",
   "pref_en": "Osaka",
   "city": "大阪市西区",
   "city_en": "Osaka Shi Nishi Ku",
   "lat": 34.68964,
   "lng": 135.49678,
   "keito": [],
   "genre": "ramen",
   "cash_only_flag": null,
   "payment_qr_accepted": null,
   "stationless_flag": null,
   "status": "active"
  },
  {
   "rk_id": "rk_pub_00240",
   "name": "らーめんハウス 直ちゃん",
   "name_en": "Ramen House Naochan",
   "pref": "大阪府",
   "pref_en": "Osaka",
   "city": "大阪市西成区",
   "city_en": "Osaka Shi Nishinari Ku",
   "lat": 34.637871,
   "lng": 135.495575,
   "keito": [],
   "genre": "ramen",
   "cash_only_flag": null,
   "payment_qr_accepted": null,
   "stationless_flag": null,
   "status": "active"
  },
  {
   "rk_id": "rk_pub_00241",
   "name": "蘭州ラーメン",
   "name_en": "Ranshu Ramen",
   "pref": "大阪府",
   "pref_en": "Osaka",
   "city": "大阪市都島区",
   "city_en": "Osaka Shi Miyako Shima Ku",
   "lat": 34.699387,
   "lng": 135.534271,
   "keito": [],
   "genre": "ramen",
   "cash_only_flag": null,
   "payment_qr_accepted": null,
   "stationless_flag": null,
   "status": "active"
  },
  {
   "rk_id": "rk_pub_00242",
   "name": "麺屋やま",
   "name_en": "Menya Yama",
   "pref": "大阪府",
   "pref_en": "Osaka",
   "city": "大阪市阿倍野区",
   "city_en": "Osaka Shi Abeno Ku",
   "lat": 34.638012,
   "lng": 135.520172,
   "keito": [],
   "genre": "ramen",
   "cash_only_flag": null,
   "payment_qr_accepted": null,
   "stationless_flag": null,
   "status": "active"
  },
  {
   "rk_id": "rk_pub_00243",
   "name": "ずんどう屋 守口南寺方店",
   "name_en": "Zundouya",
   "pref": "大阪府",
   "pref_en": "Osaka",
   "city": "守口市",
   "city_en": "Moriguchi Shi",
   "lat": 34.721169,
   "lng": 135.571823,
   "keito": [],
   "genre": "ramen",
   "cash_only_flag": false,
   "payment_qr_accepted": null,
   "stationless_flag": null,
   "status": "active"
  },
  {
   "rk_id": "rk_pub_00244",
   "name": "丸源ラーメン 寝屋川店",
   "name_en": "Marugen Ramen Neyagawa Ten",
   "pref": "大阪府",
   "pref_en": "Osaka",
   "city": "寝屋川市",
   "city_en": "Neyagawa Shi",
   "lat": 34.770088,
   "lng": 135.611923,
   "keito": [
    "shoyu"
   ],
   "genre": "ramen",
   "cash_only_flag": false,
   "payment_qr_accepted": null,
   "stationless_flag": null,
   "status": "active"
  },
  {
   "rk_id": "rk_pub_00245",
   "name": "麺匠 てらお",
   "name_en": "Mensho Terao",
   "pref": "大阪府",
   "pref_en": "Osaka",
   "city": "摂津市",
   "city_en": "Settsu Shi",
   "lat": 34.776352,
   "lng": 135.546768,
   "keito": [],
   "genre": "ramen",
   "cash_only_flag": null,
   "payment_qr_accepted": null,
   "stationless_flag": null,
   "status": "active"
  },
  {
   "rk_id": "rk_pub_00246",
   "name": "横浜家系ラーメン 一蓮家 八戸ノ里店",
   "name_en": "Yokohama Iekei Ramen Ichirenya Hachinohe No Sato Ten",
   "pref": "大阪府",
   "pref_en": "Osaka",
   "city": "東大阪市",
   "city_en": "Higashiosaka Shi",
   "lat": 34.663979,
   "lng": 135.588425,
   "keito": [
    "tonkotsu"
   ],
   "genre": "ramen",
   "cash_only_flag": null,
   "payment_qr_accepted": null,
   "stationless_flag": null,
   "status": "active"
  },
  {
   "rk_id": "rk_pub_00247",
   "name": "麺上",
   "name_en": "Men Ue",
   "pref": "大阪府",
   "pref_en": "Osaka",
   "city": "東大阪市",
   "city_en": "Higashiosaka Shi",
   "lat": 34.66185,
   "lng": 135.638428,
   "keito": [],
   "genre": "ramen",
   "cash_only_flag": null,
   "payment_qr_accepted": null,
   "stationless_flag": null,
   "status": "active"
  },
  {
   "rk_id": "rk_pub_00248",
   "name": "お食事処 たかひろ",
   "name_en": "Oshokujidokoro Takahiro",
   "pref": "大阪府",
   "pref_en": "Osaka",
   "city": "松原市",
   "city_en": "Matsubara Shi",
   "lat": 34.573811,
   "lng": 135.545105,
   "keito": [],
   "genre": "ramen",
   "cash_only_flag": null,
   "payment_qr_accepted": null,
   "stationless_flag": null,
   "status": "active"
  },
  {
   "rk_id": "rk_pub_00249",
   "name": "麺家 津田四川",
   "name_en": "Menya Tsuda Shisen",
   "pref": "大阪府",
   "pref_en": "Osaka",
   "city": "枚方市",
   "city_en": "Hirakata Shi",
   "lat": 34.809349,
   "lng": 135.698975,
   "keito": [],
   "genre": "ramen",
   "cash_only_flag": null,
   "payment_qr_accepted": null,
   "stationless_flag": null,
   "status": "active"
  },
  {
   "rk_id": "rk_pub_00250",
   "name": "河内らーめん 喜神 シークル店",
   "name_en": "Kawachi Ramen Kishin Seacle Ten",
   "pref": "大阪府",
   "pref_en": "Osaka",
   "city": "泉佐野市",
   "city_en": "Izumisano Shi",
   "lat": 34.406223,
   "lng": 135.295151,
   "keito": [],
   "genre": "ramen",
   "cash_only_flag": null,
   "payment_qr_accepted": null,
   "stationless_flag": null,
   "status": "active"
  },
  {
   "rk_id": "rk_pub_00251",
   "name": "博多一風堂 みのおキューズモール店",
   "name_en": "Hakata Ippudo Mino Qs Mall Ten",
   "pref": "大阪府",
   "pref_en": "Osaka",
   "city": "箕面市",
   "city_en": "Mino Shi",
   "lat": 34.831688,
   "lng": 135.488998,
   "keito": [
    "tonkotsu"
   ],
   "genre": "ramen",
   "cash_only_flag": false,
   "payment_qr_accepted": null,
   "stationless_flag": null,
   "status": "active"
  },
  {
   "rk_id": "rk_pub_00252",
   "name": "ラー麺 ずんどう屋 茨木下穂積店",
   "name_en": "Zundouya",
   "pref": "大阪府",
   "pref_en": "Osaka",
   "city": "茨木市",
   "city_en": "Ibaraki Shi",
   "lat": 34.808537,
   "lng": 135.552399,
   "keito": [],
   "genre": "ramen",
   "cash_only_flag": false,
   "payment_qr_accepted": null,
   "stationless_flag": null,
   "status": "active"
  },
  {
   "rk_id": "rk_pub_00253",
   "name": "獅子道らーめん",
   "name_en": "Shishido Ramen",
   "pref": "大阪府",
   "pref_en": "Osaka",
   "city": "豊中市",
   "city_en": "Toyonaka Shi",
   "lat": 34.786457,
   "lng": 135.46402,
   "keito": [],
   "genre": "ramen",
   "cash_only_flag": null,
   "payment_qr_accepted": null,
   "stationless_flag": null,
   "status": "active"
  },
  {
   "rk_id": "rk_pub_00254",
   "name": "和歌山ラーメン 紀一",
   "name_en": "Wakayama Ramen Kiichi",
   "pref": "大阪府",
   "pref_en": "Osaka",
   "city": "貝塚市",
   "city_en": "Kaizuka Shi",
   "lat": 34.4436,
   "lng": 135.365021,
   "keito": [],
   "genre": "ramen",
   "cash_only_flag": null,
   "payment_qr_accepted": null,
   "stationless_flag": null,
   "status": "active"
  },
  {
   "rk_id": "rk_pub_00255",
   "name": "ラーメン麺長",
   "name_en": "Ramen Mencho",
   "pref": "大阪府",
   "pref_en": "Osaka",
   "city": "高槻市",
   "city_en": "Takatsuki Shi",
   "lat": 34.863995,
   "lng": 135.655701,
   "keito": [],
   "genre": "ramen",
   "cash_only_flag": null,
   "payment_qr_accepted": null,
   "stationless_flag": null,
   "status": "active"
  },