{
 "_note": "REAL 1,000-row sample from the Japan Ramen Active Master (62,173 active). IDs are public masks (internal keys withheld). name_en/pref_en/city_en let you query fully in English. keito is the coarse public enum (tonkotsu/miso/shoyu/shio/tsukemen/spicy/other). payment_qr_accepted / stationless are enriched in the live API only. No canary records.",
 "_attribution": "Store facts observed from public web ramen listings; licensing-verified records from Japanese municipality open data (© municipality open data, CC BY). Derived values (keito, romanization, station distance) © gachi-tokusuru.com.",
 "schema_version": "1.2.0",
 "sample_count": 1000,
 "master_count": 62173,
 "shops": [
  {
   "rk_id": "rk_pub_00001",
   "name": "らーめん たべ亭",
   "name_en": "Ramen Tabetei",
   "pref": "三重県",
   "pref_en": "Mie",
   "city": "いなべ市",
   "city_en": "Inabe Shi",
   "lat": 35.150902,
   "lng": 136.510727,
   "keito": [],
   "genre": "ramen",
   "cash_only_flag": null,
   "payment_qr_accepted": null,
   "stationless_flag": null,
   "status": "active"
  },
  {
   "rk_id": "rk_pub_00002",
   "name": "ル・シノワ 花栞",
   "name_en": "Le Chinois Hana Shiori",
   "pref": "三重県",
   "pref_en": "Mie",
   "city": "伊勢市",
   "city_en": "Ise Shi",
   "lat": 34.507648,
   "lng": 136.780991,
   "keito": [],
   "genre": "ramen",
   "cash_only_flag": null,
   "payment_qr_accepted": null,
   "stationless_flag": null,
   "status": "active"
  },
  {
   "rk_id": "rk_pub_00003",
   "name": "ラーメン魁力屋東員店",
   "name_en": "Ramen Kairikiya Toin Ten",
   "pref": "三重県",
   "pref_en": "Mie",
   "city": "員弁郡東員町",
   "city_en": "Inabe Gun Toin Cho",
   "lat": 35.061817,
   "lng": 136.57991,
   "keito": [
    "shoyu"
   ],
   "genre": "ramen",
   "cash_only_flag": false,
   "payment_qr_accepted": null,
   "stationless_flag": null,
   "status": "active"
  },
  {
   "rk_id": "rk_pub_00004",
   "name": "尾鷲しおラーメン モクモクしお学舎",
   "name_en": "Owase Shio Ramen Mokumoku Shio Gakusha",
   "pref": "三重県",
   "pref_en": "Mie",
   "city": "四日市",
   "city_en": "Yokkaichi",
   "lat": 34.967522,
   "lng": 136.619492,
   "keito": [],
   "genre": "ramen",
   "cash_only_flag": null,
   "payment_qr_accepted": null,
   "stationless_flag": null,
   "status": "active"
  },
  {
   "rk_id": "rk_pub_00005",
   "name": "四日市きみちゃんらーめん塩浜街道店",
   "name_en": "Yokkaichi Kimi-chan Ramen Shiohama Kaido Ten",
   "pref": "三重県",
   "pref_en": "Mie",
   "city": "四日市",
   "city_en": "Yokkaichi",
   "lat": 34.930367,
   "lng": 136.625305,
   "keito": [],
   "genre": "ramen",
   "cash_only_flag": null,
   "payment_qr_accepted": null,
   "stationless_flag": null,
   "status": "active"
  },
  {
   "rk_id": "rk_pub_00006",
   "name": "おかげさん",
   "name_en": "Okagesan",
   "pref": "三重県",
   "pref_en": "Mie",
   "city": "松阪市",
   "city_en": "Matsusaka Shi",
   "lat": 34.491425,
   "lng": 136.441925,
   "keito": [],
   "genre": "ramen",
   "cash_only_flag": null,
   "payment_qr_accepted": null,
   "stationless_flag": null,
   "status": "active"
  },
  {
   "rk_id": "rk_pub_00007",
   "name": "摩天楼",
   "name_en": "Matenro",
   "pref": "三重県",
   "pref_en": "Mie",
   "city": "桑名市",
   "city_en": "Kuwana Shi",
   "lat": 35.072361,
   "lng": 136.62352,
   "keito": [],
   "genre": "ramen",
   "cash_only_flag": null,
   "payment_qr_accepted": null,
   "stationless_flag": null,
   "status": "active"
  },
  {
   "rk_id": "rk_pub_00008",
   "name": "ちりめん亭 津新町店",
   "name_en": "Chirimen Tei Tsu Shinmachi Ten",
   "pref": "三重県",
   "pref_en": "Mie",
   "city": "津市",
   "city_en": "Tsu Shi",
   "lat": 34.715336,
   "lng": 136.503815,
   "keito": [],
   "genre": "ramen",
   "cash_only_flag": null,
   "payment_qr_accepted": null,
   "stationless_flag": null,
   "status": "active"
  },
  {
   "rk_id": "rk_pub_00009",
   "name": "鈴鹿カンツリークラブ",
   "name_en": "Suzuka Country Club",
   "pref": "三重県",
   "pref_en": "Mie",
   "city": "津市",
   "city_en": "Tsu Shi",
   "lat": 34.830814,
   "lng": 136.400909,
   "keito": [],
   "genre": "ramen",
   "cash_only_flag": null,
   "payment_qr_accepted": null,
   "stationless_flag": null,
   "status": "active"
  },
  {
   "rk_id": "rk_pub_00010",
   "name": "餃子の王将 鈴鹿中央店",
   "name_en": "Gyoza No Osho Suzuka Chuo Ten",
   "pref": "三重県",
   "pref_en": "Mie",
   "city": "鈴鹿市",
   "city_en": "Suzuka Shi",
   "lat": 34.872223,
   "lng": 136.564438,
   "keito": [],
   "genre": "chinese",
   "cash_only_flag": null,
   "payment_qr_accepted": null,
   "stationless_flag": null,
   "status": "active"
  },
  {
   "rk_id": "rk_pub_00011",
   "name": "ラーメン 横綱 久御山店",
   "name_en": "Ramen Yokozuna Kumiyama Ten",
   "pref": "京都府",
   "pref_en": "Kyoto",
   "city": "久世郡久御山町",
   "city_en": "Kuse Gun Kumiyama Cho",
   "lat": 34.896637,
   "lng": 135.744171,
   "keito": [],
   "genre": "ramen",
   "cash_only_flag": null,
   "payment_qr_accepted": null,
   "stationless_flag": null,
   "status": "active"
  },
  {
   "rk_id": "rk_pub_00012",
   "name": "キラメキノトリ",
   "name_en": "Kiramekinotori",
   "pref": "京都府",
   "pref_en": "Kyoto",
   "city": "京都市上京区",
   "city_en": "Kyoto Shi Jokyo Ku",
   "lat": 35.01881,
   "lng": 135.769394,
   "keito": [],
   "genre": "ramen",
   "cash_only_flag": null,
   "payment_qr_accepted": null,
   "stationless_flag": null,
   "status": "active"
  },
  {
   "rk_id": "rk_pub_00013",
   "name": "麺匠たか松 四条店",
   "name_en": "Mensho Takamatsu Shijo Ten",
   "pref": "京都府",
   "pref_en": "Kyoto",
   "city": "京都市下京区",
   "city_en": "Kyoto Shi Shimogyo Ku",
   "lat": 35.003151,
   "lng": 135.761612,
   "keito": [],
   "genre": "ramen",
   "cash_only_flag": null,
   "payment_qr_accepted": null,
   "stationless_flag": null,
   "status": "active"
  },
  {
   "rk_id": "rk_pub_00014",
   "name": "すぎのこ亭",
   "name_en": "Suginokotei",
   "pref": "京都府",
   "pref_en": "Kyoto",
   "city": "京都市中京区",
   "city_en": "Kyoto Shi Chukyo Ku",
   "lat": 35.00885,
   "lng": 135.770859,
   "keito": [],
   "genre": "ramen",
   "cash_only_flag": null,
   "payment_qr_accepted": null,
   "stationless_flag": null,
   "status": "active"
  },
  {
   "rk_id": "rk_pub_00015",
   "name": "セアブラノ神 slurp",
   "name_en": "Seaburano Kami Slurp",
   "pref": "京都府",
   "pref_en": "Kyoto",
   "city": "京都市中京区",
   "city_en": "Kyoto Shi Chukyo Ku",
   "lat": 35.008389,
   "lng": 135.761856,
   "keito": [],
   "genre": "ramen",
   "cash_only_flag": null,
   "payment_qr_accepted": null,
   "stationless_flag": null,
   "status": "active"
  },
  {
   "rk_id": "rk_pub_00016",
   "name": "来来亭 新堀川店",
   "name_en": "Rairaitei Shinbori Kawa Ten",
   "pref": "京都府",
   "pref_en": "Kyoto",
   "city": "京都市伏見区",
   "city_en": "Kyoto Shi Fushimi Ku",
   "lat": 34.93195,
   "lng": 135.751602,
   "keito": [
    "shoyu"
   ],
   "genre": "ramen",
   "cash_only_flag": null,
   "payment_qr_accepted": null,
   "stationless_flag": null,
   "status": "active"
  },
  {
   "rk_id": "rk_pub_00017",
   "name": "麻婆豆腐専門店 からいもんや 伏見本店",
   "name_en": "Mabodofu Senmonten Karaimonya Fushimi Honten",
   "pref": "京都府",
   "pref_en": "Kyoto",
   "city": "京都市伏見区",
   "city_en": "Kyoto Shi Fushimi Ku",
   "lat": 34.927277,
   "lng": 135.740265,
   "keito": [],
   "genre": "ramen",
   "cash_only_flag": null,
   "payment_qr_accepted": null,
   "stationless_flag": null,
   "status": "active"
  },
  {
   "rk_id": "rk_pub_00018",
   "name": "たかばしラーメン 京都南インター店",
   "name_en": "Takabashi Ramen Kyoto Minami Inter Ten",
   "pref": "京都府",
   "pref_en": "Kyoto",
   "city": "京都市南区",
   "city_en": "Kyoto Shi Minami Ku",
   "lat": 34.956585,
   "lng": 135.745743,
   "keito": [],
   "genre": "ramen",
   "cash_only_flag": null,
   "payment_qr_accepted": null,
   "stationless_flag": null,
   "status": "active"
  },
  {
   "rk_id": "rk_pub_00019",
   "name": "喜らく",
   "name_en": "Kiraku",
   "pref": "京都府",
   "pref_en": "Kyoto",
   "city": "京都市右京区",
   "city_en": "Kyoto Shi Ukyo Ku",
   "lat": 35.015907,
   "lng": 135.708511,
   "keito": [],
   "genre": "ramen",
   "cash_only_flag": null,
   "payment_qr_accepted": null,
   "stationless_flag": null,
   "status": "active"
  },
  {
   "rk_id": "rk_pub_00020",
   "name": "イワサキタンメン",
   "name_en": "Iwasaki Tanmen",
   "pref": "京都府",
   "pref_en": "Kyoto",
   "city": "京都市山科区",
   "city_en": "Kyoto Shi Yamashina Ku",
   "lat": 34.962307,
   "lng": 135.813492,
   "keito": [],
   "genre": "ramen",
   "cash_only_flag": null,
   "payment_qr_accepted": null,
   "stationless_flag": null,
   "status": "active"
  },
  {
   "rk_id": "rk_pub_00021",
   "name": "総代麺家あくた川",
   "name_en": "Sodai Menya Akutagawa",
   "pref": "京都府",
   "pref_en": "Kyoto",
   "city": "京都市左京区",
   "city_en": "Kyoto Shi Sakyo Ku",
   "lat": 35.029804,
   "lng": 135.78093,
   "keito": [],
   "genre": "ramen",
   "cash_only_flag": null,
   "payment_qr_accepted": null,
   "stationless_flag": null,
   "status": "active"
  },
  {
   "rk_id": "rk_pub_00022",
   "name": "札幌ラーメン 柳",
   "name_en": "Sapporo Ramen Yanagi",
   "pref": "京都府",
   "pref_en": "Kyoto",
   "city": "京都市東山区",
   "city_en": "Kyoto Shi Higashiyama Ku",
   "lat": 34.988358,
   "lng": 135.769409,
   "keito": [
    "miso"
   ],
   "genre": "ramen",
   "cash_only_flag": null,
   "payment_qr_accepted": null,
   "stationless_flag": null,
   "status": "active"
  },
  {
   "rk_id": "rk_pub_00023",
   "name": "城陽飯店",
   "name_en": "Joyo Hanten",
   "pref": "京都府",
   "pref_en": "Kyoto",
   "city": "城陽市",
   "city_en": "Joyo Shi",
   "lat": 34.853123,
   "lng": 135.780823,
   "keito": [],
   "genre": "chinese",
   "cash_only_flag": null,
   "payment_qr_accepted": null,
   "stationless_flag": null,
   "status": "active"
  },
  {
   "rk_id": "rk_pub_00024",
   "name": "格別ヤ 福知山店",
   "name_en": "Kakubetsu Ya Fukuchiyama Ten",
   "pref": "京都府",
   "pref_en": "Kyoto",
   "city": "福知山市",
   "city_en": "Fukuchiyama Shi",
   "lat": 35.293701,
   "lng": 135.115479,
   "keito": [],
   "genre": "ramen",
   "cash_only_flag": null,
   "payment_qr_accepted": null,
   "stationless_flag": null,
   "status": "active"
  },
  {
   "rk_id": "rk_pub_00025",
   "name": "長浜ラーメン 喜樂屋",
   "name_en": "Nagahama Ramen Kirakuya",
   "pref": "佐賀県",
   "pref_en": "Saga",
   "city": "三養基郡みやき町",
   "city_en": "Miyaki Gun Miyaki Cho",
   "lat": 33.352402,
   "lng": 130.453552,
   "keito": [
    "tonkotsu"
   ],
   "genre": "ramen",
   "cash_only_flag": null,
   "payment_qr_accepted": null,
   "stationless_flag": null,
   "status": "active"
  },
  {
   "rk_id": "rk_pub_00026",
   "name": "井手ちゃんぽん 諸富店",
   "name_en": "Ide Chanpon Morotomi Ten",
   "pref": "佐賀県",
   "pref_en": "Saga",
   "city": "佐賀市",
   "city_en": "Saga Shi",
   "lat": 33.225124,
   "lng": 130.34407,
   "keito": [],
   "genre": "ramen",
   "cash_only_flag": null,
   "payment_qr_accepted": null,
   "stationless_flag": null,
   "status": "active"
  },
  {
   "rk_id": "rk_pub_00027",
   "name": "ラーメン 大将",
   "name_en": "Ramen Taisho",
   "pref": "佐賀県",
   "pref_en": "Saga",
   "city": "唐津市",
   "city_en": "Karatsu Shi",
   "lat": 33.442257,
   "lng": 129.970383,
   "keito": [],
   "genre": "ramen",
   "cash_only_flag": null,
   "payment_qr_accepted": null,
   "stationless_flag": null,
   "status": "active"
  },
  {
   "rk_id": "rk_pub_00028",
   "name": "元祖 豚骨一丁 有明店",
   "name_en": "Ganso Tonkotsu Itcho Ariake Ten",
   "pref": "佐賀県",
   "pref_en": "Saga",
   "city": "杵島郡白石町",
   "city_en": "Kishima Gun Shiroishi Cho",
   "lat": 33.148365,
   "lng": 130.12738,
   "keito": [
    "tonkotsu"
   ],
   "genre": "ramen",
   "cash_only_flag": null,
   "payment_qr_accepted": null,
   "stationless_flag": null,
   "status": "active"
  },
  {
   "rk_id": "rk_pub_00029",
   "name": "夢を語れ 鳥栖総本店",
   "name_en": "Yume Wo Katare Tosu Sohonten",
   "pref": "佐賀県",
   "pref_en": "Saga",
   "city": "鳥栖市",
   "city_en": "Tosu Shi",
   "lat": 33.391537,
   "lng": 130.516525,
   "keito": [],
   "genre": "ramen",
   "cash_only_flag": null,
   "payment_qr_accepted": null,
   "stationless_flag": null,
   "status": "active"
  },
  {
   "rk_id": "rk_pub_00030",
   "name": "ラーメンさくらまる 三田店",
   "name_en": "Ramen Sakuramaru Mita Ten",
   "pref": "兵庫県",
   "pref_en": "Hyogo",
   "city": "三田市",
   "city_en": "Mita Shi",
   "lat": 34.882908,
   "lng": 135.219452,
   "keito": [],
   "genre": "ramen",
   "cash_only_flag": null,
   "payment_qr_accepted": null,
   "stationless_flag": null,
   "status": "active"
  },
  {
   "rk_id": "rk_pub_00031",
   "name": "春",
   "name_en": "Haru",
   "pref": "兵庫県",
   "pref_en": "Hyogo",
   "city": "佐用郡佐用町",
   "city_en": "Sayo Gun Sayo Cho",
   "lat": 34.979725,
   "lng": 134.41188,
   "keito": [],
   "genre": "ramen",
   "cash_only_flag": null,
   "payment_qr_accepted": null,
   "stationless_flag": null,
   "status": "active"
  },
  {
   "rk_id": "rk_pub_00032",
   "name": "なやんでもここ 加古川店",
   "name_en": "Nayandemokoko Kakogawa Ten",
   "pref": "兵庫県",
   "pref_en": "Hyogo",
   "city": "加古川市",
   "city_en": "Kakogawa Shi",
   "lat": 34.743053,
   "lng": 134.859558,
   "keito": [],
   "genre": "ramen",
   "cash_only_flag": null,
   "payment_qr_accepted": null,
   "stationless_flag": null,
   "status": "active"
  },
  {
   "rk_id": "rk_pub_00033",
   "name": "英洋軒",
   "name_en": "Eiyoken",
   "pref": "兵庫県",
   "pref_en": "Hyogo",
   "city": "姫路市",
   "city_en": "Himeji Shi",
   "lat": 34.855225,
   "lng": 134.644241,
   "keito": [],
   "genre": "ramen",
   "cash_only_flag": null,
   "payment_qr_accepted": null,
   "stationless_flag": null,
   "status": "active"
  },
  {
   "rk_id": "rk_pub_00034",
   "name": "らーめん うぉんちゅ",
   "name_en": "Ramen Uonchu",
   "pref": "兵庫県",
   "pref_en": "Hyogo",
   "city": "姫路市",
   "city_en": "Himeji Shi",
   "lat": 34.647701,
   "lng": 134.507431,
   "keito": [],
   "genre": "ramen",
   "cash_only_flag": null,
   "payment_qr_accepted": null,
   "stationless_flag": null,
   "status": "active"
  },
  {
   "rk_id": "rk_pub_00035",
   "name": "らー麺 愚かものであれ",
   "name_en": "Ra Men Orokamono de Are",
   "pref": "兵庫県",
   "pref_en": "Hyogo",
   "city": "姫路市飾磨区",
   "city_en": "Himeji Shi Shikama Ku",
   "lat": 34.806461,
   "lng": 134.66127,
   "keito": [],
   "genre": "ramen",
   "cash_only_flag": null,
   "payment_qr_accepted": null,
   "stationless_flag": null,
   "status": "active"
  },
  {
   "rk_id": "rk_pub_00036",
   "name": "拉麺 日本一",
   "name_en": "Ramen Nippon Ichi",
   "pref": "兵庫県",
   "pref_en": "Hyogo",
   "city": "尼崎市",
   "city_en": "Amagasaki Shi",
   "lat": 34.719395,
   "lng": 135.429749,
   "keito": [],
   "genre": "ramen",
   "cash_only_flag": null,
   "payment_qr_accepted": null,
   "stationless_flag": null,
   "status": "active"
  },
  {
   "rk_id": "rk_pub_00037",
   "name": "メンヤ ニューオルド",
   "name_en": "Menya New Old",
   "pref": "兵庫県",
   "pref_en": "Hyogo",
   "city": "尼崎市",
   "city_en": "Amagasaki Shi",
   "lat": 34.731262,
   "lng": 135.43399,
   "keito": [],
   "genre": "ramen",
   "cash_only_flag": null,
   "payment_qr_accepted": null,
   "stationless_flag": null,
   "status": "active"
  },
  {
   "rk_id": "rk_pub_00038",
   "name": "mendokoro ICHI",
   "name_en": "mendokoro ICHI",
   "pref": "兵庫県",
   "pref_en": "Hyogo",
   "city": "明石市",
   "city_en": "Akashi Shi",
   "lat": 34.648502,
   "lng": 134.989349,
   "keito": [],
   "genre": "ramen",
   "cash_only_flag": null,
   "payment_qr_accepted": null,
   "stationless_flag": null,
   "status": "active"
  },
  {
   "rk_id": "rk_pub_00039",
   "name": "淡波家",
   "name_en": "Awanamiya",
   "pref": "兵庫県",
   "pref_en": "Hyogo",
   "city": "淡路市",
   "city_en": "Awaji Shi",
   "lat": 34.524738,
   "lng": 134.887817,
   "keito": [
    "tonkotsu"
   ],
   "genre": "ramen",
   "cash_only_flag": null,
   "payment_qr_accepted": null,
   "stationless_flag": null,
   "status": "active"
  },
  {
   "rk_id": "rk_pub_00040",
   "name": "丸萬",
   "name_en": "Maruman",
   "pref": "兵庫県",
   "pref_en": "Hyogo",
   "city": "神戸市中央区",
   "city_en": "Kobe Shi Chuo Ku",
   "lat": 34.690594,
   "lng": 135.19101,
   "keito": [],
   "genre": "ramen",
   "cash_only_flag": null,
   "payment_qr_accepted": null,
   "stationless_flag": null,
   "status": "active"
  },
  {
   "rk_id": "rk_pub_00041",
   "name": "群愛茶餐廳",
   "name_en": "Gunai Chasanteng",
   "pref": "兵庫県",
   "pref_en": "Hyogo",
   "city": "神戸市中央区",
   "city_en": "Kobe Shi Chuo Ku",
   "lat": 34.687466,
   "lng": 135.187119,
   "keito": [],
   "genre": "ramen",
   "cash_only_flag": null,
   "payment_qr_accepted": null,
   "stationless_flag": null,
   "status": "active"
  },
  {
   "rk_id": "rk_pub_00042",
   "name": "油そば きりん寺 元町店",
   "name_en": "Abura Soba Kirinji Motomachi Ten",
   "pref": "兵庫県",
   "pref_en": "Hyogo",
   "city": "神戸市中央区",
   "city_en": "Kobe Shi Chuo Ku",
   "lat": 34.689255,
   "lng": 135.18924,
   "keito": [
    "other"
   ],
   "genre": "ramen",
   "cash_only_flag": null,
   "payment_qr_accepted": null,
   "stationless_flag": null,
   "status": "active"
  },
  {
   "rk_id": "rk_pub_00043",
   "name": "札幌ラーメン キヨリト",
   "name_en": "Sapporo Ramen Kiyorito",
   "pref": "兵庫県",
   "pref_en": "Hyogo",
   "city": "神戸市中央区",
   "city_en": "Kobe Shi Chuo Ku",
   "lat": 34.696144,
   "lng": 135.191849,
   "keito": [
    "miso"
   ],
   "genre": "ramen",
   "cash_only_flag": null,
   "payment_qr_accepted": null,
   "stationless_flag": null,
   "status": "active"
  },
  {
   "rk_id": "rk_pub_00044",
   "name": "どうとんぼり神座 イオンモール神戸南店",
   "name_en": "Dotonbori Kamukura Ionmoru Kobe Minami Ten",
   "pref": "兵庫県",
   "pref_en": "Hyogo",
   "city": "神戸市兵庫区",
   "city_en": "Kobe Shi Hyogo Ku",
   "lat": 34.665367,
   "lng": 135.174438,
   "keito": [],
   "genre": "ramen",
   "cash_only_flag": false,
   "payment_qr_accepted": null,
   "stationless_flag": null,
   "status": "active"
  },
  {
   "rk_id": "rk_pub_00045",
   "name": "弘雅流製麺",
   "name_en": "Hiromasa Ryu Seimen",
   "pref": "兵庫県",
   "pref_en": "Hyogo",
   "city": "神戸市東灘区",
   "city_en": "Kobe Shi Higashinada Ku",
   "lat": 34.717842,
   "lng": 135.259842,
   "keito": [],
   "genre": "ramen",
   "cash_only_flag": null,
   "payment_qr_accepted": null,
   "stationless_flag": null,
   "status": "active"
  },
  {
   "rk_id": "rk_pub_00046",
   "name": "鶏白湯ラーメン MUTSUKI",
   "name_en": "Tori Paitan Ramen Mutsuki",
   "pref": "兵庫県",
   "pref_en": "Hyogo",
   "city": "神戸市灘区",
   "city_en": "Kobe Shi Nada Ku",
   "lat": 34.714642,
   "lng": 135.236816,
   "keito": [],
   "genre": "ramen",
   "cash_only_flag": null,
   "payment_qr_accepted": null,
   "stationless_flag": null,
   "status": "active"
  },
  {
   "rk_id": "rk_pub_00047",
   "name": "もっこす 高速長田店",
   "name_en": "Mokkosu Kosoku Nagata Ten",
   "pref": "兵庫県",
   "pref_en": "Hyogo",
   "city": "神戸市長田区",
   "city_en": "Kobe Shi Nagata Ku",
   "lat": 34.66721,
   "lng": 135.152527,
   "keito": [],
   "genre": "ramen",
   "cash_only_flag": null,
   "payment_qr_accepted": null,
   "stationless_flag": null,
   "status": "active"
  },
  {
   "rk_id": "rk_pub_00048",
   "name": "五福飯店",
   "name_en": "Gofuku Hanten",
   "pref": "兵庫県",
   "pref_en": "Hyogo",
   "city": "芦屋市",
   "city_en": "Ashiya Shi",
   "lat": 34.735424,
   "lng": 135.307632,
   "keito": [],
   "genre": "chinese",
   "cash_only_flag": null,
   "payment_qr_accepted": null,
   "stationless_flag": null,
   "status": "active"
  },
  {
   "rk_id": "rk_pub_00049",
   "name": "和みらーめん",
   "name_en": "Nagomi Ramen",
   "pref": "兵庫県",
   "pref_en": "Hyogo",
   "city": "西宮市",
   "city_en": "Nishinomiya Shi",
   "lat": 34.736591,
   "lng": 135.372925,
   "keito": [],
   "genre": "ramen",
   "cash_only_flag": null,
   "payment_qr_accepted": null,
   "stationless_flag": null,
   "status": "active"
  },
  {
   "rk_id": "rk_pub_00050",
   "name": "油そば 六観 豊岡店",
   "name_en": "Abura Soba Rokukan Toyooka Ten",
   "pref": "兵庫県",
   "pref_en": "Hyogo",
   "city": "豊岡市",
   "city_en": "Toyoka Shi",
   "lat": 35.547783,
   "lng": 134.821487,
   "keito": [
    "other"
   ],
   "genre": "ramen",
   "cash_only_flag": null,
   "payment_qr_accepted": null,
   "stationless_flag": null,
   "status": "active"
  },
  {
   "rk_id": "rk_pub_00051",
   "name": "食事処たかはし",
   "name_en": "Shokujidokoro Takahashi",
   "pref": "北海道",
   "pref_en": "Hokkaido",
   "city": "上川郡当麻町",
   "city_en": "Kamikawa Gun Toma Cho",
   "lat": 43.824791,
   "lng": 142.515442,
   "keito": [],
   "genre": "ramen",
   "cash_only_flag": null,
   "payment_qr_accepted": null,
   "stationless_flag": null,
   "status": "active"
  },
  {
   "rk_id": "rk_pub_00052",
   "name": "ラーメン居酒屋 縁",
   "name_en": "Ramen Izakaya En",
   "pref": "北海道",
   "pref_en": "Hokkaido",
   "city": "二海郡八雲町",
   "city_en": "Futami Gun Yakumo Cho",
   "lat": 42.254112,
   "lng": 140.274292,
   "keito": [],
   "genre": "ramen",
   "cash_only_flag": null,
   "payment_qr_accepted": null,
   "stationless_flag": null,
   "status": "active"
  },
  {
   "rk_id": "rk_pub_00053",
   "name": "蔵",
   "name_en": "Kura",
   "pref": "北海道",
   "pref_en": "Hokkaido",
   "city": "函館市",
   "city_en": "Hakodate Shi",
   "lat": 41.789894,
   "lng": 140.77626,
   "keito": [],
   "genre": "ramen",
   "cash_only_flag": null,
   "payment_qr_accepted": null,
   "stationless_flag": null,
   "status": "active"
  },
  {
   "rk_id": "rk_pub_00054",
   "name": "松よし",
   "name_en": "Matsu Yoshi",
   "pref": "北海道",
   "pref_en": "Hokkaido",
   "city": "函館市",
   "city_en": "Hakodate Shi",
   "lat": 41.812347,
   "lng": 140.735458,
   "keito": [],
   "genre": "ramen",
   "cash_only_flag": null,
   "payment_qr_accepted": null,
   "stationless_flag": null,
   "status": "active"
  },
  {
   "rk_id": "rk_pub_00055",
   "name": "麺家 美豚",
   "name_en": "Menya Biton",
   "pref": "北海道",
   "pref_en": "Hokkaido",
   "city": "函館市",
   "city_en": "Hakodate Shi",
   "lat": 41.774796,
   "lng": 140.731567,
   "keito": [],
   "genre": "ramen",
   "cash_only_flag": null,
   "payment_qr_accepted": null,
   "stationless_flag": null,
   "status": "active"
  },
  {
   "rk_id": "rk_pub_00056",
   "name": "北斗武蔵",
   "name_en": "Hokuto Musashi",
   "pref": "北海道",
   "pref_en": "Hokkaido",
   "city": "北斗市",
   "city_en": "Hokuto Shi",
   "lat": 41.886597,
   "lng": 140.647461,
   "keito": [],
   "genre": "ramen",
   "cash_only_flag": null,
   "payment_qr_accepted": null,
   "stationless_flag": null,
   "status": "active"
  },
  {
   "rk_id": "rk_pub_00057",
   "name": "らぁめん しんば",
   "name_en": "Ramen Shinba",
   "pref": "北海道",
   "pref_en": "Hokkaido",
   "city": "北見市",
   "city_en": "Kitami Shi",
   "lat": 43.823845,
   "lng": 143.868378,
   "keito": [],
   "genre": "ramen",
   "cash_only_flag": null,
   "payment_qr_accepted": null,
   "stationless_flag": null,
   "status": "active"
  },
  {
   "rk_id": "rk_pub_00058",
   "name": "中国料理 華龍",
   "name_en": "Chugokuryori Karyu",
   "pref": "北海道",
   "pref_en": "Hokkaido",
   "city": "千歳市",
   "city_en": "Chitose Shi",
   "lat": 42.823395,
   "lng": 141.646484,
   "keito": [],
   "genre": "chinese",
   "cash_only_flag": null,
   "payment_qr_accepted": null,
   "stationless_flag": null,
   "status": "active"
  },
  {
   "rk_id": "rk_pub_00059",
   "name": "エース",
   "name_en": "Ace",
   "pref": "北海道",
   "pref_en": "Hokkaido",
   "city": "夕張郡長沼町",
   "city_en": "Yubari Gun Naganuma Cho",
   "lat": 43.007648,
   "lng": 141.698105,
   "keito": [],
   "genre": "ramen",
   "cash_only_flag": null,
   "payment_qr_accepted": null,
   "stationless_flag": null,
   "status": "active"
  },
  {
   "rk_id": "rk_pub_00060",
   "name": "南陽の丘 しら樺",
   "name_en": "Nanyo No Oka Shirakaba",
   "pref": "北海道",
   "pref_en": "Hokkaido",
   "city": "富良野市",
   "city_en": "Furano Shi",
   "lat": 43.213531,
   "lng": 142.377182,
   "keito": [],
   "genre": "ramen",
   "cash_only_flag": null,
   "payment_qr_accepted": null,
   "stationless_flag": null,
   "status": "active"
  },
  {
   "rk_id": "rk_pub_00061",
   "name": "小樽らーめん雅樂UTA",
   "name_en": "Otaru Ramen Gagaku Uta",
   "pref": "北海道",
   "pref_en": "Hokkaido",
   "city": "小樽市",
   "city_en": "Otaru Shi",
   "lat": 43.194885,
   "lng": 140.99826,
   "keito": [],
   "genre": "ramen",
   "cash_only_flag": null,
   "payment_qr_accepted": null,
   "stationless_flag": null,
   "status": "active"
  },
  {
   "rk_id": "rk_pub_00062",
   "name": "双葉",
   "name_en": "Futaba",
   "pref": "北海道",
   "pref_en": "Hokkaido",
   "city": "帯広市",
   "city_en": "Obihiro Shi",
   "lat": 42.918518,
   "lng": 143.120377,
   "keito": [],
   "genre": "ramen",
   "cash_only_flag": null,
   "payment_qr_accepted": null,
   "stationless_flag": null,
   "status": "active"
  },
  {
   "rk_id": "rk_pub_00063",
   "name": "中華そば マル藤商店",
   "name_en": "Chuka Soba Marufuji Shoten",
   "pref": "北海道",
   "pref_en": "Hokkaido",
   "city": "帯広市",
   "city_en": "Obihiro Shi",
   "lat": 42.934429,
   "lng": 143.167435,
   "keito": [
    "shoyu"
   ],
   "genre": "ramen",
   "cash_only_flag": null,
   "payment_qr_accepted": null,
   "stationless_flag": null,
   "status": "active"
  },
  {
   "rk_id": "rk_pub_00064",
   "name": "えりも岬観光センター",
   "name_en": "Erimo Misaki Kanko Center",
   "pref": "北海道",
   "pref_en": "Hokkaido",
   "city": "幌泉郡えりも町",
   "city_en": "Horoizumi Gun Erimo Cho",
   "lat": 41.974625,
   "lng": 143.226715,
   "keito": [],
   "genre": "ramen",
   "cash_only_flag": null,
   "payment_qr_accepted": null,
   "stationless_flag": null,
   "status": "active"
  },
  {
   "rk_id": "rk_pub_00065",
   "name": "橙ヤ 本店",
   "name_en": "Daidai Ya Honten",
   "pref": "北海道",
   "pref_en": "Hokkaido",
   "city": "旭川市",
   "city_en": "Asahikawa Shi",
   "lat": 43.771107,
   "lng": 142.424179,
   "keito": [],
   "genre": "ramen",
   "cash_only_flag": null,
   "payment_qr_accepted": null,
   "stationless_flag": null,
   "status": "active"
  },
  {
   "rk_id": "rk_pub_00066",
   "name": "風連ラーメン",
   "name_en": "Furen Ramen",
   "pref": "北海道",
   "pref_en": "Hokkaido",
   "city": "旭川市",
   "city_en": "Asahikawa Shi",
   "lat": 43.773773,
   "lng": 142.362762,
   "keito": [],
   "genre": "ramen",
   "cash_only_flag": null,
   "payment_qr_accepted": null,
   "stationless_flag": null,
   "status": "active"
  },
  {
   "rk_id": "rk_pub_00067",
   "name": "やきにく食堂 福兵衛",
   "name_en": "Yakiniku Shokudo Fukubee",
   "pref": "北海道",
   "pref_en": "Hokkaido",
   "city": "旭川市",
   "city_en": "Asahikawa Shi",
   "lat": 43.759026,
   "lng": 142.421814,
   "keito": [],
   "genre": "ramen",
   "cash_only_flag": null,
   "payment_qr_accepted": null,
   "stationless_flag": null,
   "status": "active"
  },
  {
   "rk_id": "rk_pub_00068",
   "name": "ラーメン専門 一番 永山店",
   "name_en": "Ramen Senmon Ichiban Nagayama Ten",
   "pref": "北海道",
   "pref_en": "Hokkaido",
   "city": "旭川市",
   "city_en": "Asahikawa Shi",
   "lat": 43.785553,
   "lng": 142.411102,
   "keito": [],
   "genre": "ramen",
   "cash_only_flag": null,
   "payment_qr_accepted": null,
   "stationless_flag": null,
   "status": "active"
  },
  {
   "rk_id": "rk_pub_00069",
   "name": "らーめん夢想",
   "name_en": "Ramen Muso",
   "pref": "北海道",
   "pref_en": "Hokkaido",
   "city": "旭川市",
   "city_en": "Asahikawa Shi",
   "lat": 43.79557,
   "lng": 142.397842,
   "keito": [],
   "genre": "ramen",
   "cash_only_flag": null,
   "payment_qr_accepted": null,
   "stationless_flag": null,
   "status": "active"
  },
  {
   "rk_id": "rk_pub_00070",
   "name": "吉山商店 創成橋店",
   "name_en": "Yoshiyama Shoten Soseibashi Ten",
   "pref": "北海道",
   "pref_en": "Hokkaido",
   "city": "札幌市中央区",
   "city_en": "Sapporo Shi Chuo Ku",
   "lat": 43.060478,
   "lng": 141.358704,
   "keito": [],
   "genre": "ramen",
   "cash_only_flag": null,
   "payment_qr_accepted": null,
   "stationless_flag": null,
   "status": "active"
  },
  {
   "rk_id": "rk_pub_00071",
   "name": "ヌイユ",
   "name_en": "Nouille",
   "pref": "北海道",
   "pref_en": "Hokkaido",
   "city": "札幌市中央区",
   "city_en": "Sapporo Shi Chuo Ku",
   "lat": 43.058113,
   "lng": 141.343826,
   "keito": [],
   "genre": "ramen",
   "cash_only_flag": null,
   "payment_qr_accepted": null,
   "stationless_flag": null,
   "status": "active"
  },
  {
   "rk_id": "rk_pub_00072",
   "name": "札幌らーめん 輝風 すすきの店",
   "name_en": "Sapporo Ramen Terukaze Susukino Ten",
   "pref": "北海道",
   "pref_en": "Hokkaido",
   "city": "札幌市中央区",
   "city_en": "Sapporo Shi Chuo Ku",
   "lat": 43.054253,
   "lng": 141.354477,
   "keito": [
    "miso"
   ],
   "genre": "ramen",
   "cash_only_flag": null,
   "payment_qr_accepted": null,
   "stationless_flag": null,
   "status": "active"
  },
  {
   "rk_id": "rk_pub_00073",
   "name": "RAMEN ICHI",
   "name_en": "RAMEN ICHI",
   "pref": "北海道",
   "pref_en": "Hokkaido",
   "city": "札幌市中央区",
   "city_en": "Sapporo Shi Chuo Ku",
   "lat": 43.053185,
   "lng": 141.353134,
   "keito": [],
   "genre": "ramen",
   "cash_only_flag": null,
   "payment_qr_accepted": null,
   "stationless_flag": null,
   "status": "active"
  },
  {
   "rk_id": "rk_pub_00074",
   "name": "薄野軍鶏そば 嶋や",
   "name_en": "Susukino Shamo Soba Shimaya",
   "pref": "北海道",
   "pref_en": "Hokkaido",
   "city": "札幌市中央区",
   "city_en": "Sapporo Shi Chuo Ku",
   "lat": 43.054573,
   "lng": 141.354385,
   "keito": [],
   "genre": "ramen",
   "cash_only_flag": null,
   "payment_qr_accepted": null,
   "stationless_flag": null,
   "status": "active"
  },
  {
   "rk_id": "rk_pub_00075",
   "name": "暖龍 新琴似店",
   "name_en": "Danryu Shinkotoni Ten",
   "pref": "北海道",
   "pref_en": "Hokkaido",
   "city": "札幌市北区",
   "city_en": "Sapporo Shi Kita Ku",
   "lat": 43.115387,
   "lng": 141.326462,
   "keito": [],
   "genre": "ramen",
   "cash_only_flag": null,
   "payment_qr_accepted": null,
   "stationless_flag": null,
   "status": "active"
  },
  {
   "rk_id": "rk_pub_00076",
   "name": "ラーメン山岡家 藤野店",
   "name_en": "Ramen Yamaokaya Fujino Ten",
   "pref": "北海道",
   "pref_en": "Hokkaido",
   "city": "札幌市南区",
   "city_en": "Sapporo Shi Minami Ku",
   "lat": 42.963058,
   "lng": 141.273727,
   "keito": [
    "tonkotsu"
   ],
   "genre": "ramen",
   "cash_only_flag": false,
   "payment_qr_accepted": null,
   "stationless_flag": null,
   "status": "active"
  },
  {
   "rk_id": "rk_pub_00077",
   "name": "麺や 琥張玖 KOHAKU 厚別店",
   "name_en": "Men Ya Kohaku Kohaku Atsubetsu Ten",
   "pref": "北海道",
   "pref_en": "Hokkaido",
   "city": "札幌市厚別区",
   "city_en": "Sapporo Shi Atsubetsu Ku",
   "lat": 43.011753,
   "lng": 141.470139,
   "keito": [],
   "genre": "ramen",
   "cash_only_flag": null,
   "payment_qr_accepted": null,
   "stationless_flag": null,
   "status": "active"
  },
  {
   "rk_id": "rk_pub_00078",
   "name": "ラーメン・カフェ マルタケ",
   "name_en": "Ramen Cafe Marutake",
   "pref": "北海道",
   "pref_en": "Hokkaido",
   "city": "札幌市手稲区",
   "city_en": "Sapporo Shi Teine Ku",
   "lat": 43.118179,
   "lng": 141.269379,
   "keito": [],
   "genre": "ramen",
   "cash_only_flag": null,
   "payment_qr_accepted": null,
   "stationless_flag": null,
   "status": "active"
  },
  {
   "rk_id": "rk_pub_00079",
   "name": "幸龍 イオン札幌元町店",
   "name_en": "Koryu Aeon Sapporo Motomachi Ten",
   "pref": "北海道",
   "pref_en": "Hokkaido",
   "city": "札幌市東区",
   "city_en": "Sapporo Shi Higashi Ku",
   "lat": 43.101254,
   "lng": 141.36908,
   "keito": [
    "miso"
   ],
   "genre": "ramen",
   "cash_only_flag": null,
   "payment_qr_accepted": null,
   "stationless_flag": null,
   "status": "active"
  },
  {
   "rk_id": "rk_pub_00080",
   "name": "麺処 花丸",
   "name_en": "Mendokoro Hanamaru",
   "pref": "北海道",
   "pref_en": "Hokkaido",
   "city": "札幌市清田区",
   "city_en": "Sapporo Shi Kiyoda Ku",
   "lat": 42.977215,
   "lng": 141.460663,
   "keito": [],
   "genre": "ramen",
   "cash_only_flag": null,
   "payment_qr_accepted": null,
   "stationless_flag": null,
   "status": "active"
  },
  {
   "rk_id": "rk_pub_00081",
   "name": "ラーメン大将 菊水元町店",
   "name_en": "Ramen Taisho Kikusui Motomachi Ten",
   "pref": "北海道",
   "pref_en": "Hokkaido",
   "city": "札幌市白石区",
   "city_en": "Sapporo Shi Shiroishi Ku",
   "lat": 43.073307,
   "lng": 141.409882,
   "keito": [],
   "genre": "ramen",
   "cash_only_flag": null,
   "payment_qr_accepted": null,
   "stationless_flag": null,
   "status": "active"
  },
  {
   "rk_id": "rk_pub_00082",
   "name": "横濱家系ラーメン かしわ家",
   "name_en": "Yokohama Iekei Ramen Kashiwaya",
   "pref": "北海道",
   "pref_en": "Hokkaido",
   "city": "札幌市白石区",
   "city_en": "Sapporo Shi Shiroishi Ku",
   "lat": 43.034531,
   "lng": 141.423172,
   "keito": [
    "tonkotsu"
   ],
   "genre": "ramen",
   "cash_only_flag": false,
   "payment_qr_accepted": null,
   "stationless_flag": null,
   "status": "active"
  },
  {
   "rk_id": "rk_pub_00083",
   "name": "麺や 太郎 琴似店",
   "name_en": "Men Ya Taro Kotoni Ten",
   "pref": "北海道",
   "pref_en": "Hokkaido",
   "city": "札幌市西区",
   "city_en": "Sapporo Shi Nishi Ku",
   "lat": 43.078876,
   "lng": 141.306381,
   "keito": [],
   "genre": "ramen",
   "cash_only_flag": null,
   "payment_qr_accepted": null,
   "stationless_flag": null,
   "status": "active"
  },
  {
   "rk_id": "rk_pub_00084",
   "name": "こくしお専門店 さんげつ",
   "name_en": "Kokushio Senmonten Sangetsu",
   "pref": "北海道",
   "pref_en": "Hokkaido",
   "city": "札幌市豊平区",
   "city_en": "Sapporo Shi Toyohira Ku",
   "lat": 43.022442,
   "lng": 141.423828,
   "keito": [],
   "genre": "ramen",
   "cash_only_flag": null,
   "payment_qr_accepted": null,
   "stationless_flag": null,
   "status": "active"
  },
  {
   "rk_id": "rk_pub_00085",
   "name": "Kitchen 宮夜",
   "name_en": "Kitchen Miyaya",
   "pref": "北海道",
   "pref_en": "Hokkaido",
   "city": "枝幸郡枝幸町",
   "city_en": "Esashi Gun Esashi Cho",
   "lat": 44.938763,
   "lng": 142.584091,
   "keito": [],
   "genre": "ramen",
   "cash_only_flag": null,
   "payment_qr_accepted": null,
   "stationless_flag": null,
   "status": "active"
  },
  {
   "rk_id": "rk_pub_00086",
   "name": "ごはんどき 江別店",
   "name_en": "Gohandoki Ebetsu Ten",
   "pref": "北海道",
   "pref_en": "Hokkaido",
   "city": "江別市",
   "city_en": "Ebetsu Shi",
   "lat": 43.100636,
   "lng": 141.543777,
   "keito": [],
   "genre": "ramen",
   "cash_only_flag": null,
   "payment_qr_accepted": null,
   "stationless_flag": null,
   "status": "active"
  },
  {
   "rk_id": "rk_pub_00087",
   "name": "ラーメン まさご",
   "name_en": "Ramen Masago",
   "pref": "北海道",
   "pref_en": "Hokkaido",
   "city": "浦河郡浦河町",
   "city_en": "Urakawa Gun Urakawa Cho",
   "lat": 42.176785,
   "lng": 142.760681,
   "keito": [],
   "genre": "ramen",
   "cash_only_flag": null,
   "payment_qr_accepted": null,
   "stationless_flag": null,
   "status": "active"
  },
  {
   "rk_id": "rk_pub_00088",
   "name": "味の大王",
   "name_en": "Aji No Daio",
   "pref": "北海道",
   "pref_en": "Hokkaido",
   "city": "登別市",
   "city_en": "Noboribetsu Shi",
   "lat": 42.492413,
   "lng": 141.143417,
   "keito": [],
   "genre": "ramen",
   "cash_only_flag": null,
   "payment_qr_accepted": null,
   "stationless_flag": null,
   "status": "active"
  },
  {
   "rk_id": "rk_pub_00089",
   "name": "らーめん 飛龍",
   "name_en": "Ramen Hiryu",
   "pref": "北海道",
   "pref_en": "Hokkaido",
   "city": "石狩市",
   "city_en": "Ishikari Shi",
   "lat": 43.152184,
   "lng": 141.288925,
   "keito": [],
   "genre": "ramen",
   "cash_only_flag": null,
   "payment_qr_accepted": null,
   "stationless_flag": null,
   "status": "active"
  },
  {
   "rk_id": "rk_pub_00090",
   "name": "レストラン泉",
   "name_en": "Restaurant Izumi",
   "pref": "北海道",
   "pref_en": "Hokkaido",
   "city": "稚内市",
   "city_en": "Wakkanai Shi",
   "lat": 45.398376,
   "lng": 141.685776,
   "keito": [],
   "genre": "ramen",
   "cash_only_flag": null,
   "payment_qr_accepted": null,
   "stationless_flag": null,
   "status": "active"
  },
  {
   "rk_id": "rk_pub_00091",
   "name": "かねしめ食堂",
   "name_en": "Kaneshime Shokudo",
   "pref": "北海道",
   "pref_en": "Hokkaido",
   "city": "紋別郡遠軽町",
   "city_en": "Mombetsu Gun Engaru Cho",
   "lat": 44.065498,
   "lng": 143.52803,
   "keito": [],
   "genre": "ramen",
   "cash_only_flag": null,
   "payment_qr_accepted": null,
   "stationless_flag": null,
   "status": "active"
  },
  {
   "rk_id": "rk_pub_00092",
   "name": "大衆食堂 なかちゃん食堂",
   "name_en": "Taishushokudo Nakachan Shokudo",
   "pref": "北海道",
   "pref_en": "Hokkaido",
   "city": "芦別市",
   "city_en": "Ashi Betsu Shi",
   "lat": 43.516979,
   "lng": 142.185486,
   "keito": [],
   "genre": "ramen",
   "cash_only_flag": null,
   "payment_qr_accepted": null,
   "stationless_flag": null,
   "status": "active"
  },
  {
   "rk_id": "rk_pub_00093",
   "name": "食事の店 ふじの ときわ店",
   "name_en": "Shokuji No Mise Fujino Tokiwa Ten",
   "pref": "北海道",
   "pref_en": "Hokkaido",
   "city": "苫小牧市",
   "city_en": "Tomakomai Shi",
   "lat": 42.617828,
   "lng": 141.516739,
   "keito": [],
   "genre": "ramen",
   "cash_only_flag": null,
   "payment_qr_accepted": null,
   "stationless_flag": null,
   "status": "active"
  },
  {
   "rk_id": "rk_pub_00094",
   "name": "こだわり麺人 東光亭",
   "name_en": "Kodawari Menjin Tokotei",
   "pref": "北海道",
   "pref_en": "Hokkaido",
   "city": "茅部郡森町",
   "city_en": "Kayabe Gun Mori Machi",
   "lat": 42.108387,
   "lng": 140.571854,
   "keito": [],
   "genre": "ramen",
   "cash_only_flag": null,
   "payment_qr_accepted": null,
   "stationless_flag": null,
   "status": "active"
  },
  {
   "rk_id": "rk_pub_00095",
   "name": "食堂 山びこ",
   "name_en": "Shokudo Yamabiko",
   "pref": "北海道",
   "pref_en": "Hokkaido",
   "city": "虻田郡真狩村",
   "city_en": "Abuta Gun Makkari Mura",
   "lat": 42.756535,
   "lng": 140.826828,
   "keito": [],
   "genre": "ramen",
   "cash_only_flag": null,
   "payment_qr_accepted": null,
   "stationless_flag": null,
   "status": "active"
  },
  {
   "rk_id": "rk_pub_00096",
   "name": "初代らーめん 小鉄 春採店",
   "name_en": "Shodai Ramen Kotetsu Harutori Ten",
   "pref": "北海道",
   "pref_en": "Hokkaido",
   "city": "釧路市",
   "city_en": "Kushiro Shi",
   "lat": 42.976387,
   "lng": 144.416016,
   "keito": [],
   "genre": "ramen",
   "cash_only_flag": null,
   "payment_qr_accepted": null,
   "stationless_flag": null,
   "status": "active"
  },
  {
   "rk_id": "rk_pub_00097",
   "name": "麺小僧",
   "name_en": "Men Kozo",
   "pref": "北海道",
   "pref_en": "Hokkaido",
   "city": "釧路市",
   "city_en": "Kushiro Shi",
   "lat": 43.006985,
   "lng": 144.382446,
   "keito": [],
   "genre": "ramen",
   "cash_only_flag": null,
   "payment_qr_accepted": null,
   "stationless_flag": null,
   "status": "active"
  },
  {
   "rk_id": "rk_pub_00098",
   "name": "女良食堂",
   "name_en": "Mera Shokudo",
   "pref": "千葉県",
   "pref_en": "Chiba",
   "city": "いすみ市",
   "city_en": "Isumi Shi",
   "lat": 35.270344,
   "lng": 140.394852,
   "keito": [],
   "genre": "ramen",
   "cash_only_flag": null,
   "payment_qr_accepted": null,
   "stationless_flag": null,
   "status": "active"
  },
  {
   "rk_id": "rk_pub_00099",
   "name": "大三元",
   "name_en": "Daisangen",
   "pref": "千葉県",
   "pref_en": "Chiba",
   "city": "八千代市",
   "city_en": "Yachiyo Shi",
   "lat": 35.757423,
   "lng": 140.116196,
   "keito": [],
   "genre": "ramen",
   "cash_only_flag": null,
   "payment_qr_accepted": null,
   "stationless_flag": null,
   "status": "active"
  },
  {
   "rk_id": "rk_pub_00100",
   "name": "めんや 志道",
   "name_en": "Menya Shido",
   "pref": "千葉県",
   "pref_en": "Chiba",
   "city": "八街市",
   "city_en": "Yachimata Shi",
   "lat": 35.698418,
   "lng": 140.304489,
   "keito": [],
   "genre": "ramen",
   "cash_only_flag": null,
   "payment_qr_accepted": null,
   "stationless_flag": null,
   "status": "active"
  },
  {
   "rk_id": "rk_pub_00101",
   "name": "DOLPHIN",
   "name_en": "DOLPHIN",
   "pref": "千葉県",
   "pref_en": "Chiba",
   "city": "勝浦市",
   "city_en": "Katsura Shi",
   "lat": 35.136158,
   "lng": 140.250854,
   "keito": [],
   "genre": "ramen",
   "cash_only_flag": null,
   "payment_qr_accepted": null,
   "stationless_flag": null,
   "status": "active"
  },
  {
   "rk_id": "rk_pub_00102",
   "name": "我流らぁめん 風神",
   "name_en": "Garyu Ramen Fujin",
   "pref": "千葉県",
   "pref_en": "Chiba",
   "city": "千葉市中央区",
   "city_en": "Chiba Shi Chuo Ku",
   "lat": 35.601692,
   "lng": 140.109848,
   "keito": [],
   "genre": "ramen",
   "cash_only_flag": null,
   "payment_qr_accepted": null,
   "stationless_flag": null,
   "status": "active"
  },
  {
   "rk_id": "rk_pub_00103",
   "name": "木栖飯店",
   "name_en": "Kisumi Hanten",
   "pref": "千葉県",
   "pref_en": "Chiba",
   "city": "千葉市中央区",
   "city_en": "Chiba Shi Chuo Ku",
   "lat": 35.604935,
   "lng": 140.127716,
   "keito": [],
   "genre": "chinese",
   "cash_only_flag": null,
   "payment_qr_accepted": null,
   "stationless_flag": null,
   "status": "active"
  },
  {
   "rk_id": "rk_pub_00104",
   "name": "豊源 院内店",
   "name_en": "Hogen Innai Ten",
   "pref": "千葉県",
   "pref_en": "Chiba",
   "city": "千葉市中央区",
   "city_en": "Chiba Shi Chuo Ku",
   "lat": 35.612003,
   "lng": 140.122818,
   "keito": [],
   "genre": "ramen",
   "cash_only_flag": null,
   "payment_qr_accepted": null,
   "stationless_flag": null,
   "status": "active"
  },
  {
   "rk_id": "rk_pub_00105",
   "name": "笹本為次郎商店",
   "name_en": "Sasamoto Tamejiro Shoten",
   "pref": "千葉県",
   "pref_en": "Chiba",
   "city": "千葉市稲毛区",
   "city_en": "Chiba Shi Inage Ku",
   "lat": 35.636669,
   "lng": 140.096268,
   "keito": [],
   "genre": "ramen",
   "cash_only_flag": null,
   "payment_qr_accepted": null,
   "stationless_flag": null,
   "status": "active"
  },
  {
   "rk_id": "rk_pub_00106",
   "name": "海鮮餃子 帆船 プレナ幕張店",
   "name_en": "Kaisen Gyoza Hansen Purena Makuhari Ten",
   "pref": "千葉県",
   "pref_en": "Chiba",
   "city": "千葉市美浜区",
   "city_en": "Chiba Shi Mihama Ku",
   "lat": 35.647892,
   "lng": 140.040405,
   "keito": [],
   "genre": "chinese",
   "cash_only_flag": null,
   "payment_qr_accepted": null,
   "stationless_flag": null,
   "status": "active"
  },
  {
   "rk_id": "rk_pub_00107",
   "name": "桂林餃子 満足 新検見川店",
   "name_en": "Keirin Gyoza Manzoku Shinkemigawa Ten",
   "pref": "千葉県",
   "pref_en": "Chiba",
   "city": "千葉市花見川区",
   "city_en": "Chiba Shi Hanamigawa Ku",
   "lat": 35.65163,
   "lng": 140.070297,
   "keito": [],
   "genre": "chinese",
   "cash_only_flag": null,
   "payment_qr_accepted": null,
   "stationless_flag": null,
   "status": "active"
  },
  {
   "rk_id": "rk_pub_00108",
   "name": "らーめん神月",
   "name_en": "Ramen Kazuki",
   "pref": "千葉県",
   "pref_en": "Chiba",
   "city": "千葉市若葉区",
   "city_en": "Chiba Shi Wakaba Ku",
   "lat": 35.610458,
   "lng": 140.181625,
   "keito": [],
   "genre": "ramen",
   "cash_only_flag": null,
   "payment_qr_accepted": null,
   "stationless_flag": null,
   "status": "active"
  },
  {
   "rk_id": "rk_pub_00109",
   "name": "手打ちラーメン さど",
   "name_en": "Teuchi Ramen Sado",
   "pref": "千葉県",
   "pref_en": "Chiba",
   "city": "印旛郡栄町",
   "city_en": "Imba Gun Sakae Machi",
   "lat": 35.831528,
   "lng": 140.249237,
   "keito": [],
   "genre": "ramen",
   "cash_only_flag": null,
   "payment_qr_accepted": null,
   "stationless_flag": null,
   "status": "active"
  },
  {
   "rk_id": "rk_pub_00110",
   "name": "リンガーハット ジョイフル本田千葉ニュータウン店",
   "name_en": "Ringer Hut Joyful Honda Chiba New Town Ten",
   "pref": "千葉県",
   "pref_en": "Chiba",
   "city": "印西市",
   "city_en": "Inzai Shi",
   "lat": 35.807137,
   "lng": 140.155579,
   "keito": [],
   "genre": "ramen",
   "cash_only_flag": false,
   "payment_qr_accepted": null,
   "stationless_flag": null,
   "status": "active"
  },
  {
   "rk_id": "rk_pub_00111",
   "name": "ピノキオラーメン",
   "name_en": "Pinocchio Ramen",
   "pref": "千葉県",
   "pref_en": "Chiba",
   "city": "君津市",
   "city_en": "Kimitsu Shi",
   "lat": 35.333008,
   "lng": 139.913055,
   "keito": [],
   "genre": "ramen",
   "cash_only_flag": null,
   "payment_qr_accepted": null,
   "stationless_flag": null,
   "status": "active"
  },
  {
   "rk_id": "rk_pub_00112",
   "name": "古民家ヌードゥル黒揚羽森住",
   "name_en": "Kominka Noodle Kuroageha Morisumi",
   "pref": "千葉県",
   "pref_en": "Chiba",
   "city": "大網白里市",
   "city_en": "Oamishirasato Shi",
   "lat": 35.514309,
   "lng": 140.340866,
   "keito": [],
   "genre": "ramen",
   "cash_only_flag": null,
   "payment_qr_accepted": null,
   "stationless_flag": null,
   "status": "active"
  },
  {
   "rk_id": "rk_pub_00113",
   "name": "餃子の王将 富里店",
   "name_en": "Gyoza No Osho Tomisato Ten",
   "pref": "千葉県",
   "pref_en": "Chiba",
   "city": "富里市",
   "city_en": "Tomisato Shi",
   "lat": 35.741531,
   "lng": 140.315338,
   "keito": [],
   "genre": "chinese",
   "cash_only_flag": null,
   "payment_qr_accepted": null,
   "stationless_flag": null,
   "status": "active"
  },
  {
   "rk_id": "rk_pub_00114",
   "name": "九十九亭食堂",
   "name_en": "Tsukumotei Shokudo",
   "pref": "千葉県",
   "pref_en": "Chiba",
   "city": "山武郡九十九里町",
   "city_en": "Sambu Gun Kujukuri Machi",
   "lat": 35.531075,
   "lng": 140.445969,
   "keito": [],
   "genre": "ramen",
   "cash_only_flag": null,
   "payment_qr_accepted": null,
   "stationless_flag": null,
   "status": "active"
  },
  {
   "rk_id": "rk_pub_00115",
   "name": "なべとん",
   "name_en": "Nabeton",
   "pref": "千葉県",
   "pref_en": "Chiba",
   "city": "市原市",
   "city_en": "Ichihara Shi",
   "lat": 35.468555,
   "lng": 140.086884,
   "keito": [],
   "genre": "ramen",
   "cash_only_flag": null,
   "payment_qr_accepted": null,
   "stationless_flag": null,
   "status": "active"
  },
  {
   "rk_id": "rk_pub_00116",
   "name": "麺屋飯高with鶏男",
   "name_en": "Menya Iidaka with Toriotoko",
   "pref": "千葉県",
   "pref_en": "Chiba",
   "city": "市原市",
   "city_en": "Ichihara Shi",
   "lat": 35.538589,
   "lng": 140.122086,
   "keito": [],
   "genre": "ramen",
   "cash_only_flag": null,
   "payment_qr_accepted": null,
   "stationless_flag": null,
   "status": "active"
  },
  {
   "rk_id": "rk_pub_00117",
   "name": "らーめん さつまっ子",
   "name_en": "Ramen Satsumakko",
   "pref": "千葉県",
   "pref_en": "Chiba",
   "city": "市川市",
   "city_en": "Ichikawa Shi",
   "lat": 35.715076,
   "lng": 139.930191,
   "keito": [],
   "genre": "ramen",
   "cash_only_flag": null,
   "payment_qr_accepted": null,
   "stationless_flag": null,
   "status": "active"
  },
  {
   "rk_id": "rk_pub_00118",
   "name": "中国料理 輝煌",
   "name_en": "Chugokuryori Kiko",
   "pref": "千葉県",
   "pref_en": "Chiba",
   "city": "市川市",
   "city_en": "Ichikawa Shi",
   "lat": 35.714169,
   "lng": 139.92952,
   "keito": [],
   "genre": "chinese",
   "cash_only_flag": null,
   "payment_qr_accepted": null,
   "stationless_flag": null,
   "status": "active"
  },
  {
   "rk_id": "rk_pub_00119",
   "name": "黄金の華 ニッケコルトンプラザ店",
   "name_en": "Ogon No Hana Nikke Colton Plaza Ten",
   "pref": "千葉県",
   "pref_en": "Chiba",
   "city": "市川市",
   "city_en": "Ichikawa Shi",
   "lat": 35.715031,
   "lng": 139.932663,
   "keito": [],
   "genre": "ramen",
   "cash_only_flag": null,
   "payment_qr_accepted": null,
   "stationless_flag": null,
   "status": "active"
  },
  {
   "rk_id": "rk_pub_00120",
   "name": "中華そば 無作",
   "name_en": "Chuka Soba Musa",
   "pref": "千葉県",
   "pref_en": "Chiba",
   "city": "市川市",
   "city_en": "Ichikawa Shi",
   "lat": 35.718639,
   "lng": 139.928253,
   "keito": [
    "shoyu"
   ],
   "genre": "ramen",
   "cash_only_flag": null,
   "payment_qr_accepted": null,
   "stationless_flag": null,
   "status": "active"
  },
  {
   "rk_id": "rk_pub_00121",
   "name": "ROYAL 成田第2空港売店",
   "name_en": "Royal Narita Dai 2 Kuko Baiten",
   "pref": "千葉県",
   "pref_en": "Chiba",
   "city": "成田市",
   "city_en": "Narita Shi",
   "lat": 35.773689,
   "lng": 140.386032,
   "keito": [],
   "genre": "ramen",
   "cash_only_flag": null,
   "payment_qr_accepted": null,
   "stationless_flag": null,
   "status": "active"
  },
  {
   "rk_id": "rk_pub_00122",
   "name": "らーめん元気",
   "name_en": "Ramen Genki",
   "pref": "千葉県",
   "pref_en": "Chiba",
   "city": "我孫子市",
   "city_en": "Abiko Shi",
   "lat": 35.852154,
   "lng": 140.138611,
   "keito": [],
   "genre": "ramen",
   "cash_only_flag": null,
   "payment_qr_accepted": null,
   "stationless_flag": null,
   "status": "active"
  },
  {
   "rk_id": "rk_pub_00123",
   "name": "旭東洋食堂",
   "name_en": "Asahi Toyo Shokudo",
   "pref": "千葉県",
   "pref_en": "Chiba",
   "city": "旭市",
   "city_en": "Asahi Shi",
   "lat": 35.725441,
   "lng": 140.65715,
   "keito": [],
   "genre": "ramen",
   "cash_only_flag": null,
   "payment_qr_accepted": null,
   "stationless_flag": null,
   "status": "active"
  },
  {
   "rk_id": "rk_pub_00124",
   "name": "喜多方ラーメン坂内 木更津店",
   "name_en": "Kitakata Ramen Bannai Kisarazu Ten",
   "pref": "千葉県",
   "pref_en": "Chiba",
   "city": "木更津市",
   "city_en": "Kisarazu Shi",
   "lat": 35.395252,
   "lng": 139.939774,
   "keito": [
    "shoyu"
   ],
   "genre": "ramen",
   "cash_only_flag": null,
   "payment_qr_accepted": null,
   "stationless_flag": null,
   "status": "active"
  },
  {
   "rk_id": "rk_pub_00125",
   "name": "中華そば まるき",
   "name_en": "Chuka Soba Maruki",
   "pref": "千葉県",
   "pref_en": "Chiba",
   "city": "松戸市",
   "city_en": "Matsudo Shi",
   "lat": 35.787243,
   "lng": 139.904739,
   "keito": [
    "shoyu"
   ],
   "genre": "ramen",
   "cash_only_flag": null,
   "payment_qr_accepted": null,
   "stationless_flag": null,
   "status": "active"
  },
  {
   "rk_id": "rk_pub_00126",
   "name": "中華料理 東京軒",
   "name_en": "Chuka Ryori Tokyoken",
   "pref": "千葉県",
   "pref_en": "Chiba",
   "city": "松戸市",
   "city_en": "Matsudo Shi",
   "lat": 35.807629,
   "lng": 139.92395,
   "keito": [],
   "genre": "chinese",
   "cash_only_flag": null,
   "payment_qr_accepted": null,
   "stationless_flag": null,
   "status": "active"
  },
  {
   "rk_id": "rk_pub_00127",
   "name": "香香ラーメン",
   "name_en": "Koko Ramen",
   "pref": "千葉県",
   "pref_en": "Chiba",
   "city": "松戸市",
   "city_en": "Matsudo Shi",
   "lat": 35.831692,
   "lng": 139.933838,
   "keito": [],
   "genre": "ramen",
   "cash_only_flag": null,
   "payment_qr_accepted": null,
   "stationless_flag": null,
   "status": "active"
  },
  {
   "rk_id": "rk_pub_00128",
   "name": "ラーメン山岡家 松戸北小金店",
   "name_en": "Ramen Yamaokaya Matsudo Kitakogane Ten",
   "pref": "千葉県",
   "pref_en": "Chiba",
   "city": "松戸市",
   "city_en": "Matsudo Shi",
   "lat": 35.827179,
   "lng": 139.935928,
   "keito": [
    "tonkotsu"
   ],
   "genre": "ramen",
   "cash_only_flag": false,
   "payment_qr_accepted": null,
   "stationless_flag": null,
   "status": "active"
  },
  {
   "rk_id": "rk_pub_00129",
   "name": "中華一番",
   "name_en": "Chuka Ichiban",
   "pref": "千葉県",
   "pref_en": "Chiba",
   "city": "柏市",
   "city_en": "Kashiwa Shi",
   "lat": 35.863312,
   "lng": 139.971146,
   "keito": [],
   "genre": "ramen",
   "cash_only_flag": null,
   "payment_qr_accepted": null,
   "stationless_flag": null,
   "status": "active"
  },
  {
   "rk_id": "rk_pub_00130",
   "name": "天外天刀削麺",
   "name_en": "Tengaiten Tosakumen",
   "pref": "千葉県",
   "pref_en": "Chiba",
   "city": "柏市",
   "city_en": "Kashiwa Shi",
   "lat": 35.864052,
   "lng": 139.970169,
   "keito": [],
   "genre": "ramen",
   "cash_only_flag": null,
   "payment_qr_accepted": null,
   "stationless_flag": null,
   "status": "active"
  },
  {
   "rk_id": "rk_pub_00131",
   "name": "中華料理房 すずなり",
   "name_en": "Chukaryobo Suzunari",
   "pref": "千葉県",
   "pref_en": "Chiba",
   "city": "柏市",
   "city_en": "Kashiwa Shi",
   "lat": 35.856964,
   "lng": 139.973373,
   "keito": [],
   "genre": "chinese",
   "cash_only_flag": null,
   "payment_qr_accepted": null,
   "stationless_flag": null,
   "status": "active"
  },
  {
   "rk_id": "rk_pub_00132",
   "name": "ラーメン らラ拉",
   "name_en": "Ramen Rarara",
   "pref": "千葉県",
   "pref_en": "Chiba",
   "city": "柏市",
   "city_en": "Kashiwa Shi",
   "lat": 35.845314,
   "lng": 139.953278,
   "keito": [],
   "genre": "ramen",
   "cash_only_flag": null,
   "payment_qr_accepted": null,
   "stationless_flag": null,
   "status": "active"
  },
  {
   "rk_id": "rk_pub_00133",
   "name": "横浜家系ラーメン 壱角家 流山店",
   "name_en": "Yokohama Iekei Ramen Ichikakuya Nagareyama Ten",
   "pref": "千葉県",
   "pref_en": "Chiba",
   "city": "流山市",
   "city_en": "Nagareyama Shi",
   "lat": 35.840214,
   "lng": 139.940552,
   "keito": [
    "tonkotsu"
   ],
   "genre": "ramen",
   "cash_only_flag": null,
   "payment_qr_accepted": null,
   "stationless_flag": null,
   "status": "active"
  },
  {
   "rk_id": "rk_pub_00134",
   "name": "アジアンレストラン マウンテン",
   "name_en": "Asian Restaurant Mountain",
   "pref": "千葉県",
   "pref_en": "Chiba",
   "city": "浦安市",
   "city_en": "Urayasu Shi",
   "lat": 35.647606,
   "lng": 139.889221,
   "keito": [],
   "genre": "ramen",
   "cash_only_flag": null,
   "payment_qr_accepted": null,
   "stationless_flag": null,
   "status": "active"
  },
  {
   "rk_id": "rk_pub_00135",
   "name": "桂林餃子満足 幕張本郷店",
   "name_en": "Keirin Gyoza Manzoku Makuharihongo Ten",
   "pref": "千葉県",
   "pref_en": "Chiba",
   "city": "習志野市",
   "city_en": "Narashino Shi",
   "lat": 35.677197,
   "lng": 140.044708,
   "keito": [],
   "genre": "chinese",
   "cash_only_flag": null,
   "payment_qr_accepted": null,
   "stationless_flag": null,
   "status": "active"
  },
  {
   "rk_id": "rk_pub_00136",
   "name": "らーめん寺子屋 伍陣",
   "name_en": "Ramen Terakoya Gojin",
   "pref": "千葉県",
   "pref_en": "Chiba",
   "city": "船橋市",
   "city_en": "Funabashi Shi",
   "lat": 35.729694,
   "lng": 140.030212,
   "keito": [],
   "genre": "ramen",
   "cash_only_flag": null,
   "payment_qr_accepted": null,
   "stationless_flag": null,
   "status": "active"
  },
  {
   "rk_id": "rk_pub_00137",
   "name": "長崎ちゃんぽん リンガーハット ららぽーとTOKYO-BAY店",
   "name_en": "Nagasaki Champon Ringer Hut Lalaport TOKYO-BAY Ten",
   "pref": "千葉県",
   "pref_en": "Chiba",
   "city": "船橋市",
   "city_en": "Funabashi Shi",
   "lat": 35.686241,
   "lng": 139.990204,
   "keito": [],
   "genre": "ramen",
   "cash_only_flag": false,
   "payment_qr_accepted": null,
   "stationless_flag": null,
   "status": "active"
  },
  {
   "rk_id": "rk_pub_00138",
   "name": "バーミヤン 船橋本町店",
   "name_en": "Bamiyan Funabashi Honcho Ten",
   "pref": "千葉県",
   "pref_en": "Chiba",
   "city": "船橋市",
   "city_en": "Funabashi Shi",
   "lat": 35.698021,
   "lng": 139.986572,
   "keito": [],
   "genre": "ramen",
   "cash_only_flag": null,
   "payment_qr_accepted": null,
   "stationless_flag": null,
   "status": "active"
  },
  {
   "rk_id": "rk_pub_00139",
   "name": "寿々㐂",
   "name_en": "Suzuki",
   "pref": "千葉県",
   "pref_en": "Chiba",
   "city": "船橋市",
   "city_en": "Funabashi Shi",
   "lat": 35.701252,
   "lng": 139.972321,
   "keito": [],
   "genre": "ramen",
   "cash_only_flag": null,
   "payment_qr_accepted": null,
   "stationless_flag": null,
   "status": "active"
  },
  {
   "rk_id": "rk_pub_00140",
   "name": "COW7215",
   "name_en": "COW7215",
   "pref": "千葉県",
   "pref_en": "Chiba",
   "city": "船橋市",
   "city_en": "Funabashi Shi",
   "lat": 35.696728,
   "lng": 139.985153,
   "keito": [],
   "genre": "ramen",
   "cash_only_flag": null,
   "payment_qr_accepted": null,
   "stationless_flag": null,
   "status": "active"
  },
  {
   "rk_id": "rk_pub_00141",
   "name": "慶飯",
   "name_en": "Keihan",
   "pref": "千葉県",
   "pref_en": "Chiba",
   "city": "茂原市",
   "city_en": "Mobara Shi",
   "lat": 35.425755,
   "lng": 140.296005,
   "keito": [],
   "genre": "ramen",
   "cash_only_flag": null,
   "payment_qr_accepted": null,
   "stationless_flag": null,
   "status": "active"
  },
  {
   "rk_id": "rk_pub_00142",
   "name": "みそらあめんタータン",
   "name_en": "Misoramen Tatan",
   "pref": "千葉県",
   "pref_en": "Chiba",
   "city": "野田市",
   "city_en": "Noda Shi",
   "lat": 36.035618,
   "lng": 139.824722,
   "keito": [
    "miso"
   ],
   "genre": "ramen",
   "cash_only_flag": null,
   "payment_qr_accepted": null,
   "stationless_flag": null,
   "status": "active"
  },
  {
   "rk_id": "rk_pub_00143",
   "name": "越後秘蔵麺 無尽蔵 銚子家",
   "name_en": "Echigo Hizo Men Mujinzo Choshiya",
   "pref": "千葉県",
   "pref_en": "Chiba",
   "city": "銚子市",
   "city_en": "Choshi Shi",
   "lat": 35.709991,
   "lng": 140.787796,
   "keito": [
    "tonkotsu"
   ],
   "genre": "ramen",
   "cash_only_flag": null,
   "payment_qr_accepted": null,
   "stationless_flag": null,
   "status": "active"
  },
  {
   "rk_id": "rk_pub_00144",
   "name": "中華厨房 kaname",
   "name_en": "Chuka Chubo Kaname",
   "pref": "千葉県",
   "pref_en": "Chiba",
   "city": "鎌ケ谷市",
   "city_en": "Kama Ke Tani Shi",
   "lat": 35.77644,
   "lng": 139.999405,
   "keito": [],
   "genre": "ramen",
   "cash_only_flag": null,
   "payment_qr_accepted": null,
   "stationless_flag": null,
   "status": "active"
  },
  {
   "rk_id": "rk_pub_00145",
   "name": "おかもと",
   "name_en": "Okamoto",
   "pref": "千葉県",
   "pref_en": "Chiba",
   "city": "館山市",
   "city_en": "Tateyama Shi",
   "lat": 34.991848,
   "lng": 139.861893,
   "keito": [],
   "genre": "ramen",
   "cash_only_flag": null,
   "payment_qr_accepted": null,
   "stationless_flag": null,
   "status": "active"
  },
  {
   "rk_id": "rk_pub_00146",
   "name": "Noodles Labo 香蕎庵",
   "name_en": "Noodles Labo Kokyoan",
   "pref": "千葉県",
   "pref_en": "Chiba",
   "city": "香取市",
   "city_en": "Katori Shi",
   "lat": 35.890621,
   "lng": 140.499008,
   "keito": [],
   "genre": "ramen",
   "cash_only_flag": null,
   "payment_qr_accepted": null,
   "stationless_flag": null,
   "status": "active"
  },
  {
   "rk_id": "rk_pub_00147",
   "name": "○木中華そば店",
   "name_en": "Maruki Chuka Soba Ten",
   "pref": "和歌山県",
   "pref_en": "Wakayama",
   "city": "和歌山市",
   "city_en": "Wakayama Shi",
   "lat": 34.188816,
   "lng": 135.165756,
   "keito": [
    "shoyu"
   ],
   "genre": "ramen",
   "cash_only_flag": null,
   "payment_qr_accepted": null,
   "stationless_flag": null,
   "status": "active"
  },
  {
   "rk_id": "rk_pub_00148",
   "name": "餃子の王将 和歌山駅前店",
   "name_en": "Gyoza No Osho Wakayama Ekimae Ten",
   "pref": "和歌山県",
   "pref_en": "Wakayama",
   "city": "和歌山市",
   "city_en": "Wakayama Shi",
   "lat": 34.231174,
   "lng": 135.190399,
   "keito": [],
   "genre": "chinese",
   "cash_only_flag": null,
   "payment_qr_accepted": null,
   "stationless_flag": null,
   "status": "active"
  },
  {
   "rk_id": "rk_pub_00149",
   "name": "笑龍 アロチ店",
   "name_en": "Sho Ryu Arochi Ten",
   "pref": "和歌山県",
   "pref_en": "Wakayama",
   "city": "和歌山市",
   "city_en": "Wakayama Shi",
   "lat": 34.231178,
   "lng": 135.183823,
   "keito": [],
   "genre": "ramen",
   "cash_only_flag": null,
   "payment_qr_accepted": null,
   "stationless_flag": null,
   "status": "active"
  },
  {
   "rk_id": "rk_pub_00150",
   "name": "フジツネらーめん 濃厚太麺倶楽部 有田川店",
   "name_en": "Fujitsune Ramen Noko Futomen Kurabu Aridagawa Ten",
   "pref": "和歌山県",
   "pref_en": "Wakayama",
   "city": "有田郡有田川町",
   "city_en": "Arida Gun Aridagawa Cho",
   "lat": 34.059078,
   "lng": 135.196838,
   "keito": [],
   "genre": "ramen",
   "cash_only_flag": null,
   "payment_qr_accepted": null,
   "stationless_flag": null,
   "status": "active"
  },
  {
   "rk_id": "rk_pub_00151",
   "name": "中華料理 浩",
   "name_en": "Chukaryori Hiroshi",
   "pref": "和歌山県",
   "pref_en": "Wakayama",
   "city": "紀の川市",
   "city_en": "Ki No Kawa Shi",
   "lat": 34.216377,
   "lng": 135.299652,
   "keito": [],
   "genre": "chinese",
   "cash_only_flag": null,
   "payment_qr_accepted": null,
   "stationless_flag": null,
   "status": "active"
  },
  {
   "rk_id": "rk_pub_00152",
   "name": "カフェギャラリー 南風",
   "name_en": "Cafe Gallery Nanpu",
   "pref": "埼玉県",
   "pref_en": "Saitama",
   "city": "さいたま市中央区",
   "city_en": "Saitama Shi Chuo Ku",
   "lat": 35.885159,
   "lng": 139.620193,
   "keito": [],
   "genre": "ramen",
   "cash_only_flag": null,
   "payment_qr_accepted": null,
   "stationless_flag": null,
   "status": "active"
  },
  {
   "rk_id": "rk_pub_00153",
   "name": "中国彩飯 多茂吉",
   "name_en": "Chugoku Saihan Tamokichi",
   "pref": "埼玉県",
   "pref_en": "Saitama",
   "city": "さいたま市南区",
   "city_en": "Saitama Shi Minami Ku",
   "lat": 35.85181,
   "lng": 139.694748,
   "keito": [],
   "genre": "ramen",
   "cash_only_flag": null,
   "payment_qr_accepted": null,
   "stationless_flag": null,
   "status": "active"
  },
  {
   "rk_id": "rk_pub_00154",
   "name": "蒙古タンメン 中本 大宮店",
   "name_en": "Moko Tanmen Nakamoto Omiya Ten",
   "pref": "埼玉県",
   "pref_en": "Saitama",
   "city": "さいたま市大宮区",
   "city_en": "Saitama Shi Omiya Ku",
   "lat": 35.905384,
   "lng": 139.626022,
   "keito": [
    "miso"
   ],
   "genre": "ramen",
   "cash_only_flag": true,
   "payment_qr_accepted": null,
   "stationless_flag": null,
   "status": "active"
  },
  {
   "rk_id": "rk_pub_00155",
   "name": "仁庵",
   "name_en": "Jinan",
   "pref": "埼玉県",
   "pref_en": "Saitama",
   "city": "さいたま市大宮区",
   "city_en": "Saitama Shi Omiya Ku",
   "lat": 35.920807,
   "lng": 139.615295,
   "keito": [],
   "genre": "ramen",
   "cash_only_flag": null,
   "payment_qr_accepted": null,
   "stationless_flag": null,
   "status": "active"
  },
  {
   "rk_id": "rk_pub_00156",
   "name": "げんきラーメン",
   "name_en": "Genki Ramen",
   "pref": "埼玉県",
   "pref_en": "Saitama",
   "city": "さいたま市岩槻区",
   "city_en": "Saitama Shi Iwatsuki Ku",
   "lat": 35.929188,
   "lng": 139.724045,
   "keito": [],
   "genre": "ramen",
   "cash_only_flag": null,
   "payment_qr_accepted": null,
   "stationless_flag": null,
   "status": "active"
  },
  {
   "rk_id": "rk_pub_00157",
   "name": "百歩ラーメン 北浦和店",
   "name_en": "Hyappo Ramen Kitaurawa Ten",
   "pref": "埼玉県",
   "pref_en": "Saitama",
   "city": "さいたま市浦和区",
   "city_en": "Saitama Shi Urawa Ku",
   "lat": 35.869354,
   "lng": 139.64566,
   "keito": [],
   "genre": "ramen",
   "cash_only_flag": null,
   "payment_qr_accepted": null,
   "stationless_flag": null,
   "status": "active"
  },
  {
   "rk_id": "rk_pub_00158",
   "name": "娘娘 浦和仲町店",
   "name_en": "Jojo Urawa Nakacho Ten",
   "pref": "埼玉県",
   "pref_en": "Saitama",
   "city": "さいたま市浦和区",
   "city_en": "Saitama Shi Urawa Ku",
   "lat": 35.859589,
   "lng": 139.65239,
   "keito": [],
   "genre": "ramen",
   "cash_only_flag": null,
   "payment_qr_accepted": null,
   "stationless_flag": null,
   "status": "active"
  },
  {
   "rk_id": "rk_pub_00159",
   "name": "次念序 イオンモール浦和美園店",
   "name_en": "Jinenjo Ion Mall Urawa Misono Ten",
   "pref": "埼玉県",
   "pref_en": "Saitama",
   "city": "さいたま市緑区",
   "city_en": "Saitama Shi Midori Ku",
   "lat": 35.882477,
   "lng": 139.731079,
   "keito": [],
   "genre": "ramen",
   "cash_only_flag": null,
   "payment_qr_accepted": null,
   "stationless_flag": null,
   "status": "active"
  },
  {
   "rk_id": "rk_pub_00160",
   "name": "吉草 東新井店",
   "name_en": "Kisso Higashiarai Ten",
   "pref": "埼玉県",
   "pref_en": "Saitama",
   "city": "さいたま市見沼区",
   "city_en": "Saitama Shi Minuma Ku",
   "lat": 35.913727,
   "lng": 139.66861,
   "keito": [],
   "genre": "ramen",
   "cash_only_flag": null,
   "payment_qr_accepted": null,
   "stationless_flag": null,
   "status": "active"
  },
  {
   "rk_id": "rk_pub_00161",
   "name": "ラーメンまこと屋 ふじみ野店",
   "name_en": "Ramen Makotoya Fujimino Ten",
   "pref": "埼玉県",
   "pref_en": "Saitama",
   "city": "ふじみ野市",
   "city_en": "Fujimi Noichi",
   "lat": 35.859207,
   "lng": 139.512863,
   "keito": [],
   "genre": "ramen",
   "cash_only_flag": null,
   "payment_qr_accepted": null,
   "stationless_flag": null,
   "status": "active"
  },
  {
   "rk_id": "rk_pub_00162",
   "name": "横浜ラーメン あばん 上尾西口駅前店",
   "name_en": "Yokohama Ramen Aban Ageo Nishiguchi Ekimae Ten",
   "pref": "埼玉県",
   "pref_en": "Saitama",
   "city": "上尾市",
   "city_en": "Ageo Shi",
   "lat": 35.97298,
   "lng": 139.586136,
   "keito": [],
   "genre": "ramen",
   "cash_only_flag": null,
   "payment_qr_accepted": null,
   "stationless_flag": null,
   "status": "active"
  },
  {
   "rk_id": "rk_pub_00163",
   "name": "横浜中華 華星",
   "name_en": "Yokohama Chuka Kasei",
   "pref": "埼玉県",
   "pref_en": "Saitama",
   "city": "上尾市",
   "city_en": "Ageo Shi",
   "lat": 35.959564,
   "lng": 139.569489,
   "keito": [],
   "genre": "ramen",
   "cash_only_flag": null,
   "payment_qr_accepted": null,
   "stationless_flag": null,
   "status": "active"
  },
  {
   "rk_id": "rk_pub_00164",
   "name": "中華料理 大将",
   "name_en": "Chukaryori Taisho",
   "pref": "埼玉県",
   "pref_en": "Saitama",
   "city": "児玉郡上里町",
   "city_en": "Kodama Gun Kamisato Machi",
   "lat": 36.234131,
   "lng": 139.12146,
   "keito": [],
   "genre": "chinese",
   "cash_only_flag": null,
   "payment_qr_accepted": null,
   "stationless_flag": null,
   "status": "active"
  },
  {
   "rk_id": "rk_pub_00165",
   "name": "丸源ラーメン 入間インター店",
   "name_en": "Marugen Ramen Iruma Inter Ten",
   "pref": "埼玉県",
   "pref_en": "Saitama",
   "city": "入間市",
   "city_en": "Iruma Shi",
   "lat": 35.821316,
   "lng": 139.375839,
   "keito": [
    "shoyu"
   ],
   "genre": "ramen",
   "cash_only_flag": false,
   "payment_qr_accepted": null,
   "stationless_flag": null,
   "status": "active"
  },
  {
   "rk_id": "rk_pub_00166",
   "name": "中華料理 昇龍",
   "name_en": "Chukaryori Shoryu",
   "pref": "埼玉県",
   "pref_en": "Saitama",
   "city": "八潮市",
   "city_en": "Yashio Shi",
   "lat": 35.82309,
   "lng": 139.835892,
   "keito": [],
   "genre": "chinese",
   "cash_only_flag": null,
   "payment_qr_accepted": null,
   "stationless_flag": null,
   "status": "active"
  },
  {
   "rk_id": "rk_pub_00167",
   "name": "たけ美食堂",
   "name_en": "Takemi Shokudo",
   "pref": "埼玉県",
   "pref_en": "Saitama",
   "city": "加須市",
   "city_en": "Kazo Shi",
   "lat": 36.143452,
   "lng": 139.690643,
   "keito": [],
   "genre": "ramen",
   "cash_only_flag": null,
   "payment_qr_accepted": null,
   "stationless_flag": null,
   "status": "active"
  },
  {
   "rk_id": "rk_pub_00168",
   "name": "支那そば 織ちゃん",
   "name_en": "Shina Soba Ori Chan",
   "pref": "埼玉県",
   "pref_en": "Saitama",
   "city": "南埼玉郡宮代町",
   "city_en": "Minamisaitama Gun Miyashiro Machi",
   "lat": 36.021397,
   "lng": 139.723557,
   "keito": [
    "shoyu"
   ],
   "genre": "ramen",
   "cash_only_flag": null,
   "payment_qr_accepted": null,
   "stationless_flag": null,
   "status": "active"
  },
  {
   "rk_id": "rk_pub_00169",
   "name": "ラーメンショップ 片柳店",
   "name_en": "Ramen Shop Katayanagi Ten",
   "pref": "埼玉県",
   "pref_en": "Saitama",
   "city": "坂戸市",
   "city_en": "Sakato Shi",
   "lat": 35.976795,
   "lng": 139.405457,
   "keito": [
    "other"
   ],
   "genre": "ramen",
   "cash_only_flag": null,
   "payment_qr_accepted": null,
   "stationless_flag": null,
   "status": "active"
  },
  {
   "rk_id": "rk_pub_00170",
   "name": "麺道場 総本店",
   "name_en": "Men Dojo Sohonten",
   "pref": "埼玉県",
   "pref_en": "Saitama",
   "city": "富士見市",
   "city_en": "Fujimi Shi",
   "lat": 35.857803,
   "lng": 139.537979,
   "keito": [],
   "genre": "ramen",
   "cash_only_flag": null,
   "payment_qr_accepted": null,
   "stationless_flag": null,
   "status": "active"
  },
  {
   "rk_id": "rk_pub_00171",
   "name": "極旨醤油らーめん 一刻魁堂 川口ララガーデン店",
   "name_en": "Gokuuma Shoyu Ramen Ikkoku Kaido Kawaguchi Lala Garden Ten",
   "pref": "埼玉県",
   "pref_en": "Saitama",
   "city": "川口市",
   "city_en": "Kawaguchi Shi",
   "lat": 35.806213,
   "lng": 139.699142,
   "keito": [
    "shoyu"
   ],
   "genre": "ramen",
   "cash_only_flag": null,
   "payment_qr_accepted": null,
   "stationless_flag": null,
   "status": "active"
  },
  {
   "rk_id": "rk_pub_00172",
   "name": "鴻運楼",
   "name_en": "Kounro",
   "pref": "埼玉県",
   "pref_en": "Saitama",
   "city": "川口市",
   "city_en": "Kawaguchi Shi",
   "lat": 35.814476,
   "lng": 139.704025,
   "keito": [],
   "genre": "ramen",
   "cash_only_flag": null,
   "payment_qr_accepted": null,
   "stationless_flag": null,
   "status": "active"
  },
  {
   "rk_id": "rk_pub_00173",
   "name": "文忠",
   "name_en": "Fumitada",
   "pref": "埼玉県",
   "pref_en": "Saitama",
   "city": "川口市",
   "city_en": "Kawaguchi Shi",
   "lat": 35.814003,
   "lng": 139.701645,
   "keito": [],
   "genre": "ramen",
   "cash_only_flag": null,
   "payment_qr_accepted": null,
   "stationless_flag": null,
   "status": "active"
  },
  {
   "rk_id": "rk_pub_00174",
   "name": "GLIN THAI 川口駅店",
   "name_en": "Glin Thai Kawaguchi Eki Ten",
   "pref": "埼玉県",
   "pref_en": "Saitama",
   "city": "川口市",
   "city_en": "Kawaguchi Shi",
   "lat": 35.806351,
   "lng": 139.71962,
   "keito": [],
   "genre": "ramen",
   "cash_only_flag": null,
   "payment_qr_accepted": null,
   "stationless_flag": null,
   "status": "active"
  },
  {
   "rk_id": "rk_pub_00175",
   "name": "ラーメン青木亭 川口店",
   "name_en": "Ramen Aokitei Kawaguchi Ten",
   "pref": "埼玉県",
   "pref_en": "Saitama",
   "city": "川口市",
   "city_en": "Kawaguchi Shi",
   "lat": 35.796432,
   "lng": 139.745407,
   "keito": [],
   "genre": "ramen",
   "cash_only_flag": null,
   "payment_qr_accepted": null,
   "stationless_flag": null,
   "status": "active"
  },
  {
   "rk_id": "rk_pub_00176",
   "name": "中国名菜チャイナ15",
   "name_en": "Chugoku Meisai China 15",
   "pref": "埼玉県",
   "pref_en": "Saitama",
   "city": "川越市",
   "city_en": "Kawagoe Shi",
   "lat": 35.882111,
   "lng": 139.49678,
   "keito": [],
   "genre": "ramen",
   "cash_only_flag": null,
   "payment_qr_accepted": null,
   "stationless_flag": null,
   "status": "active"
  },
  {
   "rk_id": "rk_pub_00177",
   "name": "ひやしつけめんフリーザ",
   "name_en": "Hiyashi Tsukemen Freezer",
   "pref": "埼玉県",
   "pref_en": "Saitama",
   "city": "川越市",
   "city_en": "Kawagoe Shi",
   "lat": 35.921448,
   "lng": 139.483643,
   "keito": [
    "tsukemen"
   ],
   "genre": "ramen",
   "cash_only_flag": null,
   "payment_qr_accepted": null,
   "stationless_flag": null,
   "status": "active"
  },
  {
   "rk_id": "rk_pub_00178",
   "name": "SR7埼玉 秋の全国うまいもの市",
   "name_en": "SR7 Saitama Aki No Zenkoku Umaimono Ichi",
   "pref": "埼玉県",
   "pref_en": "Saitama",
   "city": "川越市",
   "city_en": "Kawagoe Shi",
   "lat": 35.912521,
   "lng": 139.48233,
   "keito": [],
   "genre": "ramen",
   "cash_only_flag": null,
   "payment_qr_accepted": null,
   "stationless_flag": null,
   "status": "active"
  },
  {
   "rk_id": "rk_pub_00179",
   "name": "伝統熊本豚骨 伝 総本店 九州・沖縄物産展",
   "name_en": "Dento Kumamoto Tonkotsu Den Sohonten Kyushu Okinawa Bussanten",
   "pref": "埼玉県",
   "pref_en": "Saitama",
   "city": "川越市",
   "city_en": "Kawagoe Shi",
   "lat": 35.912521,
   "lng": 139.48233,
   "keito": [
    "tonkotsu"
   ],
   "genre": "ramen",
   "cash_only_flag": null,
   "payment_qr_accepted": null,
   "stationless_flag": null,
   "status": "active"
  },
  {
   "rk_id": "rk_pub_00180",
   "name": "椿 ラーメンショップ 木立店",
   "name_en": "Tsubaki Ramen Shop Kodachi Ten",
   "pref": "埼玉県",
   "pref_en": "Saitama",
   "city": "幸手市",
   "city_en": "Satte Shi",
   "lat": 36.07658,
   "lng": 139.748322,
   "keito": [
    "other"
   ],
   "genre": "ramen",
   "cash_only_flag": null,
   "payment_qr_accepted": null,
   "stationless_flag": null,
   "status": "active"
  },
  {
   "rk_id": "rk_pub_00181",
   "name": "カラオケ ビッグエコー 戸田駅前店",
   "name_en": "Karaoke Big Echo Toda Ekimae Ten",
   "pref": "埼玉県",
   "pref_en": "Saitama",
   "city": "戸田市",
   "city_en": "Toda Shi",
   "lat": 35.816711,
   "lng": 139.669373,
   "keito": [],
   "genre": "ramen",
   "cash_only_flag": null,
   "payment_qr_accepted": null,
   "stationless_flag": null,
   "status": "active"
  },
  {
   "rk_id": "rk_pub_00182",
   "name": "ぎょうざの満洲 所沢東口店",
   "name_en": "Gyozano Manshu Tokorozawa Higashiguchi Ten",
   "pref": "埼玉県",
   "pref_en": "Saitama",
   "city": "所沢市",
   "city_en": "Tokorozawa Shi",
   "lat": 35.788177,
   "lng": 139.476135,
   "keito": [],
   "genre": "ramen",
   "cash_only_flag": null,
   "payment_qr_accepted": null,
   "stationless_flag": null,
   "status": "active"
  },
  {
   "rk_id": "rk_pub_00183",
   "name": "博多らーめん ひまわり",
   "name_en": "Hakata Ramen Himawari",
   "pref": "埼玉県",
   "pref_en": "Saitama",
   "city": "所沢市",
   "city_en": "Tokorozawa Shi",
   "lat": 35.80471,
   "lng": 139.511185,
   "keito": [
    "tonkotsu"
   ],
   "genre": "ramen",
   "cash_only_flag": null,
   "payment_qr_accepted": null,
   "stationless_flag": null,
   "status": "active"
  },
  {
   "rk_id": "rk_pub_00184",
   "name": "ぜんや",
   "name_en": "Zenya",
   "pref": "埼玉県",
   "pref_en": "Saitama",
   "city": "新座市",
   "city_en": "Niza Shi",
   "lat": 35.798725,
   "lng": 139.556625,
   "keito": [],
   "genre": "ramen",
   "cash_only_flag": null,
   "payment_qr_accepted": null,
   "stationless_flag": null,
   "status": "active"
  },
  {
   "rk_id": "rk_pub_00185",
   "name": "麺屋 真心",
   "name_en": "Menya Magokoro",
   "pref": "埼玉県",
   "pref_en": "Saitama",
   "city": "日高市",
   "city_en": "Hidaka Shi",
   "lat": 35.908688,
   "lng": 139.378372,
   "keito": [],
   "genre": "ramen",
   "cash_only_flag": null,
   "payment_qr_accepted": null,
   "stationless_flag": null,
   "status": "active"
  },
  {
   "rk_id": "rk_pub_00186",
   "name": "ぎょうざの満洲 春日部東口店",
   "name_en": "Gyoza No Manshu Kasukabe Higashiguchi Ten",
   "pref": "埼玉県",
   "pref_en": "Saitama",
   "city": "春日部市",
   "city_en": "Kasukabe Shi",
   "lat": 35.981438,
   "lng": 139.753006,
   "keito": [],
   "genre": "ramen",
   "cash_only_flag": null,
   "payment_qr_accepted": null,
   "stationless_flag": null,
   "status": "active"
  },
  {
   "rk_id": "rk_pub_00187",
   "name": "福寅",
   "name_en": "Fukutora",
   "pref": "埼玉県",
   "pref_en": "Saitama",
   "city": "朝霞市",
   "city_en": "Asaka Shi",
   "lat": 35.78907,
   "lng": 139.593002,
   "keito": [],
   "genre": "ramen",
   "cash_only_flag": null,
   "payment_qr_accepted": null,
   "stationless_flag": null,
   "status": "active"
  },
  {
   "rk_id": "rk_pub_00188",
   "name": "おおぎやラーメン 児玉店",
   "name_en": "Oogiya Ramen Kodama Ten",
   "pref": "埼玉県",
   "pref_en": "Saitama",
   "city": "本庄市",
   "city_en": "Honjo Shi",
   "lat": 36.189686,
   "lng": 139.14534,
   "keito": [],
   "genre": "ramen",
   "cash_only_flag": true,
   "payment_qr_accepted": null,
   "stationless_flag": null,
   "status": "active"
  },
  {
   "rk_id": "rk_pub_00189",
   "name": "くるまやラーメン 東松山店",
   "name_en": "Kurumaya Ramen Higashimatsuyama Ten",
   "pref": "埼玉県",
   "pref_en": "Saitama",
   "city": "東松山市",
   "city_en": "Higashimatsuyama Shi",
   "lat": 36.026707,
   "lng": 139.405838,
   "keito": [
    "miso"
   ],
   "genre": "ramen",
   "cash_only_flag": null,
   "payment_qr_accepted": null,
   "stationless_flag": null,
   "status": "active"
  },
  {
   "rk_id": "rk_pub_00190",
   "name": "台湾料理 天香味",
   "name_en": "Taiwan Ryori Tenkomi",
   "pref": "埼玉県",
   "pref_en": "Saitama",
   "city": "比企郡吉見町",
   "city_en": "Hiki Gun Yoshimi Machi",
   "lat": 36.021572,
   "lng": 139.469711,
   "keito": [],
   "genre": "chinese",
   "cash_only_flag": null,
   "payment_qr_accepted": null,
   "stationless_flag": null,
   "status": "active"
  },
  {
   "rk_id": "rk_pub_00191",
   "name": "客隆軒",
   "name_en": "Kyakuryuken",
   "pref": "埼玉県",
   "pref_en": "Saitama",
   "city": "深谷市",
   "city_en": "Fukaya Shi",
   "lat": 36.124756,
   "lng": 139.232742,
   "keito": [],
   "genre": "ramen",
   "cash_only_flag": null,
   "payment_qr_accepted": null,
   "stationless_flag": null,
   "status": "active"
  },
  {
   "rk_id": "rk_pub_00192",
   "name": "らーめん三峰 熊谷店",
   "name_en": "Ramen Mitsumine Kumagaya Ten",
   "pref": "埼玉県",
   "pref_en": "Saitama",
   "city": "熊谷市",
   "city_en": "Kumagaya Shi",
   "lat": 36.18985,
   "lng": 139.367325,
   "keito": [],
   "genre": "ramen",
   "cash_only_flag": null,
   "payment_qr_accepted": null,
   "stationless_flag": null,
   "status": "active"
  },
  {
   "rk_id": "rk_pub_00193",
   "name": "蒙古タンメン中本 熊谷店",
   "name_en": "Moko Tanmen Nakamoto Kumagaya Ten",
   "pref": "埼玉県",
   "pref_en": "Saitama",
   "city": "熊谷市",
   "city_en": "Kumagaya Shi",
   "lat": 36.171879,
   "lng": 139.371262,
   "keito": [
    "miso"
   ],
   "genre": "ramen",
   "cash_only_flag": true,
   "payment_qr_accepted": null,
   "stationless_flag": null,
   "status": "active"
  },
  {
   "rk_id": "rk_pub_00194",
   "name": "優勝軒 狭山店",
   "name_en": "Yushoken Sayama Ten",
   "pref": "埼玉県",
   "pref_en": "Saitama",
   "city": "狭山市",
   "city_en": "Sayama Shi",
   "lat": 35.850159,
   "lng": 139.39595,
   "keito": [],
   "genre": "ramen",
   "cash_only_flag": null,
   "payment_qr_accepted": null,
   "stationless_flag": null,
   "status": "active"
  },
  {
   "rk_id": "rk_pub_00195",
   "name": "拉麺山月",
   "name_en": "Ramen Sangetsu",
   "pref": "埼玉県",
   "pref_en": "Saitama",
   "city": "秩父市",
   "city_en": "Chichibu Shi",
   "lat": 35.993298,
   "lng": 139.086777,
   "keito": [],
   "genre": "ramen",
   "cash_only_flag": null,
   "payment_qr_accepted": null,
   "stationless_flag": null,
   "status": "active"
  },
  {
   "rk_id": "rk_pub_00196",
   "name": "中華料理 三宝",
   "name_en": "Chukaryori Sanpo",
   "pref": "埼玉県",
   "pref_en": "Saitama",
   "city": "羽生市",
   "city_en": "Hanyu Shi",
   "lat": 36.172375,
   "lng": 139.533829,
   "keito": [],
   "genre": "chinese",
   "cash_only_flag": null,
   "payment_qr_accepted": null,
   "stationless_flag": null,
   "status": "active"
  },
  {
   "rk_id": "rk_pub_00197",
   "name": "麺Dining Number Nine 09",
   "name_en": "Men Dining Number Nine 09",
   "pref": "埼玉県",
   "pref_en": "Saitama",
   "city": "草加市",
   "city_en": "Soka Shi",
   "lat": 35.826473,
   "lng": 139.805252,
   "keito": [],
   "genre": "ramen",
   "cash_only_flag": null,
   "payment_qr_accepted": null,
   "stationless_flag": null,
   "status": "active"
  },
  {
   "rk_id": "rk_pub_00198",
   "name": "白蘭酒家",
   "name_en": "Hakuran Shuka",
   "pref": "埼玉県",
   "pref_en": "Saitama",
   "city": "草加市",
   "city_en": "Soka Shi",
   "lat": 35.826454,
   "lng": 139.807266,
   "keito": [
    "tonkotsu"
   ],
   "genre": "ramen",
   "cash_only_flag": null,
   "payment_qr_accepted": null,
   "stationless_flag": null,
   "status": "active"
  },
  {
   "rk_id": "rk_pub_00199",
   "name": "めんはうす 健",
   "name_en": "Menhouse Ken",
   "pref": "埼玉県",
   "pref_en": "Saitama",
   "city": "行田市",
   "city_en": "Gyoda Shi",
   "lat": 36.131519,
   "lng": 139.457458,
   "keito": [],
   "genre": "ramen",
   "cash_only_flag": null,
   "payment_qr_accepted": null,
   "stationless_flag": null,
   "status": "active"
  },
  {
   "rk_id": "rk_pub_00200",
   "name": "らー麺 つやつや",
   "name_en": "Ramen Tsuyatsuya",
   "pref": "埼玉県",
   "pref_en": "Saitama",
   "city": "越谷市",
   "city_en": "Koshigaya Shi",
   "lat": 35.874172,
   "lng": 139.801071,
   "keito": [],
   "genre": "ramen",
   "cash_only_flag": null,
   "payment_qr_accepted": null,
   "stationless_flag": null,
   "status": "active"
  },
  {
   "rk_id": "rk_pub_00201",
   "name": "チョークディー",
   "name_en": "Chokudi",
   "pref": "埼玉県",
   "pref_en": "Saitama",
   "city": "越谷市",
   "city_en": "Koshigaya Shi",
   "lat": 35.90308,
   "lng": 139.781631,
   "keito": [],
   "genre": "ramen",
   "cash_only_flag": null,
   "payment_qr_accepted": null,
   "stationless_flag": null,
   "status": "active"
  },
  {
   "rk_id": "rk_pub_00202",
   "name": "麺処ごまや 越谷レイクタウン店",
   "name_en": "Mendokoro Gomaya Koshigaya Lake Town Ten",
   "pref": "埼玉県",
   "pref_en": "Saitama",
   "city": "越谷市",
   "city_en": "Koshigaya Shi",
   "lat": 35.885181,
   "lng": 139.817902,
   "keito": [],
   "genre": "ramen",
   "cash_only_flag": null,
   "payment_qr_accepted": null,
   "stationless_flag": null,
   "status": "active"
  },
  {
   "rk_id": "rk_pub_00203",
   "name": "あさひ飯店",
   "name_en": "Asahi Hanten",
   "pref": "埼玉県",
   "pref_en": "Saitama",
   "city": "鴻巣市",
   "city_en": "Konosu Shi",
   "lat": 36.091789,
   "lng": 139.476151,
   "keito": [],
   "genre": "chinese",
   "cash_only_flag": null,
   "payment_qr_accepted": null,
   "stationless_flag": null,
   "status": "active"
  },
  {
   "rk_id": "rk_pub_00204",
   "name": "めん六や 大分中津店",
   "name_en": "Menrokuya Oita Nakatsu Ten",
   "pref": "大分県",
   "pref_en": "Oita",
   "city": "中津市",
   "city_en": "Nakatsu Shi",
   "lat": 33.589588,
   "lng": 131.200287,
   "keito": [],
   "genre": "ramen",
   "cash_only_flag": null,
   "payment_qr_accepted": null,
   "stationless_flag": null,
   "status": "active"
  },
  {
   "rk_id": "rk_pub_00205",
   "name": "昭和ラーメン ぶらっと",
   "name_en": "Showa Ramen Buratto",
   "pref": "大分県",
   "pref_en": "Oita",
   "city": "別府市",
   "city_en": "Beppu Shi",
   "lat": 33.278717,
   "lng": 131.504471,
   "keito": [],
   "genre": "ramen",
   "cash_only_flag": null,
   "payment_qr_accepted": null,
   "stationless_flag": null,
   "status": "active"
  },
  {
   "rk_id": "rk_pub_00206",
   "name": "麺処 錦",
   "name_en": "Mendokoro Nishiki",
   "pref": "大分県",
   "pref_en": "Oita",
   "city": "国東市",
   "city_en": "Kunisaki Shi",
   "lat": 33.5503,
   "lng": 131.71127,
   "keito": [],
   "genre": "ramen",
   "cash_only_flag": null,
   "payment_qr_accepted": null,
   "stationless_flag": null,
   "status": "active"
  },
  {
   "rk_id": "rk_pub_00207",
   "name": "味噌乃家 森町バイパス店",
   "name_en": "Miso Noya Moricho Baipasu Ten",
   "pref": "大分県",
   "pref_en": "Oita",
   "city": "大分市",
   "city_en": "Oita Shi",
   "lat": 33.235222,
   "lng": 131.682114,
   "keito": [
    "miso",
    "tonkotsu"
   ],
   "genre": "ramen",
   "cash_only_flag": null,
   "payment_qr_accepted": null,
   "stationless_flag": null,
   "status": "active"
  },
  {
   "rk_id": "rk_pub_00208",
   "name": "中華料理 鼎",
   "name_en": "Chukaryori Kanae",
   "pref": "大分県",
   "pref_en": "Oita",
   "city": "大分市",
   "city_en": "Oita Shi",
   "lat": 33.236336,
   "lng": 131.609802,
   "keito": [],
   "genre": "chinese",
   "cash_only_flag": null,
   "payment_qr_accepted": null,
   "stationless_flag": null,
   "status": "active"
  },
  {
   "rk_id": "rk_pub_00209",
   "name": "日田焼きそば 味の珍さん",
   "name_en": "Hita Yakisoba Aji no Chinsan",
   "pref": "大分県",
   "pref_en": "Oita",
   "city": "日田市",
   "city_en": "Hita Shi",
   "lat": 33.320427,
   "lng": 130.934692,
   "keito": [],
   "genre": "ramen",
   "cash_only_flag": null,
   "payment_qr_accepted": null,
   "stationless_flag": null,
   "status": "active"
  },
  {
   "rk_id": "rk_pub_00210",
   "name": "らーめん 浪越",
   "name_en": "Ramen Namikoshi",
   "pref": "大阪府",
   "pref_en": "Osaka",
   "city": "交野市",
   "city_en": "Katano Shi",
   "lat": 34.793812,
   "lng": 135.691864,
   "keito": [],
   "genre": "ramen",
   "cash_only_flag": null,
   "payment_qr_accepted": null,
   "stationless_flag": null,
   "status": "active"
  },
  {
   "rk_id": "rk_pub_00211",
   "name": "長崎ちゃんぽん リンガーハット イズミヤ千里丘店",
   "name_en": "Nagasaki Champon Ringer Hut Izumiya Senrioka Ten",
   "pref": "大阪府",
   "pref_en": "Osaka",
   "city": "吹田市",
   "city_en": "Suita Shi",
   "lat": 34.788815,
   "lng": 135.538727,
   "keito": [],
   "genre": "ramen",
   "cash_only_flag": false,
   "payment_qr_accepted": null,
   "stationless_flag": null,
   "status": "active"
  },
  {
   "rk_id": "rk_pub_00212",
   "name": "ラーメン魁力屋 千里丘店",
   "name_en": "Ramen Kairikiya Senri Oka Ten",
   "pref": "大阪府",
   "pref_en": "Osaka",
   "city": "吹田市",
   "city_en": "Suita Shi",
   "lat": 34.794056,
   "lng": 135.551849,
   "keito": [
    "shoyu"
   ],
   "genre": "ramen",
   "cash_only_flag": false,
   "payment_qr_accepted": null,
   "stationless_flag": null,
   "status": "active"
  },
  {
   "rk_id": "rk_pub_00213",
   "name": "さばらーめん さばね 大阪堺店",
   "name_en": "Sabaramen Sabane Osaka Sakai Ten",
   "pref": "大阪府",
   "pref_en": "Osaka",
   "city": "堺市中区",
   "city_en": "Sakai Shi Naka Ku",
   "lat": 34.528969,
   "lng": 135.495316,
   "keito": [],
   "genre": "ramen",
   "cash_only_flag": null,
   "payment_qr_accepted": null,
   "stationless_flag": null,
   "status": "active"
  },
  {
   "rk_id": "rk_pub_00214",
   "name": "にんにくラーメン 一力",
   "name_en": "Ninniku Ramen Ichiriki",
   "pref": "大阪府",
   "pref_en": "Osaka",
   "city": "堺市堺区",
   "city_en": "Sakai Shi Sakai Ku",
   "lat": 34.566658,
   "lng": 135.494705,
   "keito": [],
   "genre": "ramen",
   "cash_only_flag": null,
   "payment_qr_accepted": null,
   "stationless_flag": null,
   "status": "active"
  },
  {
   "rk_id": "rk_pub_00215",
   "name": "ラーメン横綱 鳳店",
   "name_en": "Ramen Yokozuna Otori Ten",
   "pref": "大阪府",
   "pref_en": "Osaka",
   "city": "堺市西区",
   "city_en": "Sakai Shi Nishi Ku",
   "lat": 34.53096,
   "lng": 135.452774,
   "keito": [],
   "genre": "ramen",
   "cash_only_flag": null,
   "payment_qr_accepted": null,
   "stationless_flag": null,
   "status": "active"
  },
  {
   "rk_id": "rk_pub_00216",
   "name": "小洞天",
   "name_en": "Shodoten",
   "pref": "大阪府",
   "pref_en": "Osaka",
   "city": "大阪市中央区",
   "city_en": "Osaka Shi Chuo Ku",
   "lat": 34.668011,
   "lng": 135.504425,
   "keito": [],
   "genre": "ramen",
   "cash_only_flag": null,
   "payment_qr_accepted": null,
   "stationless_flag": null,
   "status": "active"
  },
  {
   "rk_id": "rk_pub_00217",
   "name": "大阪王将 道頓堀本店",
   "name_en": "Osakaosho Dotonbori Honten",
   "pref": "大阪府",
   "pref_en": "Osaka",
   "city": "大阪市中央区",
   "city_en": "Osaka Shi Chuo Ku",
   "lat": 34.668797,
   "lng": 135.50206,
   "keito": [],
   "genre": "ramen",
   "cash_only_flag": null,
   "payment_qr_accepted": null,
   "stationless_flag": null,
   "status": "active"
  },
  {
   "rk_id": "rk_pub_00218",
   "name": "麺とかき氷 ドギャン 谷四店",
   "name_en": "Men to Kakigori Dogyan Tanishi-ten",
   "pref": "大阪府",
   "pref_en": "Osaka",
   "city": "大阪市中央区",
   "city_en": "Osaka Shi Chuo Ku",
   "lat": 34.678902,
   "lng": 135.516861,
   "keito": [],
   "genre": "ramen",
   "cash_only_flag": null,
   "payment_qr_accepted": null,
   "stationless_flag": null,
   "status": "active"
  },
  {
   "rk_id": "rk_pub_00219",
   "name": "フラン軒",
   "name_en": "Furanken",
   "pref": "大阪府",
   "pref_en": "Osaka",
   "city": "大阪市中央区",
   "city_en": "Osaka Shi Chuo Ku",
   "lat": 34.680164,
   "lng": 135.501434,
   "keito": [],
   "genre": "ramen",
   "cash_only_flag": null,
   "payment_qr_accepted": null,
   "stationless_flag": null,
   "status": "active"
  },
  {
   "rk_id": "rk_pub_00220",
   "name": "功夫ラーメン",
   "name_en": "Kung Fu Ramen",
   "pref": "大阪府",
   "pref_en": "Osaka",
   "city": "大阪市中央区",
   "city_en": "Osaka Shi Chuo Ku",
   "lat": 34.679623,
   "lng": 135.501419,
   "keito": [],
   "genre": "ramen",
   "cash_only_flag": null,
   "payment_qr_accepted": null,
   "stationless_flag": null,
   "status": "active"
  },
  {
   "rk_id": "rk_pub_00221",
   "name": "ゑび真",
   "name_en": "Ebishin",
   "pref": "大阪府",
   "pref_en": "Osaka",
   "city": "大阪市中央区",
   "city_en": "Osaka Shi Chuo Ku",
   "lat": 34.670311,
   "lng": 135.499023,
   "keito": [],
   "genre": "ramen",
   "cash_only_flag": null,
   "payment_qr_accepted": null,
   "stationless_flag": null,
   "status": "active"
  },
  {
   "rk_id": "rk_pub_00222",
   "name": "ニューヨークのラーメン屋 アメリカ村本店",
   "name_en": "New York No Ramen Ya America Mura Honten",
   "pref": "大阪府",
   "pref_en": "Osaka",
   "city": "大阪市中央区",
   "city_en": "Osaka Shi Chuo Ku",
   "lat": 34.672554,
   "lng": 135.49826,
   "keito": [],
   "genre": "ramen",
   "cash_only_flag": null,
   "payment_qr_accepted": null,
   "stationless_flag": null,
   "status": "active"
  },
  {
   "rk_id": "rk_pub_00223",
   "name": "燕ちゃんラーメン 住吉店",
   "name_en": "Tsubame Chan Ramen Sumiyoshi Ten",
   "pref": "大阪府",
   "pref_en": "Osaka",
   "city": "大阪市住吉区",
   "city_en": "Osaka Shi Sumiyoshi Ku",
   "lat": 34.606377,
   "lng": 135.498199,
   "keito": [],
   "genre": "ramen",
   "cash_only_flag": null,
   "payment_qr_accepted": null,
   "stationless_flag": null,
   "status": "active"
  },
  {
   "rk_id": "rk_pub_00224",
   "name": "都由 堂島店",
   "name_en": "Toyu Dojima Ten",
   "pref": "大阪府",
   "pref_en": "Osaka",
   "city": "大阪市北区",
   "city_en": "Osaka Shi Kita Ku",
   "lat": 34.696594,
   "lng": 135.497665,
   "keito": [],
   "genre": "ramen",
   "cash_only_flag": null,
   "payment_qr_accepted": null,
   "stationless_flag": null,
   "status": "active"
  },
  {
   "rk_id": "rk_pub_00225",
   "name": "らーめん戦国時代",
   "name_en": "Ramen Sengokujidai",
   "pref": "大阪府",
   "pref_en": "Osaka",
   "city": "大阪市北区",
   "city_en": "Osaka Shi Kita Ku",
   "lat": 34.700424,
   "lng": 135.494614,
   "keito": [],
   "genre": "ramen",
   "cash_only_flag": null,
   "payment_qr_accepted": null,
   "stationless_flag": null,
   "status": "active"
  },
  {
   "rk_id": "rk_pub_00226",
   "name": "チャイニーズビストロ 蘭亭 茶屋町店",
   "name_en": "Chinese Bistro Rantei Chayamachi Ten",
   "pref": "大阪府",
   "pref_en": "Osaka",
   "city": "大阪市北区",
   "city_en": "Osaka Shi Kita Ku",
   "lat": 34.708309,
   "lng": 135.497833,
   "keito": [],
   "genre": "ramen",
   "cash_only_flag": null,
   "payment_qr_accepted": null,
   "stationless_flag": null,
   "status": "active"
  },
  {
   "rk_id": "rk_pub_00227",
   "name": "メンヤ ニュークラシック 中津店",
   "name_en": "Menya New Classic Nakatsu Ten",
   "pref": "大阪府",
   "pref_en": "Osaka",
   "city": "大阪市北区",
   "city_en": "Osaka Shi Kita Ku",
   "lat": 34.709942,
   "lng": 135.495926,
   "keito": [],
   "genre": "ramen",
   "cash_only_flag": null,
   "payment_qr_accepted": null,
   "stationless_flag": null,
   "status": "active"
  },
  {
   "rk_id": "rk_pub_00228",
   "name": "大阪中華サワダ飯店",
   "name_en": "Osaka Chuka Sawada Hanten",
   "pref": "大阪府",
   "pref_en": "Osaka",
   "city": "大阪市北区",
   "city_en": "Osaka Shi Kita Ku",
   "lat": 34.702095,
   "lng": 135.500168,
   "keito": [],
   "genre": "chinese",
   "cash_only_flag": null,
   "payment_qr_accepted": null,
   "stationless_flag": null,
   "status": "active"
  },
  {
   "rk_id": "rk_pub_00229",
   "name": "餃子の王将 鴫野店",
   "name_en": "Gyoza No Osho Shigino Ten",
   "pref": "大阪府",
   "pref_en": "Osaka",
   "city": "大阪市城東区",
   "city_en": "Osaka Shi Joto Ku",
   "lat": 34.690868,
   "lng": 135.546051,
   "keito": [],
   "genre": "chinese",
   "cash_only_flag": null,
   "payment_qr_accepted": null,
   "stationless_flag": null,
   "status": "active"
  },
  {
   "rk_id": "rk_pub_00230",
   "name": "中華そば トライ",
   "name_en": "Chuka Soba Try",
   "pref": "大阪府",
   "pref_en": "Osaka",
   "city": "大阪市天王寺区",
   "city_en": "Osaka Shi Tennoji Ku",
   "lat": 34.651829,
   "lng": 135.513916,
   "keito": [
    "shoyu"
   ],
   "genre": "ramen",
   "cash_only_flag": null,
   "payment_qr_accepted": null,
   "stationless_flag": null,
   "status": "active"
  },
  {
   "rk_id": "rk_pub_00231",
   "name": "2ちゃん牛ラーメン",
   "name_en": "2 Chan Gyu Ramen",
   "pref": "大阪府",
   "pref_en": "Osaka",
   "city": "大阪市平野区",
   "city_en": "Osaka Shi Heiya Ku",
   "lat": 34.637821,
   "lng": 135.554184,
   "keito": [],
   "genre": "ramen",
   "cash_only_flag": null,
   "payment_qr_accepted": null,
   "stationless_flag": null,
   "status": "active"
  },
  {
   "rk_id": "rk_pub_00232",
   "name": "中華そば 住吉",
   "name_en": "Chuka Soba Sumiyoshi",
   "pref": "大阪府",
   "pref_en": "Osaka",
   "city": "大阪市東成区",
   "city_en": "Osaka Shi Higashinari Ku",
   "lat": 34.669186,
   "lng": 135.561722,
   "keito": [
    "shoyu"
   ],
   "genre": "ramen",
   "cash_only_flag": null,
   "payment_qr_accepted": null,
   "stationless_flag": null,
   "status": "active"
  },
  {
   "rk_id": "rk_pub_00233",
   "name": "青波",
   "name_en": "Aonami",
   "pref": "大阪府",
   "pref_en": "Osaka",
   "city": "大阪市東淀川区",
   "city_en": "Osaka Shi Higashiyodogawa Ku",
   "lat": 34.744102,
   "lng": 135.533463,
   "keito": [],
   "genre": "ramen",
   "cash_only_flag": null,
   "payment_qr_accepted": null,
   "stationless_flag": null,
   "status": "active"
  },
  {
   "rk_id": "rk_pub_00234",
   "name": "なにわ新風 日本橋総本店",
   "name_en": "Naniwa Shinpu Nihonbashi Sohonten",
   "pref": "大阪府",
   "pref_en": "Osaka",
   "city": "大阪市浪速区",
   "city_en": "Osaka Shi Naniwa Ku",
   "lat": 34.655079,
   "lng": 135.505692,
   "keito": [],
   "genre": "ramen",
   "cash_only_flag": null,
   "payment_qr_accepted": null,
   "stationless_flag": null,
   "status": "active"
  },
  {
   "rk_id": "rk_pub_00235",
   "name": "力餅食堂 三津屋商店街店",
   "name_en": "Chikaramochi Shokudo Mitsuya Shotengai Ten",
   "pref": "大阪府",
   "pref_en": "Osaka",
   "city": "大阪市淀川区",
   "city_en": "Osaka Shi Yodogawa Ku",
   "lat": 34.727932,
   "lng": 135.472351,
   "keito": [],
   "genre": "ramen",
   "cash_only_flag": null,
   "payment_qr_accepted": null,
   "stationless_flag": null,
   "status": "active"
  },
  {
   "rk_id": "rk_pub_00236",
   "name": "星知ラズ 塚本店",
   "name_en": "Hoshi Shirazu Tsukamoto Ten",
   "pref": "大阪府",
   "pref_en": "Osaka",
   "city": "大阪市淀川区",
   "city_en": "Osaka Shi Yodogawa Ku",
   "lat": 34.713184,
   "lng": 135.469162,
   "keito": [],
   "genre": "ramen",
   "cash_only_flag": null,
   "payment_qr_accepted": null,
   "stationless_flag": null,
   "status": "active"
  },
  {
   "rk_id": "rk_pub_00237",
   "name": "元祖 札幌や 市岡店",
   "name_en": "Ganso Sapporo Ya Ichioka Ten",
   "pref": "大阪府",
   "pref_en": "Osaka",
   "city": "大阪市港区",
   "city_en": "Osaka Shi Minato Ku",
   "lat": 34.664845,
   "lng": 135.462601,
   "keito": [
    "miso"
   ],
   "genre": "ramen",
   "cash_only_flag": null,
   "payment_qr_accepted": null,
   "stationless_flag": null,
   "status": "active"
  },
  {
   "rk_id": "rk_pub_00238",
   "name": "九月ラーメン",
   "name_en": "Kugatsu Ramen",
   "pref": "大阪府",
   "pref_en": "Osaka",
   "city": "大阪市生野区",
   "city_en": "Osaka Shi Ikuno Ku",
   "lat": 34.662052,
   "lng": 135.547089,
   "keito": [],
   "genre": "ramen",
   "cash_only_flag": null,
   "payment_qr_accepted": null,
   "stationless_flag": null,
   "status": "active"
  },
  {
   "rk_id": "rk_pub_00239",
   "name": "つるまる 肥後橋店",
   "name_en": "Tsurumaru Higobashi Ten",
   "pref": "大阪府",
   "pref_en": "Osaka",
   "city": "大阪市西区",
   "city_en": "Osaka Shi Nishi Ku",
   "lat": 34.68964,
   "lng": 135.49678,
   "keito": [],
   "genre": "ramen",
   "cash_only_flag": null,
   "payment_qr_accepted": null,
   "stationless_flag": null,
   "status": "active"
  },
  {
   "rk_id": "rk_pub_00240",
   "name": "らーめんハウス 直ちゃん",
   "name_en": "Ramen House Naochan",
   "pref": "大阪府",
   "pref_en": "Osaka",
   "city": "大阪市西成区",
   "city_en": "Osaka Shi Nishinari Ku",
   "lat": 34.637871,
   "lng": 135.495575,
   "keito": [],
   "genre": "ramen",
   "cash_only_flag": null,
   "payment_qr_accepted": null,
   "stationless_flag": null,
   "status": "active"
  },
  {
   "rk_id": "rk_pub_00241",
   "name": "蘭州ラーメン",
   "name_en": "Ranshu Ramen",
   "pref": "大阪府",
   "pref_en": "Osaka",
   "city": "大阪市都島区",
   "city_en": "Osaka Shi Miyako Shima Ku",
   "lat": 34.699387,
   "lng": 135.534271,
   "keito": [],
   "genre": "ramen",
   "cash_only_flag": null,
   "payment_qr_accepted": null,
   "stationless_flag": null,
   "status": "active"
  },
  {
   "rk_id": "rk_pub_00242",
   "name": "麺屋やま",
   "name_en": "Menya Yama",
   "pref": "大阪府",
   "pref_en": "Osaka",
   "city": "大阪市阿倍野区",
   "city_en": "Osaka Shi Abeno Ku",
   "lat": 34.638012,
   "lng": 135.520172,
   "keito": [],
   "genre": "ramen",
   "cash_only_flag": null,
   "payment_qr_accepted": null,
   "stationless_flag": null,
   "status": "active"
  },
  {
   "rk_id": "rk_pub_00243",
   "name": "ずんどう屋 守口南寺方店",
   "name_en": "Zundouya",
   "pref": "大阪府",
   "pref_en": "Osaka",
   "city": "守口市",
   "city_en": "Moriguchi Shi",
   "lat": 34.721169,
   "lng": 135.571823,
   "keito": [],
   "genre": "ramen",
   "cash_only_flag": false,
   "payment_qr_accepted": null,
   "stationless_flag": null,
   "status": "active"
  },
  {
   "rk_id": "rk_pub_00244",
   "name": "丸源ラーメン 寝屋川店",
   "name_en": "Marugen Ramen Neyagawa Ten",
   "pref": "大阪府",
   "pref_en": "Osaka",
   "city": "寝屋川市",
   "city_en": "Neyagawa Shi",
   "lat": 34.770088,
   "lng": 135.611923,
   "keito": [
    "shoyu"
   ],
   "genre": "ramen",
   "cash_only_flag": false,
   "payment_qr_accepted": null,
   "stationless_flag": null,
   "status": "active"
  },
  {
   "rk_id": "rk_pub_00245",
   "name": "麺匠 てらお",
   "name_en": "Mensho Terao",
   "pref": "大阪府",
   "pref_en": "Osaka",
   "city": "摂津市",
   "city_en": "Settsu Shi",
   "lat": 34.776352,
   "lng": 135.546768,
   "keito": [],
   "genre": "ramen",
   "cash_only_flag": null,
   "payment_qr_accepted": null,
   "stationless_flag": null,
   "status": "active"
  },
  {
   "rk_id": "rk_pub_00246",
   "name": "横浜家系ラーメン 一蓮家 八戸ノ里店",
   "name_en": "Yokohama Iekei Ramen Ichirenya Hachinohe No Sato Ten",
   "pref": "大阪府",
   "pref_en": "Osaka",
   "city": "東大阪市",
   "city_en": "Higashiosaka Shi",
   "lat": 34.663979,
   "lng": 135.588425,
   "keito": [
    "tonkotsu"
   ],
   "genre": "ramen",
   "cash_only_flag": null,
   "payment_qr_accepted": null,
   "stationless_flag": null,
   "status": "active"
  },
  {
   "rk_id": "rk_pub_00247",
   "name": "麺上",
   "name_en": "Men Ue",
   "pref": "大阪府",
   "pref_en": "Osaka",
   "city": "東大阪市",
   "city_en": "Higashiosaka Shi",
   "lat": 34.66185,
   "lng": 135.638428,
   "keito": [],
   "genre": "ramen",
   "cash_only_flag": null,
   "payment_qr_accepted": null,
   "stationless_flag": null,
   "status": "active"
  },
  {
   "rk_id": "rk_pub_00248",
   "name": "お食事処 たかひろ",
   "name_en": "Oshokujidokoro Takahiro",
   "pref": "大阪府",
   "pref_en": "Osaka",
   "city": "松原市",
   "city_en": "Matsubara Shi",
   "lat": 34.573811,
   "lng": 135.545105,
   "keito": [],
   "genre": "ramen",
   "cash_only_flag": null,
   "payment_qr_accepted": null,
   "stationless_flag": null,
   "status": "active"
  },
  {
   "rk_id": "rk_pub_00249",
   "name": "麺家 津田四川",
   "name_en": "Menya Tsuda Shisen",
   "pref": "大阪府",
   "pref_en": "Osaka",
   "city": "枚方市",
   "city_en": "Hirakata Shi",
   "lat": 34.809349,
   "lng": 135.698975,
   "keito": [],
   "genre": "ramen",
   "cash_only_flag": null,
   "payment_qr_accepted": null,
   "stationless_flag": null,
   "status": "active"
  },
  {
   "rk_id": "rk_pub_00250",
   "name": "河内らーめん 喜神 シークル店",
   "name_en": "Kawachi Ramen Kishin Seacle Ten",
   "pref": "大阪府",
   "pref_en": "Osaka",
   "city": "泉佐野市",
   "city_en": "Izumisano Shi",
   "lat": 34.406223,
   "lng": 135.295151,
   "keito": [],
   "genre": "ramen",
   "cash_only_flag": null,
   "payment_qr_accepted": null,
   "stationless_flag": null,
   "status": "active"
  },
  {
   "rk_id": "rk_pub_00251",
   "name": "博多一風堂 みのおキューズモール店",
   "name_en": "Hakata Ippudo Mino Qs Mall Ten",
   "pref": "大阪府",
   "pref_en": "Osaka",
   "city": "箕面市",
   "city_en": "Mino Shi",
   "lat": 34.831688,
   "lng": 135.488998,
   "keito": [
    "tonkotsu"
   ],
   "genre": "ramen",
   "cash_only_flag": false,
   "payment_qr_accepted": null,
   "stationless_flag": null,
   "status": "active"
  },
  {
   "rk_id": "rk_pub_00252",
   "name": "ラー麺 ずんどう屋 茨木下穂積店",
   "name_en": "Zundouya",
   "pref": "大阪府",
   "pref_en": "Osaka",
   "city": "茨木市",
   "city_en": "Ibaraki Shi",
   "lat": 34.808537,
   "lng": 135.552399,
   "keito": [],
   "genre": "ramen",
   "cash_only_flag": false,
   "payment_qr_accepted": null,
   "stationless_flag": null,
   "status": "active"
  },
  {
   "rk_id": "rk_pub_00253",
   "name": "獅子道らーめん",
   "name_en": "Shishido Ramen",
   "pref": "大阪府",
   "pref_en": "Osaka",
   "city": "豊中市",
   "city_en": "Toyonaka Shi",
   "lat": 34.786457,
   "lng": 135.46402,
   "keito": [],
   "genre": "ramen",
   "cash_only_flag": null,
   "payment_qr_accepted": null,
   "stationless_flag": null,
   "status": "active"
  },
  {
   "rk_id": "rk_pub_00254",
   "name": "和歌山ラーメン 紀一",
   "name_en": "Wakayama Ramen Kiichi",
   "pref": "大阪府",
   "pref_en": "Osaka",
   "city": "貝塚市",
   "city_en": "Kaizuka Shi",
   "lat": 34.4436,
   "lng": 135.365021,
   "keito": [],
   "genre": "ramen",
   "cash_only_flag": null,
   "payment_qr_accepted": null,
   "stationless_flag": null,
   "status": "active"
  },
  {
   "rk_id": "rk_pub_00255",
   "name": "ラーメン麺長",
   "name_en": "Ramen Mencho",
   "pref": "大阪府",
   "pref_en": "Osaka",
   "city": "高槻市",
   "city_en": "Takatsuki Shi",
   "lat": 34.863995,
   "lng": 135.655701,
   "keito": [],
   "genre": "ramen",
   "cash_only_flag": null,
   "payment_qr_accepted": null,
   "stationless_flag": null,
   "status": "active"
  },
  {
   "rk_id": "rk_pub_00256",
   "name": "麺屋 きん次郎",
   "name_en": "Menya Kinjiro",
   "pref": "大阪府",
   "pref_en": "Osaka",
   "city": "高槻市",
   "city_en": "Takatsuki Shi",
   "lat": 34.852436,
   "lng": 135.616852,
   "keito": [],
   "genre": "ramen",
   "cash_only_flag": null,
   "payment_qr_accepted": null,
   "stationless_flag": null,
   "status": "active"
  },