{
 "_note": "REAL 1,000-row sample from the Japan Ramen Active Master (62,173 active). IDs are public masks (internal keys withheld). name_en/pref_en/city_en let you query fully in English. keito is the coarse public enum (tonkotsu/miso/shoyu/shio/tsukemen/spicy/other). payment_qr_accepted / stationless are enriched in the live API only. No canary records.",
 "_attribution": "Store facts observed from public web ramen listings; licensing-verified records from Japanese municipality open data (© municipality open data, CC BY). Derived values (keito, romanization, station distance) © gachi-tokusuru.com.",
 "schema_version": "1.2.0",
 "sample_count": 1000,
 "master_count": 62173,
 "shops": [
  {
   "rk_id": "rk_pub_00001",
   "name": "らーめん たべ亭",
   "name_en": "Ramen Tabetei",
   "pref": "三重県",
   "pref_en": "Mie",
   "city": "いなべ市",
   "city_en": "Inabe Shi",
   "lat": 35.150902,
   "lng": 136.510727,
   "keito": [],
   "genre": "ramen",
   "cash_only_flag": null,
   "payment_qr_accepted": null,
   "stationless_flag": null,
   "status": "active"
  },
  {
   "rk_id": "rk_pub_00002",
   "name": "ル・シノワ 花栞",
   "name_en": "Le Chinois Hana Shiori",
   "pref": "三重県",
   "pref_en": "Mie",
   "city": "伊勢市",
   "city_en": "Ise Shi",
   "lat": 34.507648,
   "lng": 136.780991,
   "keito": [],
   "genre": "ramen",
   "cash_only_flag": null,
   "payment_qr_accepted": null,
   "stationless_flag": null,
   "status": "active"
  },
  {
   "rk_id": "rk_pub_00003",
   "name": "台湾ラーメン盛華",
   "name_en": "Taiwan Ramen Seika",
   "pref": "三重県",
   "pref_en": "Mie",
   "city": "員弁郡東員町",
   "city_en": "Inabe Gun Toin Machi",
   "lat": 35.081764,
   "lng": 136.603973,
   "keito": [],
   "genre": "ramen",
   "cash_only_flag": null,
   "payment_qr_accepted": null,
   "stationless_flag": null,
   "status": "active"
  },
  {
   "rk_id": "rk_pub_00004",
   "name": "尾鷲しおラーメン モクモクしお学舎",
   "name_en": "Owase Shio Ramen Mokumoku Shio Gakusha",
   "pref": "三重県",
   "pref_en": "Mie",
   "city": "四日市",
   "city_en": "Yokkaichi",
   "lat": 34.967522,
   "lng": 136.619492,
   "keito": [],
   "genre": "ramen",
   "cash_only_flag": null,
   "payment_qr_accepted": null,
   "stationless_flag": null,
   "status": "active"
  },
  {
   "rk_id": "rk_pub_00005",
   "name": "麺屋あっ晴れ",
   "name_en": "Menya Appare",
   "pref": "三重県",
   "pref_en": "Mie",
   "city": "四日市",
   "city_en": "Yokkaichi",
   "lat": 35.00938,
   "lng": 136.658798,
   "keito": [],
   "genre": "ramen",
   "cash_only_flag": null,
   "payment_qr_accepted": null,
   "stationless_flag": null,
   "status": "active"
  },
  {
   "rk_id": "rk_pub_00006",
   "name": "おかげさん",
   "name_en": "Okagesan",
   "pref": "三重県",
   "pref_en": "Mie",
   "city": "松阪市",
   "city_en": "Matsusaka Shi",
   "lat": 34.491425,
   "lng": 136.441925,
   "keito": [],
   "genre": "ramen",
   "cash_only_flag": null,
   "payment_qr_accepted": null,
   "stationless_flag": null,
   "status": "active"
  },
  {
   "rk_id": "rk_pub_00007",
   "name": "摩天楼",
   "name_en": "Matenro",
   "pref": "三重県",
   "pref_en": "Mie",
   "city": "桑名市",
   "city_en": "Kuwana Shi",
   "lat": 35.072361,
   "lng": 136.62352,
   "keito": [],
   "genre": "ramen",
   "cash_only_flag": null,
   "payment_qr_accepted": null,
   "stationless_flag": null,
   "status": "active"
  },
  {
   "rk_id": "rk_pub_00008",
   "name": "ちりめん亭 津新町店",
   "name_en": "Chirimen Tei Tsu Shinmachi Ten",
   "pref": "三重県",
   "pref_en": "Mie",
   "city": "津市",
   "city_en": "Tsu Shi",
   "lat": 34.715336,
   "lng": 136.503815,
   "keito": [],
   "genre": "ramen",
   "cash_only_flag": null,
   "payment_qr_accepted": null,
   "stationless_flag": null,
   "status": "active"
  },
  {
   "rk_id": "rk_pub_00009",
   "name": "鈴鹿カンツリークラブ",
   "name_en": "Suzuka Country Club",
   "pref": "三重県",
   "pref_en": "Mie",
   "city": "津市",
   "city_en": "Tsu Shi",
   "lat": 34.830814,
   "lng": 136.400909,
   "keito": [],
   "genre": "ramen",
   "cash_only_flag": null,
   "payment_qr_accepted": null,
   "stationless_flag": null,
   "status": "active"
  },
  {
   "rk_id": "rk_pub_00010",
   "name": "餃子の王将 鈴鹿白子店",
   "name_en": "Gyoza No Osho Suzuka Shirako Ten",
   "pref": "三重県",
   "pref_en": "Mie",
   "city": "鈴鹿市",
   "city_en": "Suzuka Shi",
   "lat": 34.827644,
   "lng": 136.579132,
   "keito": [],
   "genre": "chinese",
   "cash_only_flag": null,
   "payment_qr_accepted": null,
   "stationless_flag": null,
   "status": "active"
  },
  {
   "rk_id": "rk_pub_00011",
   "name": "ラーメン 横綱 久御山店",
   "name_en": "Ramen Yokozuna Kumiyama Ten",
   "pref": "京都府",
   "pref_en": "Kyoto",
   "city": "久世郡久御山町",
   "city_en": "Kuze Gun Kumiyama Machi",
   "lat": 34.896637,
   "lng": 135.744171,
   "keito": [],
   "genre": "ramen",
   "cash_only_flag": null,
   "payment_qr_accepted": null,
   "stationless_flag": null,
   "status": "active"
  },
  {
   "rk_id": "rk_pub_00012",
   "name": "キラメキノトリ",
   "name_en": "Kiramekinotori",
   "pref": "京都府",
   "pref_en": "Kyoto",
   "city": "京都市上京区",
   "city_en": "Kyoto Shi Jokyo Ku",
   "lat": 35.01881,
   "lng": 135.769394,
   "keito": [],
   "genre": "ramen",
   "cash_only_flag": null,
   "payment_qr_accepted": null,
   "stationless_flag": null,
   "status": "active"
  },
  {
   "rk_id": "rk_pub_00013",
   "name": "麺匠たか松 四条店",
   "name_en": "Mensho Takamatsu Shijo Ten",
   "pref": "京都府",
   "pref_en": "Kyoto",
   "city": "京都市下京区",
   "city_en": "Kyoto Shi Shimogyo Ku",
   "lat": 35.003151,
   "lng": 135.761612,
   "keito": [],
   "genre": "ramen",
   "cash_only_flag": null,
   "payment_qr_accepted": null,
   "stationless_flag": null,
   "status": "active"
  },
  {
   "rk_id": "rk_pub_00014",
   "name": "すぎのこ亭",
   "name_en": "Suginokotei",
   "pref": "京都府",
   "pref_en": "Kyoto",
   "city": "京都市中京区",
   "city_en": "Kyoto Shi Chukyo Ku",
   "lat": 35.00885,
   "lng": 135.770859,
   "keito": [],
   "genre": "ramen",
   "cash_only_flag": null,
   "payment_qr_accepted": null,
   "stationless_flag": null,
   "status": "active"
  },
  {
   "rk_id": "rk_pub_00015",
   "name": "セアブラノ神 slurp",
   "name_en": "Seaburano Kami Slurp",
   "pref": "京都府",
   "pref_en": "Kyoto",
   "city": "京都市中京区",
   "city_en": "Kyoto Shi Chukyo Ku",
   "lat": 35.008389,
   "lng": 135.761856,
   "keito": [],
   "genre": "ramen",
   "cash_only_flag": null,
   "payment_qr_accepted": null,
   "stationless_flag": null,
   "status": "active"
  },
  {
   "rk_id": "rk_pub_00016",
   "name": "来来亭 新堀川店",
   "name_en": "Rairaitei",
   "pref": "京都府",
   "pref_en": "Kyoto",
   "city": "京都市伏見区",
   "city_en": "Kyoto Shi Fushimi Ku",
   "lat": 34.93195,
   "lng": 135.751602,
   "keito": [
    "shoyu"
   ],
   "genre": "ramen",
   "cash_only_flag": null,
   "payment_qr_accepted": null,
   "stationless_flag": null,
   "status": "active"
  },
  {
   "rk_id": "rk_pub_00017",
   "name": "麻婆豆腐専門店 からいもんや 伏見本店",
   "name_en": "Mabodofu Senmonten Karaimonya Fushimi Honten",
   "pref": "京都府",
   "pref_en": "Kyoto",
   "city": "京都市伏見区",
   "city_en": "Kyoto Shi Fushimi Ku",
   "lat": 34.927277,
   "lng": 135.740265,
   "keito": [],
   "genre": "ramen",
   "cash_only_flag": null,
   "payment_qr_accepted": null,
   "stationless_flag": null,
   "status": "active"
  },
  {
   "rk_id": "rk_pub_00018",
   "name": "たかばしラーメン 京都南インター店",
   "name_en": "Takabashi Ramen Kyoto Minami Inter Ten",
   "pref": "京都府",
   "pref_en": "Kyoto",
   "city": "京都市南区",
   "city_en": "Kyoto Shi Minami Ku",
   "lat": 34.956585,
   "lng": 135.745743,
   "keito": [],
   "genre": "ramen",
   "cash_only_flag": null,
   "payment_qr_accepted": null,
   "stationless_flag": null,
   "status": "active"
  },
  {
   "rk_id": "rk_pub_00019",
   "name": "喜らく",
   "name_en": "Kiraku",
   "pref": "京都府",
   "pref_en": "Kyoto",
   "city": "京都市右京区",
   "city_en": "Kyoto Shi Ukyo Ku",
   "lat": 35.015907,
   "lng": 135.708511,
   "keito": [],
   "genre": "ramen",
   "cash_only_flag": null,
   "payment_qr_accepted": null,
   "stationless_flag": null,
   "status": "active"
  },
  {
   "rk_id": "rk_pub_00020",
   "name": "イワサキタンメン",
   "name_en": "Iwasaki Tanmen",
   "pref": "京都府",
   "pref_en": "Kyoto",
   "city": "京都市山科区",
   "city_en": "Kyoto Shi Yamashina Ku",
   "lat": 34.962307,
   "lng": 135.813492,
   "keito": [],
   "genre": "ramen",
   "cash_only_flag": null,
   "payment_qr_accepted": null,
   "stationless_flag": null,
   "status": "active"
  },
  {
   "rk_id": "rk_pub_00021",
   "name": "総代麺家あくた川",
   "name_en": "Sodai Menya Akutagawa",
   "pref": "京都府",
   "pref_en": "Kyoto",
   "city": "京都市左京区",
   "city_en": "Kyoto Shi Sakyo Ku",
   "lat": 35.029804,
   "lng": 135.78093,
   "keito": [],
   "genre": "ramen",
   "cash_only_flag": null,
   "payment_qr_accepted": null,
   "stationless_flag": null,
   "status": "active"
  },
  {
   "rk_id": "rk_pub_00022",
   "name": "札幌ラーメン 柳",
   "name_en": "Sapporo Ramen Yanagi",
   "pref": "京都府",
   "pref_en": "Kyoto",
   "city": "京都市東山区",
   "city_en": "Kyoto Shi Higashiyama Ku",
   "lat": 34.988358,
   "lng": 135.769409,
   "keito": [
    "miso"
   ],
   "genre": "ramen",
   "cash_only_flag": null,
   "payment_qr_accepted": null,
   "stationless_flag": null,
   "status": "active"
  },
  {
   "rk_id": "rk_pub_00023",
   "name": "城陽飯店",
   "name_en": "Joyo Hanten",
   "pref": "京都府",
   "pref_en": "Kyoto",
   "city": "城陽市",
   "city_en": "Joyo Shi",
   "lat": 34.853123,
   "lng": 135.780823,
   "keito": [],
   "genre": "chinese",
   "cash_only_flag": null,
   "payment_qr_accepted": null,
   "stationless_flag": null,
   "status": "active"
  },
  {
   "rk_id": "rk_pub_00024",
   "name": "格別ヤ 福知山店",
   "name_en": "Kakubetsu Ya Fukuchiyama Ten",
   "pref": "京都府",
   "pref_en": "Kyoto",
   "city": "福知山市",
   "city_en": "Fukuchiyama Shi",
   "lat": 35.293701,
   "lng": 135.115479,
   "keito": [],
   "genre": "ramen",
   "cash_only_flag": null,
   "payment_qr_accepted": null,
   "stationless_flag": null,
   "status": "active"
  },
  {
   "rk_id": "rk_pub_00025",
   "name": "長浜ラーメン 喜樂屋",
   "name_en": "Nagahama Ramen Kirakuya",
   "pref": "佐賀県",
   "pref_en": "Saga",
   "city": "三養基郡みやき町",
   "city_en": "Miyaki Gun Miyaki Machi",
   "lat": 33.352402,
   "lng": 130.453552,
   "keito": [
    "tonkotsu"
   ],
   "genre": "ramen",
   "cash_only_flag": null,
   "payment_qr_accepted": null,
   "stationless_flag": null,
   "status": "active"
  },
  {
   "rk_id": "rk_pub_00026",
   "name": "井手ちゃんぽん 諸富店",
   "name_en": "Ide Chanpon Morotomi Ten",
   "pref": "佐賀県",
   "pref_en": "Saga",
   "city": "佐賀市",
   "city_en": "Saga Shi",
   "lat": 33.225124,
   "lng": 130.34407,
   "keito": [],
   "genre": "ramen",
   "cash_only_flag": null,
   "payment_qr_accepted": null,
   "stationless_flag": null,
   "status": "active"
  },
  {
   "rk_id": "rk_pub_00027",
   "name": "ラーメン 大将",
   "name_en": "Ramen Taisho",
   "pref": "佐賀県",
   "pref_en": "Saga",
   "city": "唐津市",
   "city_en": "Karatsu Shi",
   "lat": 33.442257,
   "lng": 129.970383,
   "keito": [],
   "genre": "ramen",
   "cash_only_flag": null,
   "payment_qr_accepted": null,
   "stationless_flag": null,
   "status": "active"
  },
  {
   "rk_id": "rk_pub_00028",
   "name": "元祖 豚骨一丁 有明店",
   "name_en": "Ganso Tonkotsu Itcho Ariake Ten",
   "pref": "佐賀県",
   "pref_en": "Saga",
   "city": "杵島郡白石町",
   "city_en": "Kine Shima Gun Shiroishi Machi",
   "lat": 33.148365,
   "lng": 130.12738,
   "keito": [
    "tonkotsu"
   ],
   "genre": "ramen",
   "cash_only_flag": null,
   "payment_qr_accepted": null,
   "stationless_flag": null,
   "status": "active"
  },
  {
   "rk_id": "rk_pub_00029",
   "name": "夢を語れ 鳥栖総本店",
   "name_en": "Yume Wo Katare Tosu Sohonten",
   "pref": "佐賀県",
   "pref_en": "Saga",
   "city": "鳥栖市",
   "city_en": "Tosu Shi",
   "lat": 33.391537,
   "lng": 130.516525,
   "keito": [],
   "genre": "ramen",
   "cash_only_flag": null,
   "payment_qr_accepted": null,
   "stationless_flag": null,
   "status": "active"
  },
  {
   "rk_id": "rk_pub_00030",
   "name": "ラーメンさくらまる 三田店",
   "name_en": "Ramen Sakuramaru Mita Ten",
   "pref": "兵庫県",
   "pref_en": "Hyogo",
   "city": "三田市",
   "city_en": "Mita Shi",
   "lat": 34.882908,
   "lng": 135.219452,
   "keito": [],
   "genre": "ramen",
   "cash_only_flag": null,
   "payment_qr_accepted": null,
   "stationless_flag": null,
   "status": "active"
  },
  {
   "rk_id": "rk_pub_00031",
   "name": "春",
   "name_en": "Haru",
   "pref": "兵庫県",
   "pref_en": "Hyogo",
   "city": "佐用郡佐用町",
   "city_en": "Sayo Gun Sayo Machi",
   "lat": 34.979725,
   "lng": 134.41188,
   "keito": [],
   "genre": "ramen",
   "cash_only_flag": null,
   "payment_qr_accepted": null,
   "stationless_flag": null,
   "status": "active"
  },
  {
   "rk_id": "rk_pub_00032",
   "name": "なやんでもここ 加古川店",
   "name_en": "Nayandemokoko Kakogawa Ten",
   "pref": "兵庫県",
   "pref_en": "Hyogo",
   "city": "加古川市",
   "city_en": "Kakogawa Shi",
   "lat": 34.743053,
   "lng": 134.859558,
   "keito": [],
   "genre": "ramen",
   "cash_only_flag": null,
   "payment_qr_accepted": null,
   "stationless_flag": null,
   "status": "active"
  },
  {
   "rk_id": "rk_pub_00033",
   "name": "英洋軒",
   "name_en": "Eiyoken",
   "pref": "兵庫県",
   "pref_en": "Hyogo",
   "city": "姫路市",
   "city_en": "Himeji Shi",
   "lat": 34.855225,
   "lng": 134.644241,
   "keito": [],
   "genre": "ramen",
   "cash_only_flag": null,
   "payment_qr_accepted": null,
   "stationless_flag": null,
   "status": "active"
  },
  {
   "rk_id": "rk_pub_00034",
   "name": "らーめん うぉんちゅ",
   "name_en": "Ramen Uonchu",
   "pref": "兵庫県",
   "pref_en": "Hyogo",
   "city": "姫路市",
   "city_en": "Himeji Shi",
   "lat": 34.647701,
   "lng": 134.507431,
   "keito": [],
   "genre": "ramen",
   "cash_only_flag": null,
   "payment_qr_accepted": null,
   "stationless_flag": null,
   "status": "active"
  },
  {
   "rk_id": "rk_pub_00035",
   "name": "らー麺 愚かものであれ",
   "name_en": "Ra Men Orokamono de Are",
   "pref": "兵庫県",
   "pref_en": "Hyogo",
   "city": "姫路市飾磨区",
   "city_en": "Himeji Shi Shikama Ku",
   "lat": 34.806461,
   "lng": 134.66127,
   "keito": [],
   "genre": "ramen",
   "cash_only_flag": null,
   "payment_qr_accepted": null,
   "stationless_flag": null,
   "status": "active"
  },
  {
   "rk_id": "rk_pub_00036",
   "name": "大貫 支店",
   "name_en": "Onuki Shiten",
   "pref": "兵庫県",
   "pref_en": "Hyogo",
   "city": "尼崎市",
   "city_en": "Amagasaki Shi",
   "lat": 34.720604,
   "lng": 135.413147,
   "keito": [],
   "genre": "ramen",
   "cash_only_flag": null,
   "payment_qr_accepted": null,
   "stationless_flag": null,
   "status": "active"
  },
  {
   "rk_id": "rk_pub_00037",
   "name": "つけ麺 青木",
   "name_en": "Tsukemen Aoki",
   "pref": "兵庫県",
   "pref_en": "Hyogo",
   "city": "尼崎市",
   "city_en": "Amagasaki Shi",
   "lat": 34.744965,
   "lng": 135.387421,
   "keito": [
    "tsukemen"
   ],
   "genre": "ramen",
   "cash_only_flag": null,
   "payment_qr_accepted": null,
   "stationless_flag": null,
   "status": "active"
  },
  {
   "rk_id": "rk_pub_00038",
   "name": "mendokoro ICHI",
   "name_en": "mendokoro ICHI",
   "pref": "兵庫県",
   "pref_en": "Hyogo",
   "city": "明石市",
   "city_en": "Akashi Shi",
   "lat": 34.648502,
   "lng": 134.989349,
   "keito": [],
   "genre": "ramen",
   "cash_only_flag": null,
   "payment_qr_accepted": null,
   "stationless_flag": null,
   "status": "active"
  },
  {
   "rk_id": "rk_pub_00039",
   "name": "淡波家",
   "name_en": "Awanamiya",
   "pref": "兵庫県",
   "pref_en": "Hyogo",
   "city": "淡路市",
   "city_en": "Awaji Shi",
   "lat": 34.524738,
   "lng": 134.887817,
   "keito": [
    "tonkotsu"
   ],
   "genre": "ramen",
   "cash_only_flag": null,
   "payment_qr_accepted": null,
   "stationless_flag": null,
   "status": "active"
  },
  {
   "rk_id": "rk_pub_00040",
   "name": "丸萬",
   "name_en": "Maruman",
   "pref": "兵庫県",
   "pref_en": "Hyogo",
   "city": "神戸市中央区",
   "city_en": "Kobe Shi Chuo Ku",
   "lat": 34.690594,
   "lng": 135.19101,
   "keito": [],
   "genre": "ramen",
   "cash_only_flag": null,
   "payment_qr_accepted": null,
   "stationless_flag": null,
   "status": "active"
  },
  {
   "rk_id": "rk_pub_00041",
   "name": "群愛茶餐廳",
   "name_en": "Gun'ai Chasanteng",
   "pref": "兵庫県",
   "pref_en": "Hyogo",
   "city": "神戸市中央区",
   "city_en": "Kobe Shi Chuo Ku",
   "lat": 34.687466,
   "lng": 135.187119,
   "keito": [],
   "genre": "ramen",
   "cash_only_flag": null,
   "payment_qr_accepted": null,
   "stationless_flag": null,
   "status": "active"
  },
  {
   "rk_id": "rk_pub_00042",
   "name": "油そば きりん寺 元町店",
   "name_en": "Abura Soba Kirinji Motomachi Ten",
   "pref": "兵庫県",
   "pref_en": "Hyogo",
   "city": "神戸市中央区",
   "city_en": "Kobe Shi Chuo Ku",
   "lat": 34.689255,
   "lng": 135.18924,
   "keito": [
    "other"
   ],
   "genre": "ramen",
   "cash_only_flag": null,
   "payment_qr_accepted": null,
   "stationless_flag": null,
   "status": "active"
  },
  {
   "rk_id": "rk_pub_00043",
   "name": "札幌ラーメン キヨリト",
   "name_en": "Sapporo Ramen Kiyorito",
   "pref": "兵庫県",
   "pref_en": "Hyogo",
   "city": "神戸市中央区",
   "city_en": "Kobe Shi Chuo Ku",
   "lat": 34.696144,
   "lng": 135.191849,
   "keito": [
    "miso"
   ],
   "genre": "ramen",
   "cash_only_flag": null,
   "payment_qr_accepted": null,
   "stationless_flag": null,
   "status": "active"
  },
  {
   "rk_id": "rk_pub_00044",
   "name": "どうとんぼり神座 イオンモール神戸南店",
   "name_en": "Dotonbori Kamukura",
   "pref": "兵庫県",
   "pref_en": "Hyogo",
   "city": "神戸市兵庫区",
   "city_en": "Kobe Shi Hyogo Ku",
   "lat": 34.665367,
   "lng": 135.174438,
   "keito": [],
   "genre": "ramen",
   "cash_only_flag": false,
   "payment_qr_accepted": null,
   "stationless_flag": null,
   "status": "active"
  },
  {
   "rk_id": "rk_pub_00045",
   "name": "大連",
   "name_en": "Dairen",
   "pref": "兵庫県",
   "pref_en": "Hyogo",
   "city": "神戸市東灘区",
   "city_en": "Kobe Shi Higashinada Ku",
   "lat": 34.7276,
   "lng": 135.278976,
   "keito": [],
   "genre": "ramen",
   "cash_only_flag": null,
   "payment_qr_accepted": null,
   "stationless_flag": null,
   "status": "active"
  },
  {
   "rk_id": "rk_pub_00046",
   "name": "鶏白湯ラーメン MUTSUKI",
   "name_en": "Tori Paitan Ramen Mutsuki",
   "pref": "兵庫県",
   "pref_en": "Hyogo",
   "city": "神戸市灘区",
   "city_en": "Kobe Shi Nada Ku",
   "lat": 34.714642,
   "lng": 135.236816,
   "keito": [],
   "genre": "ramen",
   "cash_only_flag": null,
   "payment_qr_accepted": null,
   "stationless_flag": null,
   "status": "active"
  },
  {
   "rk_id": "rk_pub_00047",
   "name": "もっこす 高速長田店",
   "name_en": "Mokkosu Kosoku Nagata Ten",
   "pref": "兵庫県",
   "pref_en": "Hyogo",
   "city": "神戸市長田区",
   "city_en": "Kobe Shi Nagata Ku",
   "lat": 34.66721,
   "lng": 135.152527,
   "keito": [],
   "genre": "ramen",
   "cash_only_flag": null,
   "payment_qr_accepted": null,
   "stationless_flag": null,
   "status": "active"
  },
  {
   "rk_id": "rk_pub_00048",
   "name": "五福飯店",
   "name_en": "Gofuku Hanten",
   "pref": "兵庫県",
   "pref_en": "Hyogo",
   "city": "芦屋市",
   "city_en": "Ashiya Shi",
   "lat": 34.735424,
   "lng": 135.307632,
   "keito": [],
   "genre": "chinese",
   "cash_only_flag": null,
   "payment_qr_accepted": null,
   "stationless_flag": null,
   "status": "active"
  },
  {
   "rk_id": "rk_pub_00049",
   "name": "和みらーめん",
   "name_en": "Nagomi Ramen",
   "pref": "兵庫県",
   "pref_en": "Hyogo",
   "city": "西宮市",
   "city_en": "Nishinomiya Shi",
   "lat": 34.736591,
   "lng": 135.372925,
   "keito": [],
   "genre": "ramen",
   "cash_only_flag": null,
   "payment_qr_accepted": null,
   "stationless_flag": null,
   "status": "active"
  },
  {
   "rk_id": "rk_pub_00050",
   "name": "油そば 六観 豊岡店",
   "name_en": "Abura Soba Rokukan Toyooka Ten",
   "pref": "兵庫県",
   "pref_en": "Hyogo",
   "city": "豊岡市",
   "city_en": "Toyoka Shi",
   "lat": 35.547783,
   "lng": 134.821487,
   "keito": [
    "other"
   ],
   "genre": "ramen",
   "cash_only_flag": null,
   "payment_qr_accepted": null,
   "stationless_flag": null,
   "status": "active"
  },
  {
   "rk_id": "rk_pub_00051",
   "name": "食事処たかはし",
   "name_en": "Shokujidokoro Takahashi",
   "pref": "北海道",
   "pref_en": "Hokkaido",
   "city": "上川郡当麻町",
   "city_en": "Kamikawa Gun Toma Machi",
   "lat": 43.824791,
   "lng": 142.515442,
   "keito": [],
   "genre": "ramen",
   "cash_only_flag": null,
   "payment_qr_accepted": null,
   "stationless_flag": null,
   "status": "active"
  },
  {
   "rk_id": "rk_pub_00052",
   "name": "ラーメン居酒屋 縁",
   "name_en": "Ramen Izakaya En",
   "pref": "北海道",
   "pref_en": "Hokkaido",
   "city": "二海郡八雲町",
   "city_en": "Futami Gun Yakumo Machi",
   "lat": 42.254112,
   "lng": 140.274292,
   "keito": [],
   "genre": "ramen",
   "cash_only_flag": null,
   "payment_qr_accepted": null,
   "stationless_flag": null,
   "status": "active"
  },
  {
   "rk_id": "rk_pub_00053",
   "name": "蔵",
   "name_en": "Kura",
   "pref": "北海道",
   "pref_en": "Hokkaido",
   "city": "函館市",
   "city_en": "Hakodate Shi",
   "lat": 41.789894,
   "lng": 140.77626,
   "keito": [],
   "genre": "ramen",
   "cash_only_flag": null,
   "payment_qr_accepted": null,
   "stationless_flag": null,
   "status": "active"
  },
  {
   "rk_id": "rk_pub_00054",
   "name": "松よし",
   "name_en": "Matsu Yoshi",
   "pref": "北海道",
   "pref_en": "Hokkaido",
   "city": "函館市",
   "city_en": "Hakodate Shi",
   "lat": 41.812347,
   "lng": 140.735458,
   "keito": [],
   "genre": "ramen",
   "cash_only_flag": null,
   "payment_qr_accepted": null,
   "stationless_flag": null,
   "status": "active"
  },
  {
   "rk_id": "rk_pub_00055",
   "name": "麺家 美豚",
   "name_en": "Menya Biton",
   "pref": "北海道",
   "pref_en": "Hokkaido",
   "city": "函館市",
   "city_en": "Hakodate Shi",
   "lat": 41.774796,
   "lng": 140.731567,
   "keito": [],
   "genre": "ramen",
   "cash_only_flag": null,
   "payment_qr_accepted": null,
   "stationless_flag": null,
   "status": "active"
  },
  {
   "rk_id": "rk_pub_00056",
   "name": "北斗武蔵",
   "name_en": "Hokuto Musashi",
   "pref": "北海道",
   "pref_en": "Hokkaido",
   "city": "北斗市",
   "city_en": "Hokuto Shi",
   "lat": 41.886597,
   "lng": 140.647461,
   "keito": [],
   "genre": "ramen",
   "cash_only_flag": null,
   "payment_qr_accepted": null,
   "stationless_flag": null,
   "status": "active"
  },
  {
   "rk_id": "rk_pub_00057",
   "name": "ラーメンだるまや 三輪店",
   "name_en": "Ramen Darumaya Miwa Ten",
   "pref": "北海道",
   "pref_en": "Hokkaido",
   "city": "北見市",
   "city_en": "Kitami Shi",
   "lat": 43.798576,
   "lng": 143.845108,
   "keito": [],
   "genre": "ramen",
   "cash_only_flag": null,
   "payment_qr_accepted": null,
   "stationless_flag": null,
   "status": "active"
  },
  {
   "rk_id": "rk_pub_00058",
   "name": "とん吉家",
   "name_en": "Tonkichiya",
   "pref": "北海道",
   "pref_en": "Hokkaido",
   "city": "千歳市",
   "city_en": "Chitose Shi",
   "lat": 42.815308,
   "lng": 141.584579,
   "keito": [
    "tonkotsu"
   ],
   "genre": "ramen",
   "cash_only_flag": null,
   "payment_qr_accepted": null,
   "stationless_flag": null,
   "status": "active"
  },
  {
   "rk_id": "rk_pub_00059",
   "name": "エース",
   "name_en": "Ace",
   "pref": "北海道",
   "pref_en": "Hokkaido",
   "city": "夕張郡長沼町",
   "city_en": "Yubari Gun Naganumamachi",
   "lat": 43.007648,
   "lng": 141.698105,
   "keito": [],
   "genre": "ramen",
   "cash_only_flag": null,
   "payment_qr_accepted": null,
   "stationless_flag": null,
   "status": "active"
  },
  {
   "rk_id": "rk_pub_00060",
   "name": "南陽の丘 しら樺",
   "name_en": "Nanyo No Oka Shirakaba",
   "pref": "北海道",
   "pref_en": "Hokkaido",
   "city": "富良野市",
   "city_en": "Furano Shi",
   "lat": 43.213531,
   "lng": 142.377182,
   "keito": [],
   "genre": "ramen",
   "cash_only_flag": null,
   "payment_qr_accepted": null,
   "stationless_flag": null,
   "status": "active"
  },
  {
   "rk_id": "rk_pub_00061",
   "name": "小樽らーめん雅樂UTA",
   "name_en": "Otaru Ramen Gagaku Uta",
   "pref": "北海道",
   "pref_en": "Hokkaido",
   "city": "小樽市",
   "city_en": "Otaru Shi",
   "lat": 43.194885,
   "lng": 140.99826,
   "keito": [],
   "genre": "ramen",
   "cash_only_flag": null,
   "payment_qr_accepted": null,
   "stationless_flag": null,
   "status": "active"
  },
  {
   "rk_id": "rk_pub_00062",
   "name": "北京亭",
   "name_en": "Pekintei",
   "pref": "北海道",
   "pref_en": "Hokkaido",
   "city": "帯広市",
   "city_en": "Obihiro Shi",
   "lat": 42.914829,
   "lng": 143.210861,
   "keito": [],
   "genre": "ramen",
   "cash_only_flag": null,
   "payment_qr_accepted": null,
   "stationless_flag": null,
   "status": "active"
  },
  {
   "rk_id": "rk_pub_00063",
   "name": "ぶたどん処 ぶた屋",
   "name_en": "Butadon Tokoro Butaya",
   "pref": "北海道",
   "pref_en": "Hokkaido",
   "city": "帯広市",
   "city_en": "Obihiro Shi",
   "lat": 42.924812,
   "lng": 143.123383,
   "keito": [],
   "genre": "ramen",
   "cash_only_flag": null,
   "payment_qr_accepted": null,
   "stationless_flag": null,
   "status": "active"
  },
  {
   "rk_id": "rk_pub_00064",
   "name": "えりも岬観光センター",
   "name_en": "Erimo Misaki Kanko Center",
   "pref": "北海道",
   "pref_en": "Hokkaido",
   "city": "幌泉郡えりも町",
   "city_en": "Horoizumi Gun Erimo Machi",
   "lat": 41.974625,
   "lng": 143.226715,
   "keito": [],
   "genre": "ramen",
   "cash_only_flag": null,
   "payment_qr_accepted": null,
   "stationless_flag": null,
   "status": "active"
  },
  {
   "rk_id": "rk_pub_00065",
   "name": "橙ヤ 本店",
   "name_en": "Daidai Ya Honten",
   "pref": "北海道",
   "pref_en": "Hokkaido",
   "city": "旭川市",
   "city_en": "Asahikawa Shi",
   "lat": 43.771107,
   "lng": 142.424179,
   "keito": [],
   "genre": "ramen",
   "cash_only_flag": null,
   "payment_qr_accepted": null,
   "stationless_flag": null,
   "status": "active"
  },
  {
   "rk_id": "rk_pub_00066",
   "name": "風連ラーメン",
   "name_en": "Furen Ramen",
   "pref": "北海道",
   "pref_en": "Hokkaido",
   "city": "旭川市",
   "city_en": "Asahikawa Shi",
   "lat": 43.773773,
   "lng": 142.362762,
   "keito": [],
   "genre": "ramen",
   "cash_only_flag": null,
   "payment_qr_accepted": null,
   "stationless_flag": null,
   "status": "active"
  },
  {
   "rk_id": "rk_pub_00067",
   "name": "翼食堂",
   "name_en": "Tsubasa Shokudo",
   "pref": "北海道",
   "pref_en": "Hokkaido",
   "city": "旭川市",
   "city_en": "Asahikawa Shi",
   "lat": 43.741467,
   "lng": 142.372467,
   "keito": [],
   "genre": "ramen",
   "cash_only_flag": null,
   "payment_qr_accepted": null,
   "stationless_flag": null,
   "status": "active"
  },
  {
   "rk_id": "rk_pub_00068",
   "name": "旭川大雪アリーナ食堂",
   "name_en": "Asahikawa Taisetsu Arena Shokudo",
   "pref": "北海道",
   "pref_en": "Hokkaido",
   "city": "旭川市",
   "city_en": "Asahikawa Shi",
   "lat": 43.757969,
   "lng": 142.349915,
   "keito": [],
   "genre": "ramen",
   "cash_only_flag": null,
   "payment_qr_accepted": null,
   "stationless_flag": null,
   "status": "active"
  },
  {
   "rk_id": "rk_pub_00069",
   "name": "麺屋 龍家",
   "name_en": "Menya Ryuya",
   "pref": "北海道",
   "pref_en": "Hokkaido",
   "city": "旭川市",
   "city_en": "Asahikawa Shi",
   "lat": 43.792549,
   "lng": 142.39566,
   "keito": [
    "tonkotsu"
   ],
   "genre": "ramen",
   "cash_only_flag": null,
   "payment_qr_accepted": null,
   "stationless_flag": null,
   "status": "active"
  },
  {
   "rk_id": "rk_pub_00070",
   "name": "吉山商店 創成橋店",
   "name_en": "Yoshiyama Shoten Soseibashi Ten",
   "pref": "北海道",
   "pref_en": "Hokkaido",
   "city": "札幌市中央区",
   "city_en": "Sapporo Shi Chuo Ku",
   "lat": 43.060478,
   "lng": 141.358704,
   "keito": [],
   "genre": "ramen",
   "cash_only_flag": null,
   "payment_qr_accepted": null,
   "stationless_flag": null,
   "status": "active"
  },
  {
   "rk_id": "rk_pub_00071",
   "name": "麺飯厨房 北海 すすきの店",
   "name_en": "Men Meshi Chubo Hokkai Susukino Ten",
   "pref": "北海道",
   "pref_en": "Hokkaido",
   "city": "札幌市中央区",
   "city_en": "Sapporo Shi Chuo Ku",
   "lat": 43.05405,
   "lng": 141.352951,
   "keito": [],
   "genre": "ramen",
   "cash_only_flag": null,
   "payment_qr_accepted": null,
   "stationless_flag": null,
   "status": "active"
  },
  {
   "rk_id": "rk_pub_00072",
   "name": "海らふ家",
   "name_en": "Umirafuya",
   "pref": "北海道",
   "pref_en": "Hokkaido",
   "city": "札幌市中央区",
   "city_en": "Sapporo Shi Chuo Ku",
   "lat": 43.059185,
   "lng": 141.358231,
   "keito": [
    "tonkotsu"
   ],
   "genre": "ramen",
   "cash_only_flag": null,
   "payment_qr_accepted": null,
   "stationless_flag": null,
   "status": "active"
  },
  {
   "rk_id": "rk_pub_00073",
   "name": "麺Style三嶋",
   "name_en": "Men Style Mishima",
   "pref": "北海道",
   "pref_en": "Hokkaido",
   "city": "札幌市中央区",
   "city_en": "Sapporo Shi Chuo Ku",
   "lat": 43.064537,
   "lng": 141.345428,
   "keito": [],
   "genre": "ramen",
   "cash_only_flag": null,
   "payment_qr_accepted": null,
   "stationless_flag": null,
   "status": "active"
  },
  {
   "rk_id": "rk_pub_00074",
   "name": "中華そば すすきの軒",
   "name_en": "Chuka Soba Susukinoken",
   "pref": "北海道",
   "pref_en": "Hokkaido",
   "city": "札幌市中央区",
   "city_en": "Sapporo Shi Chuo Ku",
   "lat": 43.053875,
   "lng": 141.349716,
   "keito": [
    "shoyu"
   ],
   "genre": "ramen",
   "cash_only_flag": null,
   "payment_qr_accepted": null,
   "stationless_flag": null,
   "status": "active"
  },
  {
   "rk_id": "rk_pub_00075",
   "name": "暖龍 新琴似店",
   "name_en": "Danryu Shinkotoni Ten",
   "pref": "北海道",
   "pref_en": "Hokkaido",
   "city": "札幌市北区",
   "city_en": "Sapporo Shi Kita Ku",
   "lat": 43.115387,
   "lng": 141.326462,
   "keito": [],
   "genre": "ramen",
   "cash_only_flag": null,
   "payment_qr_accepted": null,
   "stationless_flag": null,
   "status": "active"
  },
  {
   "rk_id": "rk_pub_00076",
   "name": "ラーメン山岡家 藤野店",
   "name_en": "Ramen Yamaokaya Fujino Ten",
   "pref": "北海道",
   "pref_en": "Hokkaido",
   "city": "札幌市南区",
   "city_en": "Sapporo Shi Minami Ku",
   "lat": 42.963058,
   "lng": 141.273727,
   "keito": [
    "tonkotsu"
   ],
   "genre": "ramen",
   "cash_only_flag": false,
   "payment_qr_accepted": null,
   "stationless_flag": null,
   "status": "active"
  },
  {
   "rk_id": "rk_pub_00077",
   "name": "まかない厨房 双葉",
   "name_en": "Makanai Chubo Futaba",
   "pref": "北海道",
   "pref_en": "Hokkaido",
   "city": "札幌市厚別区",
   "city_en": "Sapporo Shi Atsubetsu Ku",
   "lat": 43.018265,
   "lng": 141.473969,
   "keito": [],
   "genre": "ramen",
   "cash_only_flag": null,
   "payment_qr_accepted": null,
   "stationless_flag": null,
   "status": "active"
  },
  {
   "rk_id": "rk_pub_00078",
   "name": "ラーメン・カフェ マルタケ",
   "name_en": "Ramen Cafe Marutake",
   "pref": "北海道",
   "pref_en": "Hokkaido",
   "city": "札幌市手稲区",
   "city_en": "Sapporo Shi Teine Ku",
   "lat": 43.118179,
   "lng": 141.269379,
   "keito": [],
   "genre": "ramen",
   "cash_only_flag": null,
   "payment_qr_accepted": null,
   "stationless_flag": null,
   "status": "active"
  },
  {
   "rk_id": "rk_pub_00079",
   "name": "らーめん小屋 歩",
   "name_en": "Ramen Koya Ayumu",
   "pref": "北海道",
   "pref_en": "Hokkaido",
   "city": "札幌市東区",
   "city_en": "Sapporo Shi Higashi Ku",
   "lat": 43.099506,
   "lng": 141.402786,
   "keito": [],
   "genre": "ramen",
   "cash_only_flag": null,
   "payment_qr_accepted": null,
   "stationless_flag": null,
   "status": "active"
  },
  {
   "rk_id": "rk_pub_00080",
   "name": "麺処 花丸",
   "name_en": "Mendokoro Hanamaru",
   "pref": "北海道",
   "pref_en": "Hokkaido",
   "city": "札幌市清田区",
   "city_en": "Sapporo Shi Kiyoda Ku",
   "lat": 42.977215,
   "lng": 141.460663,
   "keito": [],
   "genre": "ramen",
   "cash_only_flag": null,
   "payment_qr_accepted": null,
   "stationless_flag": null,
   "status": "active"
  },
  {
   "rk_id": "rk_pub_00081",
   "name": "ラーメン大将 菊水元町店",
   "name_en": "Ramen Taisho Kikusui Motomachi Ten",
   "pref": "北海道",
   "pref_en": "Hokkaido",
   "city": "札幌市白石区",
   "city_en": "Sapporo Shi Shiroishi Ku",
   "lat": 43.073307,
   "lng": 141.409882,
   "keito": [],
   "genre": "ramen",
   "cash_only_flag": null,
   "payment_qr_accepted": null,
   "stationless_flag": null,
   "status": "active"
  },
  {
   "rk_id": "rk_pub_00082",
   "name": "横濱家系ラーメン かしわ家",
   "name_en": "Yokohama Iekei Ramen Kashiwaya",
   "pref": "北海道",
   "pref_en": "Hokkaido",
   "city": "札幌市白石区",
   "city_en": "Sapporo Shi Shiroishi Ku",
   "lat": 43.034531,
   "lng": 141.423172,
   "keito": [
    "tonkotsu"
   ],
   "genre": "ramen",
   "cash_only_flag": false,
   "payment_qr_accepted": null,
   "stationless_flag": null,
   "status": "active"
  },
  {
   "rk_id": "rk_pub_00083",
   "name": "ど豚骨らぁめん 雪家 豚兵衛 宮の沢店",
   "name_en": "Do Tonkotsu Ramen Yukiya Butabee Miyanosawa Ten",
   "pref": "北海道",
   "pref_en": "Hokkaido",
   "city": "札幌市西区",
   "city_en": "Sapporo Shi Nishi Ku",
   "lat": 43.09293,
   "lng": 141.264923,
   "keito": [
    "tonkotsu"
   ],
   "genre": "ramen",
   "cash_only_flag": null,
   "payment_qr_accepted": null,
   "stationless_flag": null,
   "status": "active"
  },
  {
   "rk_id": "rk_pub_00084",
   "name": "こくしお専門店 さんげつ",
   "name_en": "Kokushio Senmonten Sangetsu",
   "pref": "北海道",
   "pref_en": "Hokkaido",
   "city": "札幌市豊平区",
   "city_en": "Sapporo Shi Toyohira Ku",
   "lat": 43.022442,
   "lng": 141.423828,
   "keito": [],
   "genre": "ramen",
   "cash_only_flag": null,
   "payment_qr_accepted": null,
   "stationless_flag": null,
   "status": "active"
  },
  {
   "rk_id": "rk_pub_00085",
   "name": "Kitchen 宮夜",
   "name_en": "Kitchen Miyaya",
   "pref": "北海道",
   "pref_en": "Hokkaido",
   "city": "枝幸郡枝幸町",
   "city_en": "Esashi Gun Esashi Machi",
   "lat": 44.938763,
   "lng": 142.584091,
   "keito": [],
   "genre": "ramen",
   "cash_only_flag": null,
   "payment_qr_accepted": null,
   "stationless_flag": null,
   "status": "active"
  },
  {
   "rk_id": "rk_pub_00086",
   "name": "ラーメンの松喜",
   "name_en": "Ramen no Matsuki",
   "pref": "北海道",
   "pref_en": "Hokkaido",
   "city": "江別市",
   "city_en": "Ebetsu Shi",
   "lat": 43.110001,
   "lng": 141.507462,
   "keito": [],
   "genre": "ramen",
   "cash_only_flag": null,
   "payment_qr_accepted": null,
   "stationless_flag": null,
   "status": "active"
  },
  {
   "rk_id": "rk_pub_00087",
   "name": "ラーメン まさご",
   "name_en": "Ramen Masago",
   "pref": "北海道",
   "pref_en": "Hokkaido",
   "city": "浦河郡浦河町",
   "city_en": "Urakawa Gun Urakawa Machi",
   "lat": 42.176785,
   "lng": 142.760681,
   "keito": [],
   "genre": "ramen",
   "cash_only_flag": null,
   "payment_qr_accepted": null,
   "stationless_flag": null,
   "status": "active"
  },
  {
   "rk_id": "rk_pub_00088",
   "name": "味の大王",
   "name_en": "Aji No Daio",
   "pref": "北海道",
   "pref_en": "Hokkaido",
   "city": "登別市",
   "city_en": "Noboribetsu Shi",
   "lat": 42.492413,
   "lng": 141.143417,
   "keito": [],
   "genre": "ramen",
   "cash_only_flag": null,
   "payment_qr_accepted": null,
   "stationless_flag": null,
   "status": "active"
  },
  {
   "rk_id": "rk_pub_00089",
   "name": "らぁめん道中膝栗毛",
   "name_en": "Ramen Dochu Hizakurige",
   "pref": "北海道",
   "pref_en": "Hokkaido",
   "city": "石狩市",
   "city_en": "Ishikari Shi",
   "lat": 43.159218,
   "lng": 141.334625,
   "keito": [],
   "genre": "ramen",
   "cash_only_flag": null,
   "payment_qr_accepted": null,
   "stationless_flag": null,
   "status": "active"
  },
  {
   "rk_id": "rk_pub_00090",
   "name": "レストラン泉",
   "name_en": "Restaurant Izumi",
   "pref": "北海道",
   "pref_en": "Hokkaido",
   "city": "稚内市",
   "city_en": "Wakkanai Shi",
   "lat": 45.398376,
   "lng": 141.685776,
   "keito": [],
   "genre": "ramen",
   "cash_only_flag": null,
   "payment_qr_accepted": null,
   "stationless_flag": null,
   "status": "active"
  },
  {
   "rk_id": "rk_pub_00091",
   "name": "かねしめ食堂",
   "name_en": "Kaneshime Shokudo",
   "pref": "北海道",
   "pref_en": "Hokkaido",
   "city": "紋別郡遠軽町",
   "city_en": "Monbetsu Gun Enkaru Machi",
   "lat": 44.065498,
   "lng": 143.52803,
   "keito": [],
   "genre": "ramen",
   "cash_only_flag": null,
   "payment_qr_accepted": null,
   "stationless_flag": null,
   "status": "active"
  },
  {
   "rk_id": "rk_pub_00092",
   "name": "大衆食堂 なかちゃん食堂",
   "name_en": "Taishushokudo Nakachan Shokudo",
   "pref": "北海道",
   "pref_en": "Hokkaido",
   "city": "芦別市",
   "city_en": "Ashi Betsu Shi",
   "lat": 43.516979,
   "lng": 142.185486,
   "keito": [],
   "genre": "ramen",
   "cash_only_flag": null,
   "payment_qr_accepted": null,
   "stationless_flag": null,
   "status": "active"
  },
  {
   "rk_id": "rk_pub_00093",
   "name": "食事の店 ふじの ときわ店",
   "name_en": "Shokuji No Mise Fujino Tokiwa Ten",
   "pref": "北海道",
   "pref_en": "Hokkaido",
   "city": "苫小牧市",
   "city_en": "Tomakomai Shi",
   "lat": 42.617828,
   "lng": 141.516739,
   "keito": [],
   "genre": "ramen",
   "cash_only_flag": null,
   "payment_qr_accepted": null,
   "stationless_flag": null,
   "status": "active"
  },
  {
   "rk_id": "rk_pub_00094",
   "name": "こだわり麺人 東光亭",
   "name_en": "Kodawari Menjin Tokotei",
   "pref": "北海道",
   "pref_en": "Hokkaido",
   "city": "茅部郡森町",
   "city_en": "Kayabe Gun Moricho",
   "lat": 42.108387,
   "lng": 140.571854,
   "keito": [],
   "genre": "ramen",
   "cash_only_flag": null,
   "payment_qr_accepted": null,
   "stationless_flag": null,
   "status": "active"
  },
  {
   "rk_id": "rk_pub_00095",
   "name": "食堂 山びこ",
   "name_en": "Shokudo Yamabiko",
   "pref": "北海道",
   "pref_en": "Hokkaido",
   "city": "虻田郡真狩村",
   "city_en": "Abuta Gun Makkari Mura",
   "lat": 42.756535,
   "lng": 140.826828,
   "keito": [],
   "genre": "ramen",
   "cash_only_flag": null,
   "payment_qr_accepted": null,
   "stationless_flag": null,
   "status": "active"
  },
  {
   "rk_id": "rk_pub_00096",
   "name": "きさら",
   "name_en": "Kisara",
   "pref": "北海道",
   "pref_en": "Hokkaido",
   "city": "釧路市",
   "city_en": "Kushiro Shi",
   "lat": 43.01017,
   "lng": 144.396332,
   "keito": [],
   "genre": "ramen",
   "cash_only_flag": null,
   "payment_qr_accepted": null,
   "stationless_flag": null,
   "status": "active"
  },
  {
   "rk_id": "rk_pub_00097",
   "name": "和風レストラン 味閣",
   "name_en": "Wafu Restaurant Mikaku",
   "pref": "北海道",
   "pref_en": "Hokkaido",
   "city": "釧路市",
   "city_en": "Kushiro Shi",
   "lat": 42.889885,
   "lng": 143.933243,
   "keito": [],
   "genre": "ramen",
   "cash_only_flag": null,
   "payment_qr_accepted": null,
   "stationless_flag": null,
   "status": "active"
  },
  {
   "rk_id": "rk_pub_00098",
   "name": "ABCいすみゴルフコースレストラン",
   "name_en": "ABC Isumi Golf Course Restaurant",
   "pref": "千葉県",
   "pref_en": "Chiba",
   "city": "いすみ市",
   "city_en": "Isumi Shi",
   "lat": 35.275059,
   "lng": 140.314545,
   "keito": [],
   "genre": "ramen",
   "cash_only_flag": null,
   "payment_qr_accepted": null,
   "stationless_flag": null,
   "status": "active"
  },
  {
   "rk_id": "rk_pub_00099",
   "name": "大三元",
   "name_en": "Daisangen",
   "pref": "千葉県",
   "pref_en": "Chiba",
   "city": "八千代市",
   "city_en": "Yachiyo Shi",
   "lat": 35.757423,
   "lng": 140.116196,
   "keito": [],
   "genre": "ramen",
   "cash_only_flag": null,
   "payment_qr_accepted": null,
   "stationless_flag": null,
   "status": "active"
  },
  {
   "rk_id": "rk_pub_00100",
   "name": "めんや 志道",
   "name_en": "Menya Shido",
   "pref": "千葉県",
   "pref_en": "Chiba",
   "city": "八街市",
   "city_en": "Yachimata Shi",
   "lat": 35.698418,
   "lng": 140.304489,
   "keito": [],
   "genre": "ramen",
   "cash_only_flag": null,
   "payment_qr_accepted": null,
   "stationless_flag": null,
   "status": "active"
  },
  {
   "rk_id": "rk_pub_00101",
   "name": "DOLPHIN",
   "name_en": "DOLPHIN",
   "pref": "千葉県",
   "pref_en": "Chiba",
   "city": "勝浦市",
   "city_en": "Katsura Shi",
   "lat": 35.136158,
   "lng": 140.250854,
   "keito": [],
   "genre": "ramen",
   "cash_only_flag": null,
   "payment_qr_accepted": null,
   "stationless_flag": null,
   "status": "active"
  },
  {
   "rk_id": "rk_pub_00102",
   "name": "我流らぁめん 風神",
   "name_en": "Garyu Ramen Fujin",
   "pref": "千葉県",
   "pref_en": "Chiba",
   "city": "千葉市中央区",
   "city_en": "Chiba Shi Chuo Ku",
   "lat": 35.601692,
   "lng": 140.109848,
   "keito": [],
   "genre": "ramen",
   "cash_only_flag": null,
   "payment_qr_accepted": null,
   "stationless_flag": null,
   "status": "active"
  },
  {
   "rk_id": "rk_pub_00103",
   "name": "木栖飯店",
   "name_en": "Kisumi Hanten",
   "pref": "千葉県",
   "pref_en": "Chiba",
   "city": "千葉市中央区",
   "city_en": "Chiba Shi Chuo Ku",
   "lat": 35.604935,
   "lng": 140.127716,
   "keito": [],
   "genre": "chinese",
   "cash_only_flag": null,
   "payment_qr_accepted": null,
   "stationless_flag": null,
   "status": "active"
  },
  {
   "rk_id": "rk_pub_00104",
   "name": "豊源 院内店",
   "name_en": "Hogen Innai Ten",
   "pref": "千葉県",
   "pref_en": "Chiba",
   "city": "千葉市中央区",
   "city_en": "Chiba Shi Chuo Ku",
   "lat": 35.612003,
   "lng": 140.122818,
   "keito": [],
   "genre": "ramen",
   "cash_only_flag": null,
   "payment_qr_accepted": null,
   "stationless_flag": null,
   "status": "active"
  },
  {
   "rk_id": "rk_pub_00105",
   "name": "東京油組総本店 天台組",
   "name_en": "Tokyo Aburagumi Sohonten Tendaigumi",
   "pref": "千葉県",
   "pref_en": "Chiba",
   "city": "千葉市稲毛区",
   "city_en": "Chiba Shi Inage Ku",
   "lat": 35.629677,
   "lng": 140.113174,
   "keito": [
    "other"
   ],
   "genre": "ramen",
   "cash_only_flag": null,
   "payment_qr_accepted": null,
   "stationless_flag": null,
   "status": "active"
  },
  {
   "rk_id": "rk_pub_00106",
   "name": "海鮮餃子 帆船 プレナ幕張店",
   "name_en": "Kaisen Gyoza Hansen Purena Makuhariten",
   "pref": "千葉県",
   "pref_en": "Chiba",
   "city": "千葉市美浜区",
   "city_en": "Chiba Shi Mihama Ku",
   "lat": 35.647892,
   "lng": 140.040405,
   "keito": [],
   "genre": "chinese",
   "cash_only_flag": null,
   "payment_qr_accepted": null,
   "stationless_flag": null,
   "status": "active"
  },
  {
   "rk_id": "rk_pub_00107",
   "name": "桂林餃子 満足 新検見川店",
   "name_en": "Keirin Gyoza Manzoku Shinkemigawa Ten",
   "pref": "千葉県",
   "pref_en": "Chiba",
   "city": "千葉市花見川区",
   "city_en": "Chiba Shi Hanamigawa Ku",
   "lat": 35.65163,
   "lng": 140.070297,
   "keito": [],
   "genre": "chinese",
   "cash_only_flag": null,
   "payment_qr_accepted": null,
   "stationless_flag": null,
   "status": "active"
  },
  {
   "rk_id": "rk_pub_00108",
   "name": "らーめん 吉ちょう",
   "name_en": "Ramen Kicho",
   "pref": "千葉県",
   "pref_en": "Chiba",
   "city": "千葉市若葉区",
   "city_en": "Chiba Shi Wakaba Ku",
   "lat": 35.648281,
   "lng": 140.138885,
   "keito": [],
   "genre": "ramen",
   "cash_only_flag": null,
   "payment_qr_accepted": null,
   "stationless_flag": null,
   "status": "active"
  },
  {
   "rk_id": "rk_pub_00109",
   "name": "手打ちラーメン さど",
   "name_en": "Teuchi Ramen Sado",
   "pref": "千葉県",
   "pref_en": "Chiba",
   "city": "印旛郡栄町",
   "city_en": "Inba Gun Sakaemachi",
   "lat": 35.831528,
   "lng": 140.249237,
   "keito": [],
   "genre": "ramen",
   "cash_only_flag": null,
   "payment_qr_accepted": null,
   "stationless_flag": null,
   "status": "active"
  },
  {
   "rk_id": "rk_pub_00110",
   "name": "じげもんちゃんぽん 印西牧の原店",
   "name_en": "Jigemon Champon Inzai Makinohara Ten",
   "pref": "千葉県",
   "pref_en": "Chiba",
   "city": "印西市",
   "city_en": "Inzai Shi",
   "lat": 35.803074,
   "lng": 140.164886,
   "keito": [],
   "genre": "ramen",
   "cash_only_flag": null,
   "payment_qr_accepted": null,
   "stationless_flag": null,
   "status": "active"
  },
  {
   "rk_id": "rk_pub_00111",
   "name": "ピノキオラーメン",
   "name_en": "Pinocchio Ramen",
   "pref": "千葉県",
   "pref_en": "Chiba",
   "city": "君津市",
   "city_en": "Kimitsu Shi",
   "lat": 35.333008,
   "lng": 139.913055,
   "keito": [],
   "genre": "ramen",
   "cash_only_flag": null,
   "payment_qr_accepted": null,
   "stationless_flag": null,
   "status": "active"
  },
  {
   "rk_id": "rk_pub_00112",
   "name": "古民家ヌードゥル黒揚羽森住",
   "name_en": "Kominka Noodle Kuroageha Morisumi",
   "pref": "千葉県",
   "pref_en": "Chiba",
   "city": "大網白里市",
   "city_en": "Oamishirasato Shi",
   "lat": 35.514309,
   "lng": 140.340866,
   "keito": [],
   "genre": "ramen",
   "cash_only_flag": null,
   "payment_qr_accepted": null,
   "stationless_flag": null,
   "status": "active"
  },
  {
   "rk_id": "rk_pub_00113",
   "name": "麺屋 青山 本店",
   "name_en": "Menya Aoyama Honten",
   "pref": "千葉県",
   "pref_en": "Chiba",
   "city": "富里市",
   "city_en": "Tomisato Shi",
   "lat": 35.771297,
   "lng": 140.321182,
   "keito": [],
   "genre": "ramen",
   "cash_only_flag": null,
   "payment_qr_accepted": null,
   "stationless_flag": null,
   "status": "active"
  },
  {
   "rk_id": "rk_pub_00114",
   "name": "浜茶屋 網元",
   "name_en": "Hama Chaya Amimoto",
   "pref": "千葉県",
   "pref_en": "Chiba",
   "city": "山武郡九十九里町",
   "city_en": "Sanbu Gun Kujukuri Machi",
   "lat": 35.516109,
   "lng": 140.43924,
   "keito": [],
   "genre": "ramen",
   "cash_only_flag": null,
   "payment_qr_accepted": null,
   "stationless_flag": null,
   "status": "active"
  },
  {
   "rk_id": "rk_pub_00115",
   "name": "ラーメン どさん子 田尾店",
   "name_en": "Dosanko",
   "pref": "千葉県",
   "pref_en": "Chiba",
   "city": "市原市",
   "city_en": "Ichihara Shi",
   "lat": 35.368572,
   "lng": 140.178986,
   "keito": [
    "miso"
   ],
   "genre": "ramen",
   "cash_only_flag": null,
   "payment_qr_accepted": null,
   "stationless_flag": null,
   "status": "active"
  },
  {
   "rk_id": "rk_pub_00116",
   "name": "中国菜家明湘園",
   "name_en": "Chugoku Saika Meishoen",
   "pref": "千葉県",
   "pref_en": "Chiba",
   "city": "市原市",
   "city_en": "Ichihara Shi",
   "lat": 35.539009,
   "lng": 140.116791,
   "keito": [],
   "genre": "ramen",
   "cash_only_flag": null,
   "payment_qr_accepted": null,
   "stationless_flag": null,
   "status": "active"
  },
  {
   "rk_id": "rk_pub_00117",
   "name": "幸楽",
   "name_en": "Koraku",
   "pref": "千葉県",
   "pref_en": "Chiba",
   "city": "市川市",
   "city_en": "Ichikawa Shi",
   "lat": 35.721771,
   "lng": 139.925034,
   "keito": [],
   "genre": "ramen",
   "cash_only_flag": null,
   "payment_qr_accepted": null,
   "stationless_flag": null,
   "status": "active"
  },
  {
   "rk_id": "rk_pub_00118",
   "name": "日高屋 京成八幡駅前店",
   "name_en": "Hidakaya Keisei Yawata Ekimae Ten",
   "pref": "千葉県",
   "pref_en": "Chiba",
   "city": "市川市",
   "city_en": "Ichikawa Shi",
   "lat": 35.723213,
   "lng": 139.927185,
   "keito": [
    "shoyu"
   ],
   "genre": "ramen",
   "cash_only_flag": false,
   "payment_qr_accepted": null,
   "stationless_flag": null,
   "status": "active"
  },
  {
   "rk_id": "rk_pub_00119",
   "name": "市川 唐苑酒楼",
   "name_en": "Ichikawa Toen Shuro",
   "pref": "千葉県",
   "pref_en": "Chiba",
   "city": "市川市",
   "city_en": "Ichikawa Shi",
   "lat": 35.726509,
   "lng": 139.911407,
   "keito": [],
   "genre": "ramen",
   "cash_only_flag": null,
   "payment_qr_accepted": null,
   "stationless_flag": null,
   "status": "active"
  },
  {
   "rk_id": "rk_pub_00120",
   "name": "中華そば 翠流",
   "name_en": "Chuka Soba Suiryu",
   "pref": "千葉県",
   "pref_en": "Chiba",
   "city": "市川市",
   "city_en": "Ichikawa Shi",
   "lat": 35.753738,
   "lng": 139.952103,
   "keito": [
    "shoyu"
   ],
   "genre": "ramen",
   "cash_only_flag": null,
   "payment_qr_accepted": null,
   "stationless_flag": null,
   "status": "active"
  },
  {
   "rk_id": "rk_pub_00121",
   "name": "T'sたんたん 成田空港第2ターミナル店",
   "name_en": "T's Tantan Narita Kuko Dai 2 Terminal Ten",
   "pref": "千葉県",
   "pref_en": "Chiba",
   "city": "成田市",
   "city_en": "Narita Shi",
   "lat": 35.773689,
   "lng": 140.386032,
   "keito": [],
   "genre": "ramen",
   "cash_only_flag": null,
   "payment_qr_accepted": null,
   "stationless_flag": null,
   "status": "active"
  },
  {
   "rk_id": "rk_pub_00122",
   "name": "ファミリーチューカ なかむら",
   "name_en": "Family Chuka Nakamura",
   "pref": "千葉県",
   "pref_en": "Chiba",
   "city": "我孫子市",
   "city_en": "Abiko Shi",
   "lat": 35.871159,
   "lng": 140.04097,
   "keito": [],
   "genre": "ramen",
   "cash_only_flag": null,
   "payment_qr_accepted": null,
   "stationless_flag": null,
   "status": "active"
  },
  {
   "rk_id": "rk_pub_00123",
   "name": "中華 豊来軒",
   "name_en": "Chuka Houraiken",
   "pref": "千葉県",
   "pref_en": "Chiba",
   "city": "旭市",
   "city_en": "Asahi Shi",
   "lat": 35.720306,
   "lng": 140.652863,
   "keito": [],
   "genre": "ramen",
   "cash_only_flag": null,
   "payment_qr_accepted": null,
   "stationless_flag": null,
   "status": "active"
  },
  {
   "rk_id": "rk_pub_00124",
   "name": "熟成醤油らーめん ヤマト醤店",
   "name_en": "Jukusei Shoyu Ramen Yamato Shoten",
   "pref": "千葉県",
   "pref_en": "Chiba",
   "city": "木更津市",
   "city_en": "Kisarazu Shi",
   "lat": 35.386765,
   "lng": 139.929596,
   "keito": [
    "shoyu"
   ],
   "genre": "ramen",
   "cash_only_flag": null,
   "payment_qr_accepted": null,
   "stationless_flag": null,
   "status": "active"
  },
  {
   "rk_id": "rk_pub_00125",
   "name": "東京豚骨拉麺 しゃかりき",
   "name_en": "Tokyo Tonkotsu Ramen Shakariki",
   "pref": "千葉県",
   "pref_en": "Chiba",
   "city": "松戸市",
   "city_en": "Matsudo Shi",
   "lat": 35.810928,
   "lng": 139.894608,
   "keito": [
    "tonkotsu"
   ],
   "genre": "ramen",
   "cash_only_flag": null,
   "payment_qr_accepted": null,
   "stationless_flag": null,
   "status": "active"
  },
  {
   "rk_id": "rk_pub_00126",
   "name": "日高屋 新八柱店",
   "name_en": "Hidakaya",
   "pref": "千葉県",
   "pref_en": "Chiba",
   "city": "松戸市",
   "city_en": "Matsudo Shi",
   "lat": 35.790844,
   "lng": 139.937988,
   "keito": [
    "shoyu"
   ],
   "genre": "ramen",
   "cash_only_flag": false,
   "payment_qr_accepted": null,
   "stationless_flag": null,
   "status": "active"
  },
  {
   "rk_id": "rk_pub_00127",
   "name": "横浜家系ラーメン 壱角家 松戸五香店",
   "name_en": "Ichikakuya",
   "pref": "千葉県",
   "pref_en": "Chiba",
   "city": "松戸市",
   "city_en": "Matsudo Shi",
   "lat": 35.796314,
   "lng": 139.970215,
   "keito": [
    "tonkotsu"
   ],
   "genre": "ramen",
   "cash_only_flag": null,
   "payment_qr_accepted": null,
   "stationless_flag": null,
   "status": "active"
  },
  {
   "rk_id": "rk_pub_00128",
   "name": "東京餃子軒 テラスモール松戸店",
   "name_en": "Tokyo Gyoza Ken Terrace Mall Matsudo Ten",
   "pref": "千葉県",
   "pref_en": "Chiba",
   "city": "松戸市",
   "city_en": "Matsudo Shi",
   "lat": 35.817673,
   "lng": 139.932816,
   "keito": [],
   "genre": "chinese",
   "cash_only_flag": null,
   "payment_qr_accepted": null,
   "stationless_flag": null,
   "status": "active"
  },
  {
   "rk_id": "rk_pub_00129",
   "name": "北海道らーめん ひむろ 柏店",
   "name_en": "Hokkaido Ramen Himuro Kashiwa Ten",
   "pref": "千葉県",
   "pref_en": "Chiba",
   "city": "柏市",
   "city_en": "Kashiwa Shi",
   "lat": 35.860115,
   "lng": 139.972366,
   "keito": [],
   "genre": "ramen",
   "cash_only_flag": null,
   "payment_qr_accepted": null,
   "stationless_flag": null,
   "status": "active"
  },
  {
   "rk_id": "rk_pub_00130",
   "name": "大津ヶ丘飯店",
   "name_en": "Otsugaoka Hanten",
   "pref": "千葉県",
   "pref_en": "Chiba",
   "city": "柏市",
   "city_en": "Kashiwa Shi",
   "lat": 35.835354,
   "lng": 139.998672,
   "keito": [],
   "genre": "chinese",
   "cash_only_flag": null,
   "payment_qr_accepted": null,
   "stationless_flag": null,
   "status": "active"
  },
  {
   "rk_id": "rk_pub_00131",
   "name": "蒙古タンメン 中本 柏店",
   "name_en": "Moko Tanmen Nakamoto Kashiwa Ten",
   "pref": "千葉県",
   "pref_en": "Chiba",
   "city": "柏市",
   "city_en": "Kashiwa Shi",
   "lat": 35.861553,
   "lng": 139.971924,
   "keito": [
    "miso"
   ],
   "genre": "ramen",
   "cash_only_flag": true,
   "payment_qr_accepted": null,
   "stationless_flag": null,
   "status": "active"
  },
  {
   "rk_id": "rk_pub_00132",
   "name": "町田商店 柏沼南町店",
   "name_en": "Machida Shoten",
   "pref": "千葉県",
   "pref_en": "Chiba",
   "city": "柏市",
   "city_en": "Kashiwa Shi",
   "lat": 35.829182,
   "lng": 140.014847,
   "keito": [
    "tonkotsu"
   ],
   "genre": "ramen",
   "cash_only_flag": false,
   "payment_qr_accepted": null,
   "stationless_flag": null,
   "status": "active"
  },
  {
   "rk_id": "rk_pub_00133",
   "name": "The Noodles & Saloon Kiriya",
   "name_en": "The Noodles & Saloon Kiriya",
   "pref": "千葉県",
   "pref_en": "Chiba",
   "city": "流山市",
   "city_en": "Nagareyama Shi",
   "lat": 35.881367,
   "lng": 139.916962,
   "keito": [],
   "genre": "ramen",
   "cash_only_flag": null,
   "payment_qr_accepted": null,
   "stationless_flag": null,
   "status": "active"
  },
  {
   "rk_id": "rk_pub_00134",
   "name": "横浜家系ラーメン 壱角家 浦安店",
   "name_en": "Yokohama Iekei Ramen Ichikakuya Urayasu Ten",
   "pref": "千葉県",
   "pref_en": "Chiba",
   "city": "浦安市",
   "city_en": "Urayasu Shi",
   "lat": 35.665184,
   "lng": 139.894485,
   "keito": [
    "tonkotsu"
   ],
   "genre": "ramen",
   "cash_only_flag": null,
   "payment_qr_accepted": null,
   "stationless_flag": null,
   "status": "active"
  },
  {
   "rk_id": "rk_pub_00135",
   "name": "桂林餃子 満足 京成大久保駅前店",
   "name_en": "Keirin Gyoza Manzoku Keiseiokuboeki Mae Ten",
   "pref": "千葉県",
   "pref_en": "Chiba",
   "city": "習志野市",
   "city_en": "Narashino Shi",
   "lat": 35.686085,
   "lng": 140.049545,
   "keito": [],
   "genre": "chinese",
   "cash_only_flag": null,
   "payment_qr_accepted": null,
   "stationless_flag": null,
   "status": "active"
  },
  {
   "rk_id": "rk_pub_00136",
   "name": "つけめん らぁめん 宗庵 船橋店",
   "name_en": "Tsukemen Ramen Soan Funabashi Ten",
   "pref": "千葉県",
   "pref_en": "Chiba",
   "city": "船橋市",
   "city_en": "Funabashi Shi",
   "lat": 35.696281,
   "lng": 139.985413,
   "keito": [
    "tsukemen"
   ],
   "genre": "ramen",
   "cash_only_flag": null,
   "payment_qr_accepted": null,
   "stationless_flag": null,
   "status": "active"
  },
  {
   "rk_id": "rk_pub_00137",
   "name": "中華 上海",
   "name_en": "Chuka Shanghai",
   "pref": "千葉県",
   "pref_en": "Chiba",
   "city": "船橋市",
   "city_en": "Funabashi Shi",
   "lat": 35.730949,
   "lng": 140.02948,
   "keito": [],
   "genre": "ramen",
   "cash_only_flag": null,
   "payment_qr_accepted": null,
   "stationless_flag": null,
   "status": "active"
  },
  {
   "rk_id": "rk_pub_00138",
   "name": "中華そば 青葉 船橋店",
   "name_en": "Chuka Soba Aoba Funabashi Ten",
   "pref": "千葉県",
   "pref_en": "Chiba",
   "city": "船橋市",
   "city_en": "Funabashi Shi",
   "lat": 35.702137,
   "lng": 139.983231,
   "keito": [
    "shoyu"
   ],
   "genre": "ramen",
   "cash_only_flag": null,
   "payment_qr_accepted": null,
   "stationless_flag": null,
   "status": "active"
  },
  {
   "rk_id": "rk_pub_00139",
   "name": "韓豚屋 西船橋店",
   "name_en": "Hanton'ya Nishifunabashi Ten",
   "pref": "千葉県",
   "pref_en": "Chiba",
   "city": "船橋市",
   "city_en": "Funabashi Shi",
   "lat": 35.707939,
   "lng": 139.959732,
   "keito": [],
   "genre": "ramen",
   "cash_only_flag": null,
   "payment_qr_accepted": null,
   "stationless_flag": null,
   "status": "active"
  },
  {
   "rk_id": "rk_pub_00140",
   "name": "どうとんぼり神座 ららテラスTOKYO-BAY店",
   "name_en": "Dotonbori Kamukura",
   "pref": "千葉県",
   "pref_en": "Chiba",
   "city": "船橋市",
   "city_en": "Funabashi Shi",
   "lat": 35.682053,
   "lng": 139.994278,
   "keito": [],
   "genre": "ramen",
   "cash_only_flag": false,
   "payment_qr_accepted": null,
   "stationless_flag": null,
   "status": "active"
  },
  {
   "rk_id": "rk_pub_00141",
   "name": "めん六や 千葉茂原店",
   "name_en": "Men Roku Ya Chiba Mobara Ten",
   "pref": "千葉県",
   "pref_en": "Chiba",
   "city": "茂原市",
   "city_en": "Mobara Shi",
   "lat": 35.446499,
   "lng": 140.289383,
   "keito": [],
   "genre": "ramen",
   "cash_only_flag": null,
   "payment_qr_accepted": null,
   "stationless_flag": null,
   "status": "active"
  },
  {
   "rk_id": "rk_pub_00142",
   "name": "中華 志津",
   "name_en": "Chuka Shizu",
   "pref": "千葉県",
   "pref_en": "Chiba",
   "city": "野田市",
   "city_en": "Noda Shi",
   "lat": 35.942951,
   "lng": 139.86824,
   "keito": [],
   "genre": "ramen",
   "cash_only_flag": null,
   "payment_qr_accepted": null,
   "stationless_flag": null,
   "status": "active"
  },
  {
   "rk_id": "rk_pub_00143",
   "name": "福林厨房 イオンモール銚子店",
   "name_en": "Fukurin Chubo Aeon Mall Choshi Ten",
   "pref": "千葉県",
   "pref_en": "Chiba",
   "city": "銚子市",
   "city_en": "Choshi Shi",
   "lat": 35.709991,
   "lng": 140.787796,
   "keito": [],
   "genre": "ramen",
   "cash_only_flag": null,
   "payment_qr_accepted": null,
   "stationless_flag": null,
   "status": "active"
  },
  {
   "rk_id": "rk_pub_00144",
   "name": "中華料理 聚福栄",
   "name_en": "Chukaryori Jufukuei",
   "pref": "千葉県",
   "pref_en": "Chiba",
   "city": "鎌ケ谷市",
   "city_en": "Kama Ke Tani Shi",
   "lat": 35.759373,
   "lng": 140.004929,
   "keito": [],
   "genre": "chinese",
   "cash_only_flag": null,
   "payment_qr_accepted": null,
   "stationless_flag": null,
   "status": "active"
  },
  {
   "rk_id": "rk_pub_00145",
   "name": "正龍",
   "name_en": "Shoryu",
   "pref": "千葉県",
   "pref_en": "Chiba",
   "city": "館山市",
   "city_en": "Tateyama Shi",
   "lat": 34.99575,
   "lng": 139.859283,
   "keito": [],
   "genre": "ramen",
   "cash_only_flag": null,
   "payment_qr_accepted": null,
   "stationless_flag": null,
   "status": "active"
  },
  {
   "rk_id": "rk_pub_00146",
   "name": "支那そば へいきち 二代目",
   "name_en": "Shina Soba Heikichi Nidaime",
   "pref": "千葉県",
   "pref_en": "Chiba",
   "city": "香取市",
   "city_en": "Katori Shi",
   "lat": 35.860546,
   "lng": 140.60228,
   "keito": [
    "shoyu"
   ],
   "genre": "ramen",
   "cash_only_flag": null,
   "payment_qr_accepted": null,
   "stationless_flag": null,
   "status": "active"
  },
  {
   "rk_id": "rk_pub_00147",
   "name": "中華そば大福軒 西浜店",
   "name_en": "Chuka Soba Daifukuken Nishihama Ten",
   "pref": "和歌山県",
   "pref_en": "Wakayama",
   "city": "和歌山市",
   "city_en": "Wakayama Shi",
   "lat": 34.191429,
   "lng": 135.151413,
   "keito": [
    "shoyu"
   ],
   "genre": "ramen",
   "cash_only_flag": null,
   "payment_qr_accepted": null,
   "stationless_flag": null,
   "status": "active"
  },
  {
   "rk_id": "rk_pub_00148",
   "name": "餃子の王将 国体道路店",
   "name_en": "Gyoza No Osho Kokutai Doro Ten",
   "pref": "和歌山県",
   "pref_en": "Wakayama",
   "city": "和歌山市",
   "city_en": "Wakayama Shi",
   "lat": 34.211452,
   "lng": 135.185211,
   "keito": [],
   "genre": "chinese",
   "cash_only_flag": null,
   "payment_qr_accepted": null,
   "stationless_flag": null,
   "status": "active"
  },
  {
   "rk_id": "rk_pub_00149",
   "name": "En",
   "name_en": "En",
   "pref": "和歌山県",
   "pref_en": "Wakayama",
   "city": "和歌山市",
   "city_en": "Wakayama Shi",
   "lat": 34.276241,
   "lng": 135.080261,
   "keito": [],
   "genre": "ramen",
   "cash_only_flag": null,
   "payment_qr_accepted": null,
   "stationless_flag": null,
   "status": "active"
  },
  {
   "rk_id": "rk_pub_00150",
   "name": "中華そば まる徳",
   "name_en": "Chuka Soba Marutoku",
   "pref": "和歌山県",
   "pref_en": "Wakayama",
   "city": "有田郡有田川町",
   "city_en": "Arida Gun Aridagawa Machi",
   "lat": 34.051811,
   "lng": 135.243515,
   "keito": [
    "shoyu"
   ],
   "genre": "ramen",
   "cash_only_flag": null,
   "payment_qr_accepted": null,
   "stationless_flag": null,
   "status": "active"
  },
  {
   "rk_id": "rk_pub_00151",
   "name": "ローランドホリデー",
   "name_en": "Roland Holiday",
   "pref": "和歌山県",
   "pref_en": "Wakayama",
   "city": "紀の川市",
   "city_en": "Ki No Kawa Shi",
   "lat": 34.256836,
   "lng": 135.364197,
   "keito": [],
   "genre": "ramen",
   "cash_only_flag": null,
   "payment_qr_accepted": null,
   "stationless_flag": null,
   "status": "active"
  },
  {
   "rk_id": "rk_pub_00152",
   "name": "手揉み中華そば いしま",
   "name_en": "Te Momi Chuka Soba Ishima",
   "pref": "埼玉県",
   "pref_en": "Saitama",
   "city": "さいたま市中央区",
   "city_en": "Saitama Shi Chuo Ku",
   "lat": 35.882122,
   "lng": 139.625671,
   "keito": [
    "shoyu"
   ],
   "genre": "ramen",
   "cash_only_flag": null,
   "payment_qr_accepted": null,
   "stationless_flag": null,
   "status": "active"
  },
  {
   "rk_id": "rk_pub_00153",
   "name": "餃子の王将 武蔵浦和駅前店",
   "name_en": "Gyoza No Osho Musashiurawa Ekimae Ten",
   "pref": "埼玉県",
   "pref_en": "Saitama",
   "city": "さいたま市南区",
   "city_en": "Saitama Shi Minami Ku",
   "lat": 35.845978,
   "lng": 139.647781,
   "keito": [],
   "genre": "chinese",
   "cash_only_flag": null,
   "payment_qr_accepted": null,
   "stationless_flag": null,
   "status": "active"
  },
  {
   "rk_id": "rk_pub_00154",
   "name": "伝説のすた丼屋 大宮東口店",
   "name_en": "Densetsu No Sutadonya Omiya Higashiguchi Ten",
   "pref": "埼玉県",
   "pref_en": "Saitama",
   "city": "さいたま市大宮区",
   "city_en": "Saitama Shi Omiya Ku",
   "lat": 35.906666,
   "lng": 139.625687,
   "keito": [],
   "genre": "ramen",
   "cash_only_flag": null,
   "payment_qr_accepted": null,
   "stationless_flag": null,
   "status": "active"
  },
  {
   "rk_id": "rk_pub_00155",
   "name": "ラーメン二郎 大宮公園駅前店",
   "name_en": "Ramen Jiro",
   "pref": "埼玉県",
   "pref_en": "Saitama",
   "city": "さいたま市大宮区",
   "city_en": "Saitama Shi Omiya Ku",
   "lat": 35.921688,
   "lng": 139.632248,
   "keito": [
    "tonkotsu"
   ],
   "genre": "ramen",
   "cash_only_flag": true,
   "payment_qr_accepted": null,
   "stationless_flag": null,
   "status": "active"
  },
  {
   "rk_id": "rk_pub_00156",
   "name": "中華 味楽",
   "name_en": "Chuka Miraku",
   "pref": "埼玉県",
   "pref_en": "Saitama",
   "city": "さいたま市岩槻区",
   "city_en": "Saitama Shi Iwatsuki Ku",
   "lat": 35.961617,
   "lng": 139.715729,
   "keito": [],
   "genre": "ramen",
   "cash_only_flag": null,
   "payment_qr_accepted": null,
   "stationless_flag": null,
   "status": "active"
  },
  {
   "rk_id": "rk_pub_00157",
   "name": "手打式特級多加水 御影麺 鏑矢",
   "name_en": "Teuchishiki Tokkyu Takasui Mikagemen Kaburaya",
   "pref": "埼玉県",
   "pref_en": "Saitama",
   "city": "さいたま市桜区",
   "city_en": "Saitama Shi Sakura Ku",
   "lat": 35.871731,
   "lng": 139.598419,
   "keito": [],
   "genre": "ramen",
   "cash_only_flag": null,
   "payment_qr_accepted": null,
   "stationless_flag": null,
   "status": "active"
  },
  {
   "rk_id": "rk_pub_00158",
   "name": "狼煙 浦和店",
   "name_en": "Noroshi Urawa Ten",
   "pref": "埼玉県",
   "pref_en": "Saitama",
   "city": "さいたま市浦和区",
   "city_en": "Saitama Shi Urawa Ku",
   "lat": 35.8592,
   "lng": 139.654861,
   "keito": [],
   "genre": "ramen",
   "cash_only_flag": null,
   "payment_qr_accepted": null,
   "stationless_flag": null,
   "status": "active"
  },
  {
   "rk_id": "rk_pub_00159",
   "name": "お食事処 厚澤",
   "name_en": "Oshokujidokoro Atsuzawa",
   "pref": "埼玉県",
   "pref_en": "Saitama",
   "city": "さいたま市緑区",
   "city_en": "Saitama Shi Midori Ku",
   "lat": 35.888882,
   "lng": 139.67778,
   "keito": [],
   "genre": "ramen",
   "cash_only_flag": null,
   "payment_qr_accepted": null,
   "stationless_flag": null,
   "status": "active"
  },
  {
   "rk_id": "rk_pub_00160",
   "name": "舎鈴 東大宮店",
   "name_en": "Sharin",
   "pref": "埼玉県",
   "pref_en": "Saitama",
   "city": "さいたま市見沼区",
   "city_en": "Saitama Shi Minuma Ku",
   "lat": 35.944885,
   "lng": 139.642685,
   "keito": [
    "tsukemen"
   ],
   "genre": "ramen",
   "cash_only_flag": null,
   "payment_qr_accepted": null,
   "stationless_flag": null,
   "status": "active"
  },
  {
   "rk_id": "rk_pub_00161",
   "name": "麺処 とみや",
   "name_en": "Men Tokoro Tomiya",
   "pref": "埼玉県",
   "pref_en": "Saitama",
   "city": "ふじみ野市",
   "city_en": "Fujimi Noichi",
   "lat": 35.872189,
   "lng": 139.508743,
   "keito": [],
   "genre": "ramen",
   "cash_only_flag": null,
   "payment_qr_accepted": null,
   "stationless_flag": null,
   "status": "active"
  },
  {
   "rk_id": "rk_pub_00162",
   "name": "麺楽屋",
   "name_en": "Menrakuya",
   "pref": "埼玉県",
   "pref_en": "Saitama",
   "city": "上尾市",
   "city_en": "Ageo Shi",
   "lat": 35.982765,
   "lng": 139.570343,
   "keito": [],
   "genre": "ramen",
   "cash_only_flag": null,
   "payment_qr_accepted": null,
   "stationless_flag": null,
   "status": "active"
  },
  {
   "rk_id": "rk_pub_00163",
   "name": "一蘭 上尾店",
   "name_en": "Ichiran",
   "pref": "埼玉県",
   "pref_en": "Saitama",
   "city": "上尾市",
   "city_en": "Ageo Shi",
   "lat": 35.992111,
   "lng": 139.577759,
   "keito": [
    "tonkotsu"
   ],
   "genre": "ramen",
   "cash_only_flag": false,
   "payment_qr_accepted": null,
   "stationless_flag": null,
   "status": "active"
  },
  {
   "rk_id": "rk_pub_00164",
   "name": "餃子の王将 久喜店",
   "name_en": "Gyoza No Osho Kuki Ten",
   "pref": "埼玉県",
   "pref_en": "Saitama",
   "city": "久喜市",
   "city_en": "Kuki Shi",
   "lat": 36.076633,
   "lng": 139.666046,
   "keito": [],
   "genre": "chinese",
   "cash_only_flag": null,
   "payment_qr_accepted": null,
   "stationless_flag": null,
   "status": "active"
  },
  {
   "rk_id": "rk_pub_00165",
   "name": "京鼎樓小館 三井アウトレットパーク入間店",
   "name_en": "Kyoteiro Shokan Mitsui Outlet Park Iruma Ten",
   "pref": "埼玉県",
   "pref_en": "Saitama",
   "city": "入間市",
   "city_en": "Iruma Shi",
   "lat": 35.811531,
   "lng": 139.379013,
   "keito": [],
   "genre": "ramen",
   "cash_only_flag": null,
   "payment_qr_accepted": null,
   "stationless_flag": null,
   "status": "active"
  },
  {
   "rk_id": "rk_pub_00166",
   "name": "更科",
   "name_en": "Sarashina",
   "pref": "埼玉県",
   "pref_en": "Saitama",
   "city": "八潮市",
   "city_en": "Yashio Shi",
   "lat": 35.821144,
   "lng": 139.829605,
   "keito": [],
   "genre": "ramen",
   "cash_only_flag": null,
   "payment_qr_accepted": null,
   "stationless_flag": null,
   "status": "active"
  },
  {
   "rk_id": "rk_pub_00167",
   "name": "餃子の庶民亭",
   "name_en": "Gyoza no Shomintei",
   "pref": "埼玉県",
   "pref_en": "Saitama",
   "city": "加須市",
   "city_en": "Kazo Shi",
   "lat": 36.138371,
   "lng": 139.687241,
   "keito": [],
   "genre": "chinese",
   "cash_only_flag": null,
   "payment_qr_accepted": null,
   "stationless_flag": null,
   "status": "active"
  },
  {
   "rk_id": "rk_pub_00168",
   "name": "味楽楼",
   "name_en": "Mirakuro",
   "pref": "埼玉県",
   "pref_en": "Saitama",
   "city": "南埼玉郡宮代町",
   "city_en": "Minamisaitama Gun Miyashiro Machi",
   "lat": 36.002327,
   "lng": 139.731552,
   "keito": [],
   "genre": "ramen",
   "cash_only_flag": null,
   "payment_qr_accepted": null,
   "stationless_flag": null,
   "status": "active"
  },
  {
   "rk_id": "rk_pub_00169",
   "name": "江戸屋",
   "name_en": "Edoya",
   "pref": "埼玉県",
   "pref_en": "Saitama",
   "city": "坂戸市",
   "city_en": "Sakato Shi",
   "lat": 35.956867,
   "lng": 139.405609,
   "keito": [],
   "genre": "ramen",
   "cash_only_flag": null,
   "payment_qr_accepted": null,
   "stationless_flag": null,
   "status": "active"
  },
  {
   "rk_id": "rk_pub_00170",
   "name": "味噌屋 門左衛門",
   "name_en": "Miso Ya Monzaemon",
   "pref": "埼玉県",
   "pref_en": "Saitama",
   "city": "富士見市",
   "city_en": "Fujimi Shi",
   "lat": 35.840801,
   "lng": 139.564346,
   "keito": [
    "miso"
   ],
   "genre": "ramen",
   "cash_only_flag": null,
   "payment_qr_accepted": null,
   "stationless_flag": null,
   "status": "active"
  },
  {
   "rk_id": "rk_pub_00171",
   "name": "ばんくるラーメン",
   "name_en": "Bankuru Ramen",
   "pref": "埼玉県",
   "pref_en": "Saitama",
   "city": "川口市",
   "city_en": "Kawaguchi Shi",
   "lat": 35.827503,
   "lng": 139.721558,
   "keito": [],
   "genre": "ramen",
   "cash_only_flag": null,
   "payment_qr_accepted": null,
   "stationless_flag": null,
   "status": "active"
  },
  {
   "rk_id": "rk_pub_00172",
   "name": "豚丼・博多とんこつ ばりかた屋 アリオ川口店",
   "name_en": "Butadon Hakata Tonkotsu Barikata Ya Ario Kawaguchi Ten",
   "pref": "埼玉県",
   "pref_en": "Saitama",
   "city": "川口市",
   "city_en": "Kawaguchi Shi",
   "lat": 35.806885,
   "lng": 139.71582,
   "keito": [
    "tonkotsu"
   ],
   "genre": "ramen",
   "cash_only_flag": null,
   "payment_qr_accepted": null,
   "stationless_flag": null,
   "status": "active"
  },
  {
   "rk_id": "rk_pub_00173",
   "name": "ラーメン魁力屋 イオンモール川口店",
   "name_en": "Kairikiya",
   "pref": "埼玉県",
   "pref_en": "Saitama",
   "city": "川口市",
   "city_en": "Kawaguchi Shi",
   "lat": 35.839615,
   "lng": 139.723526,
   "keito": [
    "shoyu"
   ],
   "genre": "ramen",
   "cash_only_flag": false,
   "payment_qr_accepted": null,
   "stationless_flag": null,
   "status": "active"
  },
  {
   "rk_id": "rk_pub_00174",
   "name": "中華そば 花道",
   "name_en": "Chuka Soba Hanamichi",
   "pref": "埼玉県",
   "pref_en": "Saitama",
   "city": "川口市",
   "city_en": "Kawaguchi Shi",
   "lat": 35.807312,
   "lng": 139.719513,
   "keito": [
    "shoyu"
   ],
   "genre": "ramen",
   "cash_only_flag": null,
   "payment_qr_accepted": null,
   "stationless_flag": null,
   "status": "active"
  },
  {
   "rk_id": "rk_pub_00175",
   "name": "新潟長岡らーめん みずさわ 東川口店",
   "name_en": "Niigata Nagaoka Ramen Mizusawa Higashikawaguchi Ten",
   "pref": "埼玉県",
   "pref_en": "Saitama",
   "city": "川口市",
   "city_en": "Kawaguchi Shi",
   "lat": 35.87035,
   "lng": 139.751373,
   "keito": [],
   "genre": "ramen",
   "cash_only_flag": null,
   "payment_qr_accepted": null,
   "stationless_flag": null,
   "status": "active"
  },
  {
   "rk_id": "rk_pub_00176",
   "name": "市の屋飯店",
   "name_en": "Ichinoya Hanten",
   "pref": "埼玉県",
   "pref_en": "Saitama",
   "city": "川越市",
   "city_en": "Kawagoe Shi",
   "lat": 35.914673,
   "lng": 139.483444,
   "keito": [],
   "genre": "chinese",
   "cash_only_flag": null,
   "payment_qr_accepted": null,
   "stationless_flag": null,
   "status": "active"
  },
  {
   "rk_id": "rk_pub_00177",
   "name": "寿製麺よしかわ 川越店",
   "name_en": "Kotobuki Seimen Yoshikawa Kawagoe Ten",
   "pref": "埼玉県",
   "pref_en": "Saitama",
   "city": "川越市",
   "city_en": "Kawagoe Shi",
   "lat": 35.87524,
   "lng": 139.475266,
   "keito": [],
   "genre": "ramen",
   "cash_only_flag": null,
   "payment_qr_accepted": null,
   "stationless_flag": null,
   "status": "active"
  },
  {
   "rk_id": "rk_pub_00178",
   "name": "札幌ラーメン 武蔵 初夏の北海道物産展",
   "name_en": "Sapporo Ramen Musashi Shoka No Hokkaido Bussanten",
   "pref": "埼玉県",
   "pref_en": "Saitama",
   "city": "川越市",
   "city_en": "Kawagoe Shi",
   "lat": 35.912521,
   "lng": 139.48233,
   "keito": [
    "miso"
   ],
   "genre": "ramen",
   "cash_only_flag": null,
   "payment_qr_accepted": null,
   "stationless_flag": null,
   "status": "active"
  },
  {
   "rk_id": "rk_pub_00179",
   "name": "らあめん元 全国うまいものと有名駅弁の市",
   "name_en": "Ramen Moto Zenkoku Umaimono to Yumei Ekiben no Ichi",
   "pref": "埼玉県",
   "pref_en": "Saitama",
   "city": "川越市",
   "city_en": "Kawagoe Shi",
   "lat": 35.912521,
   "lng": 139.48233,
   "keito": [],
   "genre": "ramen",
   "cash_only_flag": null,
   "payment_qr_accepted": null,
   "stationless_flag": null,
   "status": "active"
  },
  {
   "rk_id": "rk_pub_00180",
   "name": "味楽亭",
   "name_en": "Mirakutei",
   "pref": "埼玉県",
   "pref_en": "Saitama",
   "city": "幸手市",
   "city_en": "Satte Shi",
   "lat": 36.070454,
   "lng": 139.718948,
   "keito": [],
   "genre": "ramen",
   "cash_only_flag": null,
   "payment_qr_accepted": null,
   "stationless_flag": null,
   "status": "active"
  },
  {
   "rk_id": "rk_pub_00181",
   "name": "金鼎軒",
   "name_en": "Kinteiken",
   "pref": "埼玉県",
   "pref_en": "Saitama",
   "city": "戸田市",
   "city_en": "Toda Shi",
   "lat": 35.826569,
   "lng": 139.643585,
   "keito": [],
   "genre": "ramen",
   "cash_only_flag": null,
   "payment_qr_accepted": null,
   "stationless_flag": null,
   "status": "active"
  },
  {
   "rk_id": "rk_pub_00182",
   "name": "ぎょうざの満洲 航空公園駅前店",
   "name_en": "Gyoza No Manshu Koku Koen Ekimae Ten",
   "pref": "埼玉県",
   "pref_en": "Saitama",
   "city": "所沢市",
   "city_en": "Tokorozawa Shi",
   "lat": 35.800636,
   "lng": 139.469254,
   "keito": [],
   "genre": "ramen",
   "cash_only_flag": null,
   "payment_qr_accepted": null,
   "stationless_flag": null,
   "status": "active"
  },
  {
   "rk_id": "rk_pub_00183",
   "name": "中国料理 祥和",
   "name_en": "Chugokuryori Showa",
   "pref": "埼玉県",
   "pref_en": "Saitama",
   "city": "所沢市",
   "city_en": "Tokorozawa Shi",
   "lat": 35.807743,
   "lng": 139.455566,
   "keito": [],
   "genre": "chinese",
   "cash_only_flag": null,
   "payment_qr_accepted": null,
   "stationless_flag": null,
   "status": "active"
  },
  {
   "rk_id": "rk_pub_00184",
   "name": "味鮮亭 ファルマン通り店",
   "name_en": "Misentei Faruman Dori Ten",
   "pref": "埼玉県",
   "pref_en": "Saitama",
   "city": "所沢市",
   "city_en": "Tokorozawa Shi",
   "lat": 35.790863,
   "lng": 139.469666,
   "keito": [],
   "genre": "ramen",
   "cash_only_flag": null,
   "payment_qr_accepted": null,
   "stationless_flag": null,
   "status": "active"
  },
  {
   "rk_id": "rk_pub_00185",
   "name": "高久 本店",
   "name_en": "Takaku Honten",
   "pref": "埼玉県",
   "pref_en": "Saitama",
   "city": "日高市",
   "city_en": "Hidaka Shi",
   "lat": 35.886738,
   "lng": 139.378998,
   "keito": [],
   "genre": "ramen",
   "cash_only_flag": null,
   "payment_qr_accepted": null,
   "stationless_flag": null,
   "status": "active"
  },
  {
   "rk_id": "rk_pub_00186",
   "name": "喜多方老麺まるや 春日部臨時店",
   "name_en": "Kitakata Romen Maruya Kasukabe Rinji Ten",
   "pref": "埼玉県",
   "pref_en": "Saitama",
   "city": "春日部市",
   "city_en": "Kasukabe Shi",
   "lat": 35.981434,
   "lng": 139.757919,
   "keito": [
    "shoyu"
   ],
   "genre": "ramen",
   "cash_only_flag": null,
   "payment_qr_accepted": null,
   "stationless_flag": null,
   "status": "active"
  },
  {
   "rk_id": "rk_pub_00187",
   "name": "昆布森",
   "name_en": "Konbu Mori",
   "pref": "埼玉県",
   "pref_en": "Saitama",
   "city": "朝霞市",
   "city_en": "Asaka Shi",
   "lat": 35.797306,
   "lng": 139.599426,
   "keito": [],
   "genre": "ramen",
   "cash_only_flag": null,
   "payment_qr_accepted": null,
   "stationless_flag": null,
   "status": "active"
  },
  {
   "rk_id": "rk_pub_00188",
   "name": "バーミヤン 児玉店",
   "name_en": "Bamiyan Kodama Ten",
   "pref": "埼玉県",
   "pref_en": "Saitama",
   "city": "本庄市",
   "city_en": "Honjo Shi",
   "lat": 36.199146,
   "lng": 139.135223,
   "keito": [],
   "genre": "ramen",
   "cash_only_flag": null,
   "payment_qr_accepted": null,
   "stationless_flag": null,
   "status": "active"
  },
  {
   "rk_id": "rk_pub_00189",
   "name": "らあめん花月嵐 高坂サービスエリア店",
   "name_en": "Ramen Kagetsu Arashi Takasaka Service Area Ten",
   "pref": "埼玉県",
   "pref_en": "Saitama",
   "city": "東松山市",
   "city_en": "Higashimatsuyama Shi",
   "lat": 35.987839,
   "lng": 139.393005,
   "keito": [
    "tonkotsu"
   ],
   "genre": "ramen",
   "cash_only_flag": null,
   "payment_qr_accepted": null,
   "stationless_flag": null,
   "status": "active"
  },
  {
   "rk_id": "rk_pub_00190",
   "name": "菜食健美 里味",
   "name_en": "Saishoku Kenbi Satomi",
   "pref": "埼玉県",
   "pref_en": "Saitama",
   "city": "比企郡ときがわ町",
   "city_en": "Hiki Gun Tokigawa Machi",
   "lat": 36.002129,
   "lng": 139.235489,
   "keito": [],
   "genre": "ramen",
   "cash_only_flag": null,
   "payment_qr_accepted": null,
   "stationless_flag": null,
   "status": "active"
  },
  {
   "rk_id": "rk_pub_00191",
   "name": "麺屋 くおん",
   "name_en": "Menya Kuon",
   "pref": "埼玉県",
   "pref_en": "Saitama",
   "city": "深谷市",
   "city_en": "Fukaya Shi",
   "lat": 36.178963,
   "lng": 139.305054,
   "keito": [],
   "genre": "ramen",
   "cash_only_flag": null,
   "payment_qr_accepted": null,
   "stationless_flag": null,
   "status": "active"
  },
  {
   "rk_id": "rk_pub_00192",
   "name": "ラーメン永華",
   "name_en": "Ramen Eika",
   "pref": "埼玉県",
   "pref_en": "Saitama",
   "city": "熊谷市",
   "city_en": "Kumagaya Shi",
   "lat": 36.187878,
   "lng": 139.369354,
   "keito": [],
   "genre": "ramen",
   "cash_only_flag": null,
   "payment_qr_accepted": null,
   "stationless_flag": null,
   "status": "active"
  },
  {
   "rk_id": "rk_pub_00193",
   "name": "台湾料理 美味居",
   "name_en": "Taiwan Ryori Bimi Kyo",
   "pref": "埼玉県",
   "pref_en": "Saitama",
   "city": "熊谷市",
   "city_en": "Kumagaya Shi",
   "lat": 36.114037,
   "lng": 139.336929,
   "keito": [],
   "genre": "chinese",
   "cash_only_flag": null,
   "payment_qr_accepted": null,
   "stationless_flag": null,
   "status": "active"
  },
  {
   "rk_id": "rk_pub_00194",
   "name": "ジャンクガレッジ 狭山店",
   "name_en": "Junk Garage Sayama Ten",
   "pref": "埼玉県",
   "pref_en": "Saitama",
   "city": "狭山市",
   "city_en": "Sayama Shi",
   "lat": 35.851917,
   "lng": 139.418045,
   "keito": [
    "other"
   ],
   "genre": "ramen",
   "cash_only_flag": null,
   "payment_qr_accepted": null,
   "stationless_flag": null,
   "status": "active"
  },
  {
   "rk_id": "rk_pub_00195",
   "name": "中華料理 天鳳",
   "name_en": "Chukaryori Tenho",
   "pref": "埼玉県",
   "pref_en": "Saitama",
   "city": "秩父市",
   "city_en": "Chichibu Shi",
   "lat": 36.020996,
   "lng": 139.099518,
   "keito": [],
   "genre": "chinese",
   "cash_only_flag": null,
   "payment_qr_accepted": null,
   "stationless_flag": null,
   "status": "active"
  },
  {
   "rk_id": "rk_pub_00196",
   "name": "バーミヤン 羽生店",
   "name_en": "Bamiyan Hanyu Ten",
   "pref": "埼玉県",
   "pref_en": "Saitama",
   "city": "羽生市",
   "city_en": "Hanyu Shi",
   "lat": 36.165001,
   "lng": 139.544678,
   "keito": [],
   "genre": "ramen",
   "cash_only_flag": null,
   "payment_qr_accepted": null,
   "stationless_flag": null,
   "status": "active"
  },
  {
   "rk_id": "rk_pub_00197",
   "name": "幸楽苑 草加店",
   "name_en": "Kourakuen Soka Ten",
   "pref": "埼玉県",
   "pref_en": "Saitama",
   "city": "草加市",
   "city_en": "Soka Shi",
   "lat": 35.836391,
   "lng": 139.79953,
   "keito": [
    "shoyu"
   ],
   "genre": "ramen",
   "cash_only_flag": false,
   "payment_qr_accepted": null,
   "stationless_flag": null,
   "status": "active"
  },
  {
   "rk_id": "rk_pub_00198",
   "name": "大福源 草加本店",
   "name_en": "Daifuku Gen Soka Honten",
   "pref": "埼玉県",
   "pref_en": "Saitama",
   "city": "草加市",
   "city_en": "Soka Shi",
   "lat": 35.829391,
   "lng": 139.804688,
   "keito": [],
   "genre": "ramen",
   "cash_only_flag": null,
   "payment_qr_accepted": null,
   "stationless_flag": null,
   "status": "active"
  },
  {
   "rk_id": "rk_pub_00199",
   "name": "福龍",
   "name_en": "Fukuryu",
   "pref": "埼玉県",
   "pref_en": "Saitama",
   "city": "行田市",
   "city_en": "Gyoda Shi",
   "lat": 36.147572,
   "lng": 139.462296,
   "keito": [],
   "genre": "ramen",
   "cash_only_flag": null,
   "payment_qr_accepted": null,
   "stationless_flag": null,
   "status": "active"
  },
  {
   "rk_id": "rk_pub_00200",
   "name": "バーミヤン 越谷神明店",
   "name_en": "Bamiyan Koshigaya Jinmei Ten",
   "pref": "埼玉県",
   "pref_en": "Saitama",
   "city": "越谷市",
   "city_en": "Koshigaya Shi",
   "lat": 35.897598,
   "lng": 139.769394,
   "keito": [],
   "genre": "ramen",
   "cash_only_flag": null,
   "payment_qr_accepted": null,
   "stationless_flag": null,
   "status": "active"
  },
  {
   "rk_id": "rk_pub_00201",
   "name": "台湾料理 花粥 HANAKAYU",
   "name_en": "Taiwan Ryori Hanakayu",
   "pref": "埼玉県",
   "pref_en": "Saitama",
   "city": "越谷市",
   "city_en": "Koshigaya Shi",
   "lat": 35.882484,
   "lng": 139.828323,
   "keito": [],
   "genre": "chinese",
   "cash_only_flag": null,
   "payment_qr_accepted": null,
   "stationless_flag": null,
   "status": "active"
  },
  {
   "rk_id": "rk_pub_00202",
   "name": "日高屋 越谷平方南町店",
   "name_en": "Hidakaya Koshigaya Hirakata Minamimachi Ten",
   "pref": "埼玉県",
   "pref_en": "Saitama",
   "city": "越谷市",
   "city_en": "Koshigaya Shi",
   "lat": 35.942791,
   "lng": 139.782364,
   "keito": [
    "shoyu"
   ],
   "genre": "ramen",
   "cash_only_flag": false,
   "payment_qr_accepted": null,
   "stationless_flag": null,
   "status": "active"
  },
  {
   "rk_id": "rk_pub_00203",
   "name": "麺や しし丸。",
   "name_en": "Menya Shishimaru",
   "pref": "埼玉県",
   "pref_en": "Saitama",
   "city": "鴻巣市",
   "city_en": "Konosu Shi",
   "lat": 36.073257,
   "lng": 139.497864,
   "keito": [],
   "genre": "ramen",
   "cash_only_flag": null,
   "payment_qr_accepted": null,
   "stationless_flag": null,
   "status": "active"
  },
  {
   "rk_id": "rk_pub_00204",
   "name": "翔天食堂",
   "name_en": "Shoten Shokudo",
   "pref": "大分県",
   "pref_en": "Oita",
   "city": "中津市",
   "city_en": "Nakatsu Shi",
   "lat": 33.562443,
   "lng": 131.205048,
   "keito": [],
   "genre": "ramen",
   "cash_only_flag": null,
   "payment_qr_accepted": null,
   "stationless_flag": null,
   "status": "active"
  },
  {
   "rk_id": "rk_pub_00205",
   "name": "きらく屋らーめん",
   "name_en": "Kiraku Ya Ramen",
   "pref": "大分県",
   "pref_en": "Oita",
   "city": "別府市",
   "city_en": "Beppu Shi",
   "lat": 33.305634,
   "lng": 131.50087,
   "keito": [],
   "genre": "ramen",
   "cash_only_flag": null,
   "payment_qr_accepted": null,
   "stationless_flag": null,
   "status": "active"
  },
  {
   "rk_id": "rk_pub_00206",
   "name": "ラーメン 味噌亭",
   "name_en": "Ramen Misotei",
   "pref": "大分県",
   "pref_en": "Oita",
   "city": "国東市",
   "city_en": "Kunisaki Shi",
   "lat": 33.469814,
   "lng": 131.723572,
   "keito": [
    "miso"
   ],
   "genre": "ramen",
   "cash_only_flag": null,
   "payment_qr_accepted": null,
   "stationless_flag": null,
   "status": "active"
  },
  {
   "rk_id": "rk_pub_00207",
   "name": "無敵のおやじ",
   "name_en": "Muteki no Oyaji",
   "pref": "大分県",
   "pref_en": "Oita",
   "city": "大分市",
   "city_en": "Oita Shi",
   "lat": 33.23801,
   "lng": 131.605316,
   "keito": [],
   "genre": "ramen",
   "cash_only_flag": null,
   "payment_qr_accepted": null,
   "stationless_flag": null,
   "status": "active"
  },
  {
   "rk_id": "rk_pub_00208",
   "name": "油そば フジワラ",
   "name_en": "Abura Soba Fujiwara",
   "pref": "大分県",
   "pref_en": "Oita",
   "city": "大分市",
   "city_en": "Oita Shi",
   "lat": 33.237953,
   "lng": 131.606964,
   "keito": [
    "other"
   ],
   "genre": "ramen",
   "cash_only_flag": null,
   "payment_qr_accepted": null,
   "stationless_flag": null,
   "status": "active"
  },
  {
   "rk_id": "rk_pub_00209",
   "name": "NOODLE & BAR S",
   "name_en": "NOODLE & BAR S",
   "pref": "大分県",
   "pref_en": "Oita",
   "city": "日田市",
   "city_en": "Hita Shi",
   "lat": 33.314625,
   "lng": 130.933167,
   "keito": [],
   "genre": "ramen",
   "cash_only_flag": null,
   "payment_qr_accepted": null,
   "stationless_flag": null,
   "status": "active"
  },
  {
   "rk_id": "rk_pub_00210",
   "name": "中国料理 つね川",
   "name_en": "Chugokuryori Tsunekawa",
   "pref": "大阪府",
   "pref_en": "Osaka",
   "city": "交野市",
   "city_en": "Katano Shi",
   "lat": 34.771553,
   "lng": 135.66777,
   "keito": [],
   "genre": "chinese",
   "cash_only_flag": null,
   "payment_qr_accepted": null,
   "stationless_flag": null,
   "status": "active"
  },
  {
   "rk_id": "rk_pub_00211",
   "name": "麺屋 四季 本店",
   "name_en": "Menya Shiki Honten",
   "pref": "大阪府",
   "pref_en": "Osaka",
   "city": "吹田市",
   "city_en": "Suita Shi",
   "lat": 34.765255,
   "lng": 135.5215,
   "keito": [],
   "genre": "ramen",
   "cash_only_flag": null,
   "payment_qr_accepted": null,
   "stationless_flag": null,
   "status": "active"
  },
  {
   "rk_id": "rk_pub_00212",
   "name": "麺場 田所商店 千里丘店",
   "name_en": "Menba Tadokoro Shoten Senrioka Ten",
   "pref": "大阪府",
   "pref_en": "Osaka",
   "city": "吹田市",
   "city_en": "Suita Shi",
   "lat": 34.789871,
   "lng": 135.538986,
   "keito": [
    "miso"
   ],
   "genre": "ramen",
   "cash_only_flag": false,
   "payment_qr_accepted": null,
   "stationless_flag": null,
   "status": "active"
  },
  {
   "rk_id": "rk_pub_00213",
   "name": "餃子の王将 福田店",
   "name_en": "Gyoza No Osho Fukuda Ten",
   "pref": "大阪府",
   "pref_en": "Osaka",
   "city": "堺市中区",
   "city_en": "Sakai Shi Naka Ku",
   "lat": 34.529518,
   "lng": 135.522568,
   "keito": [],
   "genre": "chinese",
   "cash_only_flag": null,
   "payment_qr_accepted": null,
   "stationless_flag": null,
   "status": "active"
  },
  {
   "rk_id": "rk_pub_00214",
   "name": "らぁ麺 みつひら",
   "name_en": "Ramen Mitsuhira",
   "pref": "大阪府",
   "pref_en": "Osaka",
   "city": "堺市堺区",
   "city_en": "Sakai Shi Sakai Ku",
   "lat": 34.564507,
   "lng": 135.498993,
   "keito": [],
   "genre": "ramen",
   "cash_only_flag": null,
   "payment_qr_accepted": null,
   "stationless_flag": null,
   "status": "active"
  },
  {
   "rk_id": "rk_pub_00215",
   "name": "餃子専門店 紬刃",
   "name_en": "Gyoza Senmonten Tsumugiba",
   "pref": "大阪府",
   "pref_en": "Osaka",
   "city": "堺市美原区",
   "city_en": "Sakai Shi Mihara Ku",
   "lat": 34.53883,
   "lng": 135.561722,
   "keito": [],
   "genre": "chinese",
   "cash_only_flag": null,
   "payment_qr_accepted": null,
   "stationless_flag": null,
   "status": "active"
  },
  {
   "rk_id": "rk_pub_00216",
   "name": "どうとんぼり神座 心斎橋店",
   "name_en": "Dotonbori Kamukura",
   "pref": "大阪府",
   "pref_en": "Osaka",
   "city": "大阪市中央区",
   "city_en": "Osaka Shi Chuo Ku",
   "lat": 34.671883,
   "lng": 135.50087,
   "keito": [],
   "genre": "ramen",
   "cash_only_flag": false,
   "payment_qr_accepted": null,
   "stationless_flag": null,
   "status": "active"
  },
  {
   "rk_id": "rk_pub_00217",
   "name": "ファン・サパロット",
   "name_en": "Fan Saparotto",
   "pref": "大阪府",
   "pref_en": "Osaka",
   "city": "大阪市中央区",
   "city_en": "Osaka Shi Chuo Ku",
   "lat": 34.666763,
   "lng": 135.506989,
   "keito": [],
   "genre": "ramen",
   "cash_only_flag": null,
   "payment_qr_accepted": null,
   "stationless_flag": null,
   "status": "active"
  },
  {
   "rk_id": "rk_pub_00218",
   "name": "ラーメン 横綱 NAMBAなんなん店",
   "name_en": "Ramen Yokozuna Namba Nannan Ten",
   "pref": "大阪府",
   "pref_en": "Osaka",
   "city": "大阪市中央区",
   "city_en": "Osaka Shi Chuo Ku",
   "lat": 34.664261,
   "lng": 135.501404,
   "keito": [],
   "genre": "ramen",
   "cash_only_flag": null,
   "payment_qr_accepted": null,
   "stationless_flag": null,
   "status": "active"
  },
  {
   "rk_id": "rk_pub_00219",
   "name": "岡本商店 北浜店",
   "name_en": "Okamoto Shoten Kitahama Ten",
   "pref": "大阪府",
   "pref_en": "Osaka",
   "city": "大阪市中央区",
   "city_en": "Osaka Shi Chuo Ku",
   "lat": 34.687626,
   "lng": 135.505508,
   "keito": [],
   "genre": "ramen",
   "cash_only_flag": null,
   "payment_qr_accepted": null,
   "stationless_flag": null,
   "status": "active"
  },
  {
   "rk_id": "rk_pub_00220",
   "name": "泰式香辛麺商店 仲吉",
   "name_en": "Thai Shiki Koshinmen Shoten Nakayoshi",
   "pref": "大阪府",
   "pref_en": "Osaka",
   "city": "大阪市中央区",
   "city_en": "Osaka Shi Chuo Ku",
   "lat": 34.681522,
   "lng": 135.502838,
   "keito": [],
   "genre": "ramen",
   "cash_only_flag": null,
   "payment_qr_accepted": null,
   "stationless_flag": null,
   "status": "active"
  },
  {
   "rk_id": "rk_pub_00221",
   "name": "麺や 玄 なんば千日前店",
   "name_en": "Men Ya Gen Nanba Sennichimae Ten",
   "pref": "大阪府",
   "pref_en": "Osaka",
   "city": "大阪市中央区",
   "city_en": "Osaka Shi Chuo Ku",
   "lat": 34.664623,
   "lng": 135.503616,
   "keito": [],
   "genre": "ramen",
   "cash_only_flag": null,
   "payment_qr_accepted": null,
   "stationless_flag": null,
   "status": "active"
  },
  {
   "rk_id": "rk_pub_00222",
   "name": "麺や おだしとにくと",
   "name_en": "Men Ya Odashi to Niku to",
   "pref": "大阪府",
   "pref_en": "Osaka",
   "city": "大阪市中央区",
   "city_en": "Osaka Shi Chuo Ku",
   "lat": 34.683353,
   "lng": 135.51239,
   "keito": [],
   "genre": "ramen",
   "cash_only_flag": null,
   "payment_qr_accepted": null,
   "stationless_flag": null,
   "status": "active"
  },
  {
   "rk_id": "rk_pub_00223",
   "name": "釈迦力 友",
   "name_en": "Shakariki Tomo",
   "pref": "大阪府",
   "pref_en": "Osaka",
   "city": "大阪市住吉区",
   "city_en": "Osaka Shi Sumiyoshi Ku",
   "lat": 34.600143,
   "lng": 135.51355,
   "keito": [],
   "genre": "ramen",
   "cash_only_flag": null,
   "payment_qr_accepted": null,
   "stationless_flag": null,
   "status": "active"
  },
  {
   "rk_id": "rk_pub_00224",
   "name": "末広亭",
   "name_en": "Suehirotei",
   "pref": "大阪府",
   "pref_en": "Osaka",
   "city": "大阪市北区",
   "city_en": "Osaka Shi Kita Ku",
   "lat": 34.703075,
   "lng": 135.48642,
   "keito": [],
   "genre": "ramen",
   "cash_only_flag": null,
   "payment_qr_accepted": null,
   "stationless_flag": null,
   "status": "active"
  },
  {
   "rk_id": "rk_pub_00225",
   "name": "らーめん颯人",
   "name_en": "Ramen Hayato",
   "pref": "大阪府",
   "pref_en": "Osaka",
   "city": "大阪市北区",
   "city_en": "Osaka Shi Kita Ku",
   "lat": 34.695587,
   "lng": 135.510086,
   "keito": [],
   "genre": "ramen",
   "cash_only_flag": null,
   "payment_qr_accepted": null,
   "stationless_flag": null,
   "status": "active"
  },
  {
   "rk_id": "rk_pub_00226",
   "name": "らー麺 はな",
   "name_en": "Ramen Hana",
   "pref": "大阪府",
   "pref_en": "Osaka",
   "city": "大阪市北区",
   "city_en": "Osaka Shi Kita Ku",
   "lat": 34.701256,
   "lng": 135.518143,
   "keito": [],
   "genre": "ramen",
   "cash_only_flag": null,
   "payment_qr_accepted": null,
   "stationless_flag": null,
   "status": "active"
  },
  {
   "rk_id": "rk_pub_00227",
   "name": "Ramen がちんこ一家",
   "name_en": "Ramen Gachinko Ikka",
   "pref": "大阪府",
   "pref_en": "Osaka",
   "city": "大阪市北区",
   "city_en": "Osaka Shi Kita Ku",
   "lat": 34.711052,
   "lng": 135.500534,
   "keito": [
    "tonkotsu"
   ],
   "genre": "ramen",
   "cash_only_flag": null,
   "payment_qr_accepted": null,
   "stationless_flag": null,
   "status": "active"
  },
  {
   "rk_id": "rk_pub_00228",
   "name": "中菜バル 堂島",
   "name_en": "Chusai Baru Dojima",
   "pref": "大阪府",
   "pref_en": "Osaka",
   "city": "大阪市北区",
   "city_en": "Osaka Shi Kita Ku",
   "lat": 34.69722,
   "lng": 135.493835,
   "keito": [],
   "genre": "ramen",
   "cash_only_flag": null,
   "payment_qr_accepted": null,
   "stationless_flag": null,
   "status": "active"
  },
  {
   "rk_id": "rk_pub_00229",
   "name": "餃子の王将 城東今福店",
   "name_en": "Gyoza No Osho Joto Imafuku Ten",
   "pref": "大阪府",
   "pref_en": "Osaka",
   "city": "大阪市城東区",
   "city_en": "Osaka Shi Joto Ku",
   "lat": 34.700401,
   "lng": 135.559891,
   "keito": [],
   "genre": "chinese",
   "cash_only_flag": null,
   "payment_qr_accepted": null,
   "stationless_flag": null,
   "status": "active"
  },
  {
   "rk_id": "rk_pub_00230",
   "name": "チャイナ・ダイニング アルファ",
   "name_en": "China Dining Alpha",
   "pref": "大阪府",
   "pref_en": "Osaka",
   "city": "大阪市天王寺区",
   "city_en": "Osaka Shi Tennoji Ku",
   "lat": 34.653282,
   "lng": 135.513062,
   "keito": [],
   "genre": "ramen",
   "cash_only_flag": null,
   "payment_qr_accepted": null,
   "stationless_flag": null,
   "status": "active"
  },
  {
   "rk_id": "rk_pub_00231",
   "name": "麺邸 いざかなや",
   "name_en": "Men Tei Izakanaya",
   "pref": "大阪府",
   "pref_en": "Osaka",
   "city": "大阪市平野区",
   "city_en": "Osaka Shi Heiya Ku",
   "lat": 34.630974,
   "lng": 135.546768,
   "keito": [],
   "genre": "ramen",
   "cash_only_flag": null,
   "payment_qr_accepted": null,
   "stationless_flag": null,
   "status": "active"
  },
  {
   "rk_id": "rk_pub_00232",
   "name": "ラーメン食堂 さんご",
   "name_en": "Ramen Shokudo Sango",
   "pref": "大阪府",
   "pref_en": "Osaka",
   "city": "大阪市東住吉区",
   "city_en": "Osaka Shi Higashisumiyoshi Ku",
   "lat": 34.617168,
   "lng": 135.531784,
   "keito": [],
   "genre": "ramen",
   "cash_only_flag": null,
   "payment_qr_accepted": null,
   "stationless_flag": null,
   "status": "active"
  },
  {
   "rk_id": "rk_pub_00233",
   "name": "鬼徹",
   "name_en": "Kitetsu",
   "pref": "大阪府",
   "pref_en": "Osaka",
   "city": "大阪市東淀川区",
   "city_en": "Osaka Shi Higashiyodogawa Ku",
   "lat": 34.742832,
   "lng": 135.534821,
   "keito": [],
   "genre": "ramen",
   "cash_only_flag": null,
   "payment_qr_accepted": null,
   "stationless_flag": null,
   "status": "active"
  },
  {
   "rk_id": "rk_pub_00234",
   "name": "てんがら らーめん 新世界店",
   "name_en": "Tengara Ramen Shinsekai Ten",
   "pref": "大阪府",
   "pref_en": "Osaka",
   "city": "大阪市浪速区",
   "city_en": "Osaka Shi Naniwa Ku",
   "lat": 34.649719,
   "lng": 135.504074,
   "keito": [],
   "genre": "ramen",
   "cash_only_flag": null,
   "payment_qr_accepted": null,
   "stationless_flag": null,
   "status": "active"
  },
  {
   "rk_id": "rk_pub_00235",
   "name": "河童ラーメン本舗 新大阪店",
   "name_en": "Kappa Ramen Honpo Shin Osaka Ten",
   "pref": "大阪府",
   "pref_en": "Osaka",
   "city": "大阪市淀川区",
   "city_en": "Osaka Shi Yodogawa Ku",
   "lat": 34.733646,
   "lng": 135.494476,
   "keito": [],
   "genre": "ramen",
   "cash_only_flag": false,
   "payment_qr_accepted": null,
   "stationless_flag": null,
   "status": "active"
  },
  {
   "rk_id": "rk_pub_00236",
   "name": "ラーメン坐 裕冬",
   "name_en": "Ramen Za Yuto",
   "pref": "大阪府",
   "pref_en": "Osaka",
   "city": "大阪市淀川区",
   "city_en": "Osaka Shi Yodogawa Ku",
   "lat": 34.729015,
   "lng": 135.500885,
   "keito": [],
   "genre": "ramen",
   "cash_only_flag": null,
   "payment_qr_accepted": null,
   "stationless_flag": null,
   "status": "active"
  },
  {
   "rk_id": "rk_pub_00237",
   "name": "九州ラーメン 博多っ娘",
   "name_en": "Kyushu Ramen Hakatakko",
   "pref": "大阪府",
   "pref_en": "Osaka",
   "city": "大阪市港区",
   "city_en": "Osaka Shi Minato Ku",
   "lat": 34.669971,
   "lng": 135.464111,
   "keito": [
    "tonkotsu"
   ],
   "genre": "ramen",
   "cash_only_flag": null,
   "payment_qr_accepted": null,
   "stationless_flag": null,
   "status": "active"
  },
  {
   "rk_id": "rk_pub_00238",
   "name": "らーめんセンタートミオじゃないそば屋さん 1030≠765",
   "name_en": "Ramen Center Tomio Janai Sobaya San 1030 765",
   "pref": "大阪府",
   "pref_en": "Osaka",
   "city": "大阪市生野区",
   "city_en": "Osaka Shi Ikuno Ku",
   "lat": 34.647945,
   "lng": 135.524918,
   "keito": [],
   "genre": "ramen",
   "cash_only_flag": null,
   "payment_qr_accepted": null,
   "stationless_flag": null,
   "status": "active"
  },
  {
   "rk_id": "rk_pub_00239",
   "name": "こだわりらーめんカフェ 壺水天 南堀江店",
   "name_en": "Kodawari Ramen Cafe Kosuiten Minamihorie Ten",
   "pref": "大阪府",
   "pref_en": "Osaka",
   "city": "大阪市西区",
   "city_en": "Osaka Shi Nishi Ku",
   "lat": 34.672302,
   "lng": 135.493881,
   "keito": [],
   "genre": "ramen",
   "cash_only_flag": null,
   "payment_qr_accepted": null,
   "stationless_flag": null,
   "status": "active"
  },
  {
   "rk_id": "rk_pub_00240",
   "name": "八仙楼",
   "name_en": "Hassenro",
   "pref": "大阪府",
   "pref_en": "Osaka",
   "city": "大阪市西成区",
   "city_en": "Osaka Shi Nishinari Ku",
   "lat": 34.649132,
   "lng": 135.501801,
   "keito": [],
   "genre": "ramen",
   "cash_only_flag": null,
   "payment_qr_accepted": null,
   "stationless_flag": null,
   "status": "active"
  },
  {
   "rk_id": "rk_pub_00241",
   "name": "元祖餃子舗 珉珉 京橋店",
   "name_en": "Ganso Gyozaho Minmin Kyobashi Ten",
   "pref": "大阪府",
   "pref_en": "Osaka",
   "city": "大阪市都島区",
   "city_en": "Osaka Shi Miyako Shima Ku",
   "lat": 34.698013,
   "lng": 135.535126,
   "keito": [],
   "genre": "chinese",
   "cash_only_flag": null,
   "payment_qr_accepted": null,
   "stationless_flag": null,
   "status": "active"
  },
  {
   "rk_id": "rk_pub_00242",
   "name": "らぁめん屋 MAREN",
   "name_en": "Ramen Ya Maren",
   "pref": "大阪府",
   "pref_en": "Osaka",
   "city": "大阪市阿倍野区",
   "city_en": "Osaka Shi Abeno Ku",
   "lat": 34.618286,
   "lng": 135.514923,
   "keito": [],
   "genre": "ramen",
   "cash_only_flag": null,
   "payment_qr_accepted": null,
   "stationless_flag": null,
   "status": "active"
  },
  {
   "rk_id": "rk_pub_00243",
   "name": "菊水飯店",
   "name_en": "Kikusui Hanten",
   "pref": "大阪府",
   "pref_en": "Osaka",
   "city": "守口市",
   "city_en": "Moriguchi Shi",
   "lat": 34.726093,
   "lng": 135.579468,
   "keito": [],
   "genre": "chinese",
   "cash_only_flag": null,
   "payment_qr_accepted": null,
   "stationless_flag": null,
   "status": "active"
  },
  {
   "rk_id": "rk_pub_00244",
   "name": "本格四川料理 華洋",
   "name_en": "Honkaku Shisenryori Kayo",
   "pref": "大阪府",
   "pref_en": "Osaka",
   "city": "寝屋川市",
   "city_en": "Neyagawa Shi",
   "lat": 34.76265,
   "lng": 135.62117,
   "keito": [],
   "genre": "ramen",
   "cash_only_flag": null,
   "payment_qr_accepted": null,
   "stationless_flag": null,
   "status": "active"
  },
  {
   "rk_id": "rk_pub_00245",
   "name": "らー麺 雄 摂津店",
   "name_en": "Ramen Yu Settsu Ten",
   "pref": "大阪府",
   "pref_en": "Osaka",
   "city": "摂津市",
   "city_en": "Settsu Shi",
   "lat": 34.788261,
   "lng": 135.554962,
   "keito": [],
   "genre": "ramen",
   "cash_only_flag": null,
   "payment_qr_accepted": null,
   "stationless_flag": null,
   "status": "active"
  },
  {
   "rk_id": "rk_pub_00246",
   "name": "河童ラーメン本舗 東大阪店",
   "name_en": "Kappa Ramen Honpo Higashiosaka Ten",
   "pref": "大阪府",
   "pref_en": "Osaka",
   "city": "東大阪市",
   "city_en": "Higashiosaka Shi",
   "lat": 34.673413,
   "lng": 135.590179,
   "keito": [],
   "genre": "ramen",
   "cash_only_flag": false,
   "payment_qr_accepted": null,
   "stationless_flag": null,
   "status": "active"
  },
  {
   "rk_id": "rk_pub_00247",
   "name": "ニンニクラーメン 44",
   "name_en": "Ninnikuramen 44",
   "pref": "大阪府",
   "pref_en": "Osaka",
   "city": "東大阪市",
   "city_en": "Higashiosaka Shi",
   "lat": 34.665413,
   "lng": 135.561386,
   "keito": [],
   "genre": "ramen",
   "cash_only_flag": null,
   "payment_qr_accepted": null,
   "stationless_flag": null,
   "status": "active"
  },
  {
   "rk_id": "rk_pub_00248",
   "name": "キッチン ちいちゃん",
   "name_en": "Kitchen Chichan",
   "pref": "大阪府",
   "pref_en": "Osaka",
   "city": "松原市",
   "city_en": "Matsubara Shi",
   "lat": 34.596432,
   "lng": 135.536438,
   "keito": [],
   "genre": "ramen",
   "cash_only_flag": null,
   "payment_qr_accepted": null,
   "stationless_flag": null,
   "status": "active"
  },
  {
   "rk_id": "rk_pub_00249",
   "name": "枚方塩元帥",
   "name_en": "Hirakata Shiogensui",
   "pref": "大阪府",
   "pref_en": "Osaka",
   "city": "枚方市",
   "city_en": "Hirakata Shi",
   "lat": 34.840893,
   "lng": 135.660828,
   "keito": [],
   "genre": "ramen",
   "cash_only_flag": null,
   "payment_qr_accepted": null,
   "stationless_flag": null,
   "status": "active"
  },
  {
   "rk_id": "rk_pub_00250",
   "name": "濃厚豚骨ラーメン いちれん家 泉佐野店",
   "name_en": "Noko Tonkotsu Ramen Ichirenya Izumisano Ten",
   "pref": "大阪府",
   "pref_en": "Osaka",
   "city": "泉佐野市",
   "city_en": "Izumisano Shi",
   "lat": 34.408291,
   "lng": 135.327164,
   "keito": [
    "tonkotsu"
   ],
   "genre": "ramen",
   "cash_only_flag": null,
   "payment_qr_accepted": null,
   "stationless_flag": null,
   "status": "active"
  },
  {
   "rk_id": "rk_pub_00251",
   "name": "博多長浜ラーメンだるま一家 箕面店",
   "name_en": "Hakata Nagahama Ramen Daruma Ikka Mino Ten",
   "pref": "大阪府",
   "pref_en": "Osaka",
   "city": "箕面市",
   "city_en": "Mino Shi",
   "lat": 34.821552,
   "lng": 135.49173,
   "keito": [
    "tonkotsu"
   ],
   "genre": "ramen",
   "cash_only_flag": null,
   "payment_qr_accepted": null,
   "stationless_flag": null,
   "status": "active"
  },
  {
   "rk_id": "rk_pub_00252",
   "name": "餃子の王将 府道143号茨木島店",
   "name_en": "Gyoza No Osho Fudo 143 Go Ibarakijima Ten",
   "pref": "大阪府",
   "pref_en": "Osaka",
   "city": "茨木市",
   "city_en": "Ibaraki Shi",
   "lat": 34.790848,
   "lng": 135.575424,
   "keito": [],
   "genre": "chinese",
   "cash_only_flag": null,
   "payment_qr_accepted": null,
   "stationless_flag": null,
   "status": "active"
  },
  {
   "rk_id": "rk_pub_00253",
   "name": "きりん寺 阪大前店",
   "name_en": "Kirinji Handai Mae Ten",
   "pref": "大阪府",
   "pref_en": "Osaka",
   "city": "豊中市",
   "city_en": "Toyonaka Shi",
   "lat": 34.806698,
   "lng": 135.448334,
   "keito": [],
   "genre": "ramen",
   "cash_only_flag": null,
   "payment_qr_accepted": null,
   "stationless_flag": null,
   "status": "active"
  },
  {
   "rk_id": "rk_pub_00254",
   "name": "ひろ",
   "name_en": "Hiro",
   "pref": "大阪府",
   "pref_en": "Osaka",
   "city": "貝塚市",
   "city_en": "Kaizuka Shi",
   "lat": 34.409336,
   "lng": 135.385651,
   "keito": [],
   "genre": "ramen",
   "cash_only_flag": null,
   "payment_qr_accepted": null,
   "stationless_flag": null,
   "status": "active"
  },
  {
   "rk_id": "rk_pub_00255",
   "name": "餃子の王将 阪南箱作店",
   "name_en": "Gyoza No Osho Hannan Hakozukuri Ten",
   "pref": "大阪府",
   "pref_en": "Osaka",
   "city": "阪南市",
   "city_en": "Hannan Shi",
   "lat": 34.341381,
   "lng": 135.214127,
   "keito": [],
   "genre": "chinese",
   "cash_only_flag": null,
   "payment_qr_accepted": null,
   "stationless_flag": null,
   "status": "active"
  },